stop_id,stop_name,stop_lat,stop_lon,muni
M0785,North Plaza Nord,46.11339173,-64.8290333,Moncton
M0213,1360 Mountain,46.11042119,-64.83140706,Moncton
M0214,1234 Mountain,46.10865093,-64.82781424,Moncton
M0215,1192 Mountain,46.10749087,-64.82551961,Moncton
M0216,1144 Mountain,46.10664732,-64.8237869,Moncton
M0217,1062 Mountain,46.10489584,-64.8202665,Moncton
M0218,1036 Mountain,46.10385514,-64.81820657,Moncton
M0219,1000 Mountain,46.10317118,-64.8168373,Moncton
M0220,950 Mountain,46.10202051,-64.81439113,Moncton
M0221,900 Mountain,46.10136068,-64.81245055,Moncton
M0222,854 Mountain,46.10050506,-64.80958058,Moncton
M0223,814 Mountain,46.10008127,-64.80786799,Moncton
M0224,770 Mountain,46.09951532,-64.80547949,Moncton
M0225,700 Mountain,46.09890915,-64.80239226,Moncton
M0226,640 Mountain,46.09825469,-64.79908912,Moncton
M0227,350 Mountain,46.0975211,-64.79600726,Moncton
M0228,344 Mountain,46.09605527,-64.79108675,Moncton
M1178,296 Mountain,46.09544105,-64.78827982,Moncton
M1175,228 Highfield St,46.0937754,-64.78715597,Moncton
M1176,Highfield / Dufferin,46.09101809,-64.78595703,Moncton
M1182,357 St George,46.09004847,-64.78831469,Moncton
M1183,473 St George,46.08903325,-64.79341491,Moncton
M0463,Main / Vaughan Harvey,46.08507029,-64.7887653,Moncton
M0464,1234 Main,46.08558393,-64.78705405,Moncton
M0413,1110 Main,46.08621023,-64.7851765,Moncton
M0252,880 Main,46.088051,-64.77969562,Moncton
M0253,770 Main,46.08855,-64.77722602,Moncton
M0254,644 Main,46.08905,-64.77522,Moncton
M0255,11 Main,46.09049103,-64.77110027,Moncton
M0256,100 Main,46.09195954,-64.76738139,Moncton
D0257,14 Champlain,46.09328187,-64.76042239,Moncton
D0258,450 Paul,46.09616659,-64.75673838,Moncton
D0200,CF Champlain,46.09585239,-64.7590148,Moncton
M0234,1111 Main,46.08625582,-64.78518857,Moncton
M0235,1167 Main,46.0855665,-64.78720425,Moncton
M1164,Cameron / Gordon,46.0878504,-64.78853463,Moncton
M0362,Gordon / McDougall,46.08772433,-64.78952705,Moncton
M0363,High / St George,46.08922369,-64.79077025,Moncton
M0364,165 High,46.08978025,-64.79099824,Moncton
M0365,219 High,46.09130911,-64.79162185,Moncton
M0366,265 High,46.0925456,-64.79215427,Moncton
M0367,159 John,46.09313435,-64.79327946,Moncton
M0368,207 John,46.09293318,-64.79430138,Moncton
M0369,11 Norwood,46.09333417,-64.7946152,Moncton
M0370,Norwood / York,46.09471283,-64.79520126,Moncton
M0371,Norwood / Essex,46.09538472,-64.79550167,Moncton
M0372,45 Essex,46.09536595,-64.79627951,Moncton
M1076,63 Essex,46.09512455,-64.79744627,Moncton
M0373,Edmonton / War Veterans,46.09526805,-64.79957862,Moncton
M0733,War Veterans / Flanders,46.09339586,-64.79981734,Moncton
M0734,War Veterans / John,46.09196625,-64.79935734,Moncton
M0238,Vaughan Harvey YMCA,46.09284467,-64.80189337,Moncton
M0239,Vaughan Harvey / Edmonton,46.09525732,-64.80289115,Moncton
M0374,21 MacBeath,46.10026634,-64.80445622,Moncton
M0375,69 MacBeath,46.10222704,-64.80527161,Moncton
M0376,135 MacBeath,46.10521636,-64.80651884,Moncton
M0377,Arden / West,46.10663793,-64.80399086,Moncton
M1077,172 West,46.10478587,-64.80311244,Moncton
M0741,144 West,46.10364995,-64.80264707,Moncton
M0378,64 Connaught,46.10345013,-64.80101361,Moncton
M0743,18 Connaught,46.10413007,-64.79750394,Moncton
M0746,450 Université,46.10639519,-64.79182436,Moncton
M0969,Université,46.10379211,-64.78641702,Moncton
M0380,330 Université,46.09829894,-64.78612064,Moncton
M0381,250 Université,46.09578974,-64.78507056,Moncton
M0382,192 Mountain,46.0947705,-64.78376566,Moncton
M0750,Mountain / Robinson,46.09468735,-64.78185056,Moncton
M0383,Church / Mountain,46.09460554,-64.78016882,Moncton
M0926,Botsford / Alma,46.09361446,-64.77789162,Moncton
M0927,Botsford / St George,46.09249732,-64.77741285,Moncton
M0757,St George / Alma,46.09214864,-64.7782792,Moncton
M1078,185 St George,46.09161085,-64.78084608,Moncton
M0758,211 St George,46.09135068,-64.7820638,Moncton
M0388,281 St George,46.09063989,-64.7854112,Moncton
M0232,124 Highfield,46.09027109,-64.78564723,Moncton
R0568,720 Coverdale,46.05966786,-64.81766656,Moncton
R0569,710 Coverdale,46.0614816,-64.81495305,Moncton
R0570,702 Coverdale,46.06193757,-64.81295614,Moncton
R0603,620 Coverdale,46.06246999,-64.81063603,Moncton
R0571,512 Coverdale,46.0629206,-64.80866595,Moncton
R0604,21 Crystal,46.06439454,-64.80903388,Moncton
R0605,Crystal / Coverdale,46.06356836,-64.80734764,Moncton
R0572,438 Coverdale,46.06437034,-64.80210661,Moncton
R0573,402 Coverdale,46.06610975,-64.7984749,Moncton
R0574,334 Coverdale,46.06788403,-64.79499339,Moncton
T8501,Hillsborough / Gunningsville,46.07295743,-64.78211342,Moncton
R0540,Hillsborough / Hillview,46.07358775,-64.78042229,Moncton
R1043,Hillsborough / Howard,46.07415101,-64.77893232,Moncton
T8502,Leonard / Hillsborough,46.07447,-64.777334,Moncton
T8503,125 Leonard,46.07326454,-64.77642177,Moncton
T8504,206 Old Coach,46.07144466,-64.77294295,Moncton
T8505,240 Old Coach,46.073485,-64.769995,Moncton
R0544,500 Hillsborough,46.07563964,-64.76461335,Moncton
T8506,7 Point Park,46.076104,-64.763819,Moncton
T8507,17 Avondale,46.07645235,-64.76229189,Moncton
T8508,4 Darwin,46.077586,-64.761627,Moncton
T8509,Darwin / Bloor,46.07725567,-64.75993021,Moncton
T8510,77 Darwin,46.076629,-64.757825,Moncton
T8511,86 Muncey,46.07556051,-64.75674374,Moncton
T8512,2 Riverlea,46.07362262,-64.75522293,Moncton
R0546,682 Hillsborough,46.07278711,-64.75425331,Moncton
R0547,722 Hillsborough,46.07096991,-64.75145711,Moncton
R0548,750 Hillsborough,46.06957248,-64.74935023,Moncton
R0550,54 Hiltz,46.06547407,-64.74701269,Moncton
R0551,33 Manning,46.06658048,-64.7474928,Moncton
R0552,Manning / Hillsborough,46.06753803,-64.74653257,Moncton
R0553,745 Hillsborough,46.06939948,-64.74903373,Moncton
R0554,Hillsborough / Hawkes,46.07167668,-64.75247501,Moncton
T8513,559 Hillsborough,46.07464186,-64.75840001,Moncton
T8514,15 Runneymeade,46.07412553,-64.76167633,Moncton
T8515,35 Runneymeade,46.07237941,-64.76249977,Moncton
T8516,Runneymeade / Hilltop Lane,46.07099942,-64.76261108,Moncton
T8517,189 Runneymeade,46.06812677,-64.76250245,Moncton
T8518,Gunningsville / Pinewood,46.05121276,-64.77871908,Moncton
T8519,Pine Glen / Gunningsville,46.04784793,-64.78757976,Moncton
T8520,Pine Glen / St Martins,46.04959807,-64.78792711,Moncton
T8522,Cleveland/Pinewood,46.05213946,-64.79277922,Moncton
R1056,528 Pinewood,46.0517264,-64.79517041,Moncton
R0587,330 Whitepine,46.05238086,-64.80193495,Moncton
R0813,Henderson / Brewster,46.05065084,-64.80568602,Moncton
R1037,Henderson / Kimberly,46.04915953,-64.80536951,Moncton
R0814,Henderson / Trider,46.04779294,-64.80460106,Moncton
R1038,112 Henderson,46.04349873,-64.79973017,Moncton
R0588,Lawson / Irving,46.04223138,-64.80075477,Moncton
R0589,6 Frost,46.04348398,-64.80419739,Moncton
R1039,Frost / Callowhill,46.04192427,-64.80573429,Moncton
R0590,304 Callowhill,46.04236415,-64.81067224,Moncton
R1094,Tobias / Callaghan,46.04685685,-64.81278448,Moncton
R0591,Trites / Callaghan,46.0466758,-64.8142141,Moncton
R0592,Trites / Whitepine,46.04948408,-64.81546937,Moncton
R0593,221 Whitepine,46.05002588,-64.81298162,Moncton
R0816,249 Whitepine,46.05058378,-64.8095256,Moncton
R1040,Whitepine / Henderson,46.05136028,-64.80606957,Moncton
R0594,306 Buckingham,46.05251766,-64.80309232,Moncton
R1042,286 Buckingham,46.05412966,-64.80382322,Moncton
R0595,Buckingham / Sussex,46.0554587,-64.8057705,Moncton
R0596,153 Sussex,46.0549531,-64.80793907,Moncton
R0597,141 Sussex,46.05462587,-64.80959802,Moncton
R0598,123 Sussex,46.05405188,-64.81311976,Moncton
R0599,103 Sussex,46.05365223,-64.81551229,Moncton
R0600,Sussex / Trites,46.0534162,-64.81697543,Moncton
R0601,Waterfall / Wilson,46.05287171,-64.81887176,Moncton
R1041,54 Wilson,46.05640284,-64.82001438,Moncton
R0602,Wilson / Coverdale,46.05976767,-64.82127367,Moncton
T8524,Coverdale / Townsend,46.05913332,-64.82342883,Moncton
T8525,815 Coverdale,46.05734563,-64.82774584,Moncton
T8526,Coverdale / Branden,46.05044163,-64.83481883,Moncton
T8527,965 Coverdale ,46.04810006,-64.84206348,Moncton
T8528,Patricia / Elmer Buck,46.05057037,-64.84246044,Moncton
T8529,Patricia / Jane,46.05131737,-64.83883678,Moncton
T8530,Patricia / Brock,46.0521046,-64.83366414,Moncton
T8531,866 Coverdale,46.05423025,-64.8319435,Moncton
T8532,822 Coverdale,46.05720616,-64.82793896,Moncton
T8533,Coverdale / Woolridge,46.05925671,-64.82295408,Moncton
R1178,Riverview Mall Entrance,46.059901,-64.818884,Moncton
M0442,Highfield / Gordon,46.08860946,-64.78487341,Moncton
M0441,40 Weldon,46.086649,-64.786537,Moncton
R1172,Coverdale / Pine Glen,46.06838695,-64.79372873,Moncton
R1171, Coverdale / Wedgewood,46.06485582,-64.80092912,Moncton
R1103,Coverdale / Crystal,46.06311641,-64.8079498,Moncton
R0567,683 Coverdale,46.06237343,-64.81121673,Moncton
R1105,Coverdale / Biggs,46.0610967,-64.81681584,Moncton
T8601,Trites / Sussex,46.05344034,-64.81722622,Moncton
T8606,Whitepine / Lawson,46.05236075,-64.80186789,Moncton
T8602,529 Whitepine,46.053229,-64.795757,Moncton
R1058,Pinewood / Pine Glen,46.052341,-64.789477,Moncton
T8603,Gunningsville / Pine Glen,46.04742146,-64.78621318,Moncton
T8604,Gunningsville / Robertson,46.05119801,-64.77863996,Moncton
T8605,Gunningsville / Hillsborough,46.07211924,-64.78261231,Moncton
D0793,Paul / Régis,46.09795026,-64.75882246,Moncton
M0340,120 Shediac,46.10344342,-64.76270093,Moncton
T6301,58 Glenwood,46.10393561,-64.75946485,Moncton
T6302,Glenwood / Edgehill,46.10448144,-64.75665121,Moncton
T6303,Arène Kay Arena,46.10534108,-64.75235297,Moncton
T6304,Wynwood / Castle,46.10494412,-64.7501844,Moncton
T6305,Parc Wynwood Park,46.10543228,-64.74774493,Moncton
T6306,Wynwood / Highlandview,46.10465041,-64.74517404,Moncton
T6311,McAuley / Highlandview,46.1056254,-64.74192186,Moncton
T6312,50 McAuley,46.1070805,-64.74251328,Moncton
M0695,Shediac / Branch,46.11033938,-64.73863883,Moncton
M0352,834 Shediac,46.11271716,-64.73089932,Moncton
M0697,960 Shediac,46.11535511,-64.72623898,Moncton
M0698,Weston / Shediac,46.11865825,-64.71958844,Moncton
M0699,110 Weston,46.1213351,-64.72280709,Moncton
M0700,Clover / Northumberland,46.12025014,-64.72552685,Moncton
M1074,Hammond / Gagnon,46.12078658,-64.72779064,Moncton
M0708,74 Gagnon,46.11862607,-64.72620009,Moncton
M0702,Gagnon / Shediac,46.11632607,-64.72474633,Moncton
M0354,Sprucegrove / Shediac,46.11537255,-64.72628324,Moncton
M0355,845 Shediac,46.1126729,-64.73116217,Moncton
M0696,Shediac / Meadow,46.11052311,-64.73815738,Moncton
M0694,591 Shediac,46.10959373,-64.74236174,Moncton
M0351,535 Shediac,46.10918201,-64.74455579,Moncton
M0350,435 Shediac,46.10829822,-64.74918528,Moncton
M0349,349 Shediac,46.10765851,-64.7526118,Moncton
T6307,11 Scott,46.107515,-64.755786,Moncton
T6308,Rosedale / Tingley,46.10997326,-64.7581519,Moncton
M0345,166 Drummond,46.11033133,-64.75920199,Moncton
M0692,32 Drummond,46.10911763,-64.76579486,Moncton
T6309,54 Mill,46.10674522,-64.76721241,Moncton
M0343,Mill / Mansfield,46.10565624,-64.76701258,Moncton
M0342,140 Pleasant,46.1054819,-64.76422979,Moncton
T6310,10 MacLaren,46.10549933,-64.76155429,Moncton
M0360,121 Shediac,46.10349706,-64.76268484,Moncton
M0792,300 Lewisville,46.1014492,-64.76393341,Moncton
M0205,1365 Mountain,46.11113197,-64.83276962,Moncton
M0925,1521 Mountain,46.11467785,-64.8376499,Moncton
M0317,1567 Mountain,46.11598409,-64.83919754,Moncton
M0924,1655 Mountain,46.11768997,-64.84089538,Moncton
M0318,1699 Mountain,46.11923627,-64.8432061,Moncton
M0915,1809 Mountain,46.12142629,-64.84690755,Moncton
M0916,1855 Mountain,46.12203247,-64.84952807,Moncton
M0917,1909 Mountain,46.12244553,-64.85167651,Moncton
M0320,2031 Mountain,46.12375981,-64.856593,Moncton
M0321,2149 Mountain,46.12522698,-64.86141025,Moncton
M1008,2181 Mountain,46.12585194,-64.86340984,Moncton
M0322,2291 Mountain,46.12883187,-64.86785426,Moncton
M0323,2463 Mountain,46.12962983,-64.87439349,Moncton
M0913,2515 Mountain,46.13022394,-64.87845837,Moncton
M1141,Mountain Rd / Ensley N,46.1336062,-64.88664716,Moncton
M1114,Mountain / Magic Mountain,46.13489366,-64.88879427,Moncton
M1115,Magnetic Hill,46.13665185,-64.89101379,Moncton
M1116,2800 Mountain,46.13488159,-64.8888345,Moncton
M1142,Mountain / Ensley S,46.13344929,-64.88645806,Moncton
M1162,Mountain / Casino,46.13024674,-64.87888484,Moncton
M0325,2550 Mountain,46.12985245,-64.87619995,Moncton
M0326,75 Sunshine,46.12807281,-64.87644538,Moncton
M1073,Sunshine / Glen Abbey,46.12656272,-64.87804129,Moncton
M1112,960 Muirfield,46.12444646,-64.87946152,Moncton
M0807,506 Twin Oaks,46.12068198,-64.87497418,Moncton
M0329,Twin Oaks / Maplehurst,46.11749551,-64.87114131,Moncton
M0330,Twin Oaks / Tanglewood,46.11591033,-64.8683223,Moncton
M0331,Twin Oaks / Evergreen,46.11089326,-64.86302897,Moncton
M0332,Rennick / Forest Grove,46.11094154,-64.86156716,Moncton
M0333,258 Rennick,46.11179314,-64.85741242,Moncton
M0334,186 Rennick,46.11231483,-64.85463767,Moncton
M0336,124 Rennick,46.111163,-64.852202,Moncton
M0337,Rennick / Sutton,46.1095602,-64.84814539,Moncton
M0338,Hildegard / Mailhot,46.11232153,-64.84668626,Moncton
M0339,Hildegard / Ivy,46.11503995,-64.84320878,Moncton
M0909,Hildegard / Laforge,46.11659563,-64.84119846,Moncton
M0808,1576 Mountain,46.1159452,-64.83922972,Moncton
M1075,Trinity / The Brick,46.11585132,-64.8308961,Moncton
M0390,Trinity / Mapleton,46.11722193,-64.82739045,Moncton
M0391,Mapleton / Plaza,46.1147154,-64.82590585,Moncton
M0201,219 Lewisville,46.10252879,-64.76749806,Moncton
M0202,111 Lewisville,46.10154442,-64.77145566,Moncton
M0203,37 Lewisville,46.10012285,-64.77465688,Moncton
M0294,Université,46.10383368,-64.7864063,Moncton
M0295,Université / Antonine-Maillet,46.10614172,-64.791072,Moncton
M1163,Université / Morton,46.1066272,-64.7923608,Moncton
M1061,Morton / Pascal-Poirier,46.10947571,-64.78701516,Moncton
M0298,160 Morton,46.11047751,-64.78270753,Moncton
M0299,245 McLaughlin,46.11282176,-64.78091581,Moncton
M0921,297 McLaughlin,46.11448071,-64.7823508,Moncton
M0301,385 McLaughlin,46.11716024,-64.78467091,Moncton
M0302,McLaughlin / Bliss,46.11891574,-64.78621184,Moncton
M6102,Mclaughlin / Liberty,46.122964,-64.789686,Moncton
T6102,140 Granite,46.13003484,-64.77784603,Moncton
M6101,Granite / Elmwood,46.13047204,-64.77234213,Moncton
T6101,652 Elmwood,46.12423322,-64.77091654,Moncton
M0310,592 Elmwood,46.12233556,-64.77125986,Moncton
M0311,500 Elmwood,46.11879236,-64.77197601,Moncton
M0312,360 Elmwood,46.11530683,-64.77311595,Moncton
M0313,320 Elmwood,46.11328176,-64.77368324,Moncton
M0314,Elmwood / Reilly,46.10975064,-64.77464615,Moncton
M0914,Elmwood / Massey,46.10594458,-64.77457105,Moncton
M0781,54 Elmwood,46.1041019,-64.77396353,Moncton
M0791,108 Lewisville,46.10154978,-64.77133899,Moncton
M0316,222 Lewisville,46.10239736,-64.7669804,Moncton
M0987,89 Trinity ,46.11768461,-64.83282997,Moncton
M0786,127 Trinity,46.11639581,-64.8340021,Moncton
M0392,150 Mapleton,46.11081547,-64.82412754,Moncton
M0393,324 Kendra,46.10966749,-64.82228084,Moncton
M0989,252 Kendra,46.10928125,-64.8191212,Moncton
M0394,Katherine / Clair,46.10867507,-64.81727048,Moncton
M0809,Katherine / Gagne,46.10786102,-64.81721013,Moncton
M0395,Katherine / Lancaster,46.10698394,-64.81707468,Moncton
M0396,250 Noel,46.10670767,-64.81448232,Moncton
M0398,184 Noel,46.10735006,-64.81132402,Moncton
M0399,148 Noel,46.10741309,-64.80937674,Moncton
M0400,Noel / MacBeath,46.1077363,-64.8077607,Moncton
M0810,166 MacBeath,46.10640592,-64.80711027,Moncton
M0401,135 MacBeath,46.10440499,-64.80623453,Moncton
M0736,MacBeath / Connaught,46.10295526,-64.80562298,Moncton
M0735,18 MacBeath,46.10027975,-64.80450584,Moncton
M0240,735 Mountain,46.09948582,-64.80521797,Moncton
M0241,803 Mountain,46.10001153,-64.80743079,Moncton
M0242,845 Mountain,46.10049835,-64.80944647,Moncton
M0406,25 Killam,46.10018185,-64.81256856,Moncton
M0407,81 Killam,46.09903119,-64.81522797,Moncton
M0408,121 Killam,46.09807766,-64.81719806,Moncton
M0409,39 Purdy,46.09889976,-64.81919496,Moncton
M0410,71 Purdy,46.09989486,-64.81963216,Moncton
M1083,145 Purdy,46.10222838,-64.82063128,Moncton
M0412,Purdy / Mountain,46.10483549,-64.82168942,Moncton
M1177,81 Mapleton,46.10868848,-64.82311903,Moncton
M0903,145 Mapleton,46.11034743,-64.82386066,Moncton
M0904,161 Mapleton,46.11190579,-64.82458218,Moncton
M0267,1387 Main,46.08375466,-64.79209928,Moncton
M0268,Main / Westmount,46.08054406,-64.79553117,Moncton
M0761,17 Chapman,46.07981584,-64.79652895,Moncton
M0991,Netwon / Chapman,46.0794752,-64.79811816,Moncton
M0269,73 Chapman ,46.07910774,-64.79992195,Moncton
M0762,Chapman / Coronation,46.0785029,-64.80288713,Moncton
M0270,Chapman / Mount Royal,46.07808179,-64.80481832,Moncton
M0763,Falkland / Lorentz,46.07681847,-64.80631499,Moncton
M0271,45 Milner,46.07644296,-64.80897709,Moncton
M0992,77 Milner,46.07763252,-64.80959936,Moncton
M0273,Milner / Bessborough,46.0793089,-64.81033965,Moncton
M0765,143 Bessborough,46.07911712,-64.8128341,Moncton
M0766,Bessborough / Dickson,46.07899642,-64.8157148,Moncton
M0275,193 Dickson,46.08065403,-64.81651409,Moncton
M0993,17 Bennett,46.08077607,-64.81784983,Moncton
M0767,Bennett / Camden,46.0806661,-64.81919496,Moncton
M0276,105 Bennett,46.08010284,-64.82189461,Moncton
M0277,Bessborough / St George,46.08241088,-64.82307478,Moncton
M1117,960 St George,46.08289367,-64.82147618,Moncton
M0278,People's Park Tower,46.082385,-64.821091,Moncton
M0768,St George / Dickson,46.08352936,-64.81838628,Moncton
M0769,770 St George,46.08487046,-64.81184437,Moncton
M0280,666 St George,46.08564026,-64.8080705,Moncton
M0770,St George / Greenwood,46.08643687,-64.80417191,Moncton
M0771,St George / Fairview,46.08684055,-64.802175,Moncton
M0283,35 Sixth ,46.08859337,-64.80137034,Moncton
M0994,Douglas / Seventh,46.08851693,-64.80233325,Moncton
M0772,Douglas / Eighth,46.08833588,-64.80324252,Moncton
M0284,89 Douglas,46.08790136,-64.8053038,Moncton
M0995,65 Tenth,46.08870334,-64.80572223,Moncton
M0285,97 Tenth,46.08994252,-64.8062533,Moncton
M0286,140 Millennium,46.08988522,-64.81009121,Moncton
M0773,60 Millennium,46.08985267,-64.8053038,Moncton
M0288,12 Millennium,46.09049371,-64.80304672,Moncton
M1118,St George / Capitol,46.08887366,-64.79404791,Moncton
M0289,136 Cornhill,46.08893133,-64.79283019,Moncton
M0290,Cornhill / Gordon,46.08723081,-64.79203893,Moncton
M0774,Gordon / High,46.0875567,-64.79016675,Moncton
M0990,Gordon / Weldon,46.08817092,-64.78728204,Moncton
M0709,Gordon / Highfield,46.08860678,-64.7850947,Moncton
D0607,500 Régis,46.09816483,-64.75642858,Moncton
D1009,144 Gould,46.09826542,-64.75267215,Moncton
D0971,228 Gould,46.09904594,-64.7487293,Moncton
D0972,412 Notre-Dame,46.09704903,-64.74692552,Moncton
D0610,304 Champlain,46.0964442,-64.74358751,Moncton
D0612,400 Champlain,46.09731994,-64.73920344,Moncton
D1095,476 Champlain,46.09804682,-64.7355905,Moncton
D0613,560 Champlain,46.09896681,-64.73098783,Moncton
D1169,664 Champlain,46.09982512,-64.72670837,Moncton
D0614,712 Champlain,46.10022075,-64.72472487,Moncton
D1096,820 Champlain,46.10130704,-64.71929474,Moncton
D0615,10 Dawson,46.10297403,-64.71668093,Moncton
D0842,Dawson / Adélard-Savoie,46.10461555,-64.7173555,Moncton
D0641,Adélard-Savoie / Dieppe ,46.10679082,-64.70958112,Moncton
D1126,355 Dieppe,46.10240004,-64.70706655,Moncton
D0941,Dieppe / Englehart,46.09947911,-64.70511926,Moncton
D0942,615 Dieppe,46.0972502,-64.70021082,Moncton
D0943,733 Chartersville,46.09490461,-64.69765065,Moncton
D1097,703 Chartersville,46.0937982,-64.69974546,Moncton
D0945,667 Chartersville,46.09288222,-64.70205082,Moncton
D0656,41 Pascal,46.09291038,-64.70450638,Moncton
D0657,159 Pascal,46.09675399,-64.70894678,Moncton
D0880,281 Pascal,46.09993643,-64.71265627,Moncton
D1047,901 Gauvin,46.10083631,-64.71524729,Moncton
D1046,777 Gauvin,46.09968028,-64.72096576,Moncton
D1184,731 Gauvin,46.09917871,-64.72345082,Moncton
D0982,701 Gauvin,46.0988488,-64.7251044,Moncton
D0973,615 Champlain,46.09921089,-64.72986801,Moncton
D0850,487 Champlain,46.09810716,-64.73541482,Moncton
D0974,387 Champlain,46.09725154,-64.73968624,Moncton
D1064,rue du Collège,46.099331,-64.741585,Moncton
D0975,297 Gould,46.09966955,-64.74579631,Moncton
D0976,135 Gould,46.09825335,-64.75285588,Moncton
D0634,513 Régis,46.09790868,-64.75685908,Moncton
M0950,53 Elmwood,46.10423467,-64.77395816,Moncton
M0951,109 Elmwood,46.10614977,-64.77455227,Moncton
M0422,195 Elmwood,46.10927857,-64.77471723,Moncton
M0970,257 Elmwood,46.1118441,-64.77394743,Moncton
M0423,301 Elmwood,46.11339576,-64.7736135,Moncton
M0952,331 Elmwood,46.11487768,-64.77321787,Moncton
M0953,401 Elmwood,46.11687458,-64.77247088,Moncton
M0821,445 Elmwood,46.11885539,-64.77191164,Moncton
M0426,523 Elmwood,46.12111784,-64.77146639,Moncton
M0955,Hennessey / Elmwood,46.124841,-64.771292,Moncton
M0956,81 Hennessey,46.123944,-64.774359,Moncton
M1034,147 Hennessey,46.123186,-64.778462,Moncton
M0958,233 Hennessey,46.12286,-64.781869,Moncton
M1036,Hennessey / Berry,46.121448,-64.786188,Moncton
M0960,Hennessey / McLaughlin,46.120787,-64.787789,Moncton
M0962,472 Mclaughlin,46.119749,-64.787021,Moncton
M0961,430 Mclaughlin,46.11821,-64.785651,Moncton
M1017,396 Mclaughlin,46.117333,-64.784887,Moncton
M1018,342 Mclaughlin,46.115681,-64.783448,Moncton
M1019,300 Mclaughlin,46.114302,-64.782269,Moncton
M1020,250 Mclaughlin,46.112831,-64.780984,Moncton
M1021,206 Mclaughlin,46.11173,-64.78002,Moncton
M1035,171 Morton,46.11027903,-64.78372409,Moncton
M1060,Morton / Pascal-Poirier,46.10951326,-64.78699102,Moncton
M1015,Mapleton / Creek,46.12018577,-64.8282796,Moncton
M1104,Mapleton / Louis J Robichaud,46.12240664,-64.82934981,Moncton
M1010,585 Mapleton,46.12493596,-64.83047902,Moncton
M1011,Mapleton / Cabela,46.12665124,-64.83122467,Moncton
M5006,Crandall,46.134225,-64.861296,Moncton
M0929,Mapleton Park,46.12775228,-64.8585765,Moncton
M0513,80 Gorge,46.1247576,-64.85567837,Moncton
M1155,19 Maplehurst,46.12463958,-64.86192121,Moncton
M1156,85 Maplehurst,46.12286261,-64.86407234,Moncton
M1157,458 Glencairn,46.12172402,-64.86280232,Moncton
M1158,376 Glencairn,46.11992157,-64.86014693,Moncton
M1159,Glencairn / Evergreen,46.11834175,-64.85733866,Moncton
M1093,250 Glencairn,46.11679814,-64.85470741,Moncton
M0919,142 Lonsdale,46.11798904,-64.85144048,Moncton
M0920,Lonsdale / Colonial,46.1199095,-64.84900369,Moncton
M0520,Lonsdale / Mountain,46.12154297,-64.84763308,Moncton
M0521,1772 Mountain,46.12065247,-64.84532638,Moncton
M0522,1700 Mountain,46.11928589,-64.84334021,Moncton
M0523,1634 Mountain,46.11739359,-64.84057083,Moncton
T5007,31 Hildegard,46.11640922,-64.84149887,Moncton
T5008,Hildegard / Ivy,46.11484683,-64.84350919,Moncton
T5009,Hildegard / Mailhot,46.1123564,-64.84669297,Moncton
T5010,Hildegard / Rennick,46.10958568,-64.84717174,Moncton
T5011,329 Ryan,46.10776714,-64.84830766,Moncton
T5012,395 Ryan,46.10682166,-64.8519501,Moncton
T5013,481 Ryan,46.10602773,-64.85505744,Moncton
T5014,545 Ryan,46.10493205,-64.8582828,Moncton
T5015,599 Ryan,46.1039517,-64.86083089,Moncton
T5016,Horsman / Berry Mills,46.09672717,-64.86051305,Moncton
T5017,Berry Mills / Jonathan,46.0955081,-64.84442784,Moncton
T5018,Killam / Millennium,46.09420723,-64.82934042,Moncton
T5019,13 Ayer,46.09558052,-64.82640608,Moncton
T5020,69 Ayer,46.09732396,-64.82716112,Moncton
T5021,133 Ayer,46.09933696,-64.82802077,Moncton
T5022,191 Ayer,46.10127754,-64.82888712,Moncton
T5023,17 Birchmount,46.10378004,-64.82913657,Moncton
T5024,135 Birchmount,46.10641397,-64.82527687,Moncton
M0248,1185 Mountain,46.10745332,-64.82537075,Moncton
M0249,1247 Mountain,46.10870591,-64.82785045,Moncton
M0250,1313 Mountain,46.10990754,-64.83028321,Moncton
M1031,Plaza / Mountain,46.11170462,-64.83127027,Moncton
M1029,South Plaza Sud,46.11335955,-64.8290494,Moncton
T5025,Carson,46.11413739,-64.82291921,Moncton
D0259,9 Champlain,46.09326444,-64.76072817,Moncton
M0260,233 Main,46.09212316,-64.76709707,Moncton
M0780,Steadman / Main,46.0902389,-64.77189018,Moncton
M0263,655 Main,46.08906007,-64.7753167,Moncton
M0782,Main / Alma,46.08866579,-64.77684154,Moncton
M0264,859 Main ,46.08802876,-64.77992876,Moncton
M0265,961 Main,46.08711279,-64.78273703,Moncton
M0251,77 Weldon,46.0881669,-64.78713586,Moncton
M0710,Weldon / St George,46.09037033,-64.78805854,Moncton
M0712,Weldon/Park,46.09126753,-64.78843405,Moncton
M1174,339 High St,46.09529353,-64.79334249,Moncton
M0795,489 Mountain,46.0972797,-64.79520528,Moncton
M0719,551 Mountain,46.09806291,-64.79793443,Moncton
M0720,587 Mountain,46.09830431,-64.79917763,Moncton
M0794,651 Mountain,46.09874687,-64.80138778,Moncton
M0405,681 Mountain,46.09904996,-64.80294346,Moncton
M0243,913 Mountain,46.10172681,-64.81344296,Moncton
M0245,1001 Mountain,46.10335625,-64.81712161,Moncton
M0246,1049 Mountain,46.10421187,-64.81882213,Moncton
M0247,1111 Mountain,46.10553286,-64.82147752,Moncton
R0576,27 Pine Glen,46.06737307,-64.79405327,Moncton
R0577,121 Pine Glen,46.06576375,-64.79346185,Moncton
R1023,Pine Glen / Devere,46.06298498,-64.7933854,Moncton
R1024,Pine Glen / Glenview,46.06014184,-64.79255794,Moncton
R1051,373 Pine Glen,46.05914271,-64.79207246,Moncton
R1025,435 Pine Glen,46.05611182,-64.79022844,Moncton
D0608,450 Acadie,46.09617463,-64.75279151,Moncton
D0609,Hotel de Ville Dieppe,46.09537533,-64.74901094,Moncton
D1106,Wyndham / Marché,46.09479195,-64.74601625,Moncton
D0863,340 Gauvin,46.0951916,-64.74311812,Moncton
D0865,388 Gauvin,46.09589971,-64.7395481,Moncton
D0867,Gauvin / Bras D'or,46.09674863,-64.73528607,Moncton
D0868,590 Gauvin,46.09793684,-64.7294697,Moncton
D0977,314 Thomas,46.09837539,-64.72406237,Moncton
D0978,190 Thomas,46.09475574,-64.72305788,Moncton
D0979,92 Thomas,46.09142846,-64.72214056,Moncton
D0873,Thomas / Avalon,46.08793086,-64.72110657,Moncton
D0874,565 Centrale,46.08540556,-64.72025363,Moncton
D1062,619 Centrale,46.08370236,-64.71843643,Moncton
D0980,721 Centrale,46.08069829,-64.71366076,Moncton
D0932,787 Centrale,46.07654623,-64.71136345,Moncton
D0931,616 Clarence-Cormier,46.07664279,-64.70964817,Moncton
D0934,700 Clarence-Cormier,46.07711217,-64.7051662,Moncton
D1098,Bourque / Desrosiers,46.07948727,-64.70521448,Moncton
D0935,Bourque / Tranquille,46.08283601,-64.70596818,Moncton
D0621,1064 Bourque,46.08604125,-64.70728247,Moncton
D1166,Bourque / Chartersville,46.08933902,-64.70870806,Moncton
D0936,411 Chartersville,46.08947313,-64.71195085,Moncton
D0937,333 Chartersville,46.08861751,-64.71602915,Moncton
D1099,275 Chartersville,46.08782223,-64.71990762,Moncton
D0981,13 Thomas,46.08806095,-64.72111194,Moncton
D0624,91 Thomas,46.0914003,-64.72210301,Moncton
D1100,155 Thomas,46.09371639,-64.7227387,Moncton
D0625,309 Thomas,46.09787649,-64.72390009,Moncton
D1063,Gauvin / Blanchard,46.09795964,-64.72946434,Moncton
D0983,469 Gauvin,46.09677008,-64.73527802,Moncton
D0629,411 Gauvin,46.09614513,-64.73841487,Moncton
D0630,283 Gauvin,46.0950642,-64.74387853,Moncton
D0631,331 Acadie,46.09442181,-64.74885671,Moncton
D0632,441 Acadie,46.09599224,-64.75232615,Moncton
M0796,Vaughan Harvey / Dominion,46.08602649,-64.79053958,Moncton
M0798,Vaughan Harvey / Capitol,46.08769215,-64.79351817,Moncton
M0443,557 St George,46.0877136,-64.79813291,Moncton
M0444,567 St George,46.08739576,-64.79967518,Moncton
M0797,593 St George,46.08681104,-64.80252503,Moncton
M0445,615 St George,46.08623839,-64.80531855,Moncton
M0446,653 St George,46.08563757,-64.80827703,Moncton
M0799,725 St George,46.08490265,-64.81187924,Moncton
M0447,St George / Rotary Lodge,46.08360312,-64.81821193,Moncton
M0448,St George / Centennial ,46.08275554,-64.82231169,Moncton
M0449,1077 St George,46.08118779,-64.82999354,Moncton
M0450,1199 St George,46.08060977,-64.83279644,Moncton
M0804,Loftus / St George,46.07987753,-64.83396455,Moncton
M0800,100 Loftus,46.07762716,-64.83294262,Moncton
M0801,70 Loftus,46.07569731,-64.83208029,Moncton
M0893,373 Baig,46.07422477,-64.83143656,Moncton
M0802,Baig / Edinburgh,46.07366151,-64.83365475,Moncton
M0803,187 Edinburgh,46.07619888,-64.83486443,Moncton
M0805,255 Edinburgh,46.07761106,-64.83549743,Moncton
M0453,35 English,46.08086995,-64.84031736,Moncton
M1089,91 English,46.0821212,-64.84089001,Moncton
M1090,145 English,46.08449093,-64.84190389,Moncton
M0946,English / Delong,46.08656294,-64.84323828,Moncton
M0947,309 English,46.08835197,-64.84667956,Moncton
M0948,377 English,46.09105027,-64.847963,Moncton
M1059,648 Edinburgh,46.08980036,-64.84278767,Moncton
M1091,520 Edinburgh,46.08647979,-64.83946576,Moncton
M0456,450 Edinburgh,46.0842616,-64.83848273,Moncton
M0457,320 Edinburgh,46.08094773,-64.83701958,Moncton
M0458,1250 St George,46.08014709,-64.83489527,Moncton
M0459,1070 St George,46.0811328,-64.83014374,Moncton
M0894,1000 St George,46.08262679,-64.82278242,Moncton
M0461,524 St George,46.08786783,-64.79721158,Moncton
M0881,Queen / Lutz,46.08900911,-64.78139727,Moncton
M0416,51 Church,46.08990899,-64.77858497,Moncton
M0417,185 Church,46.09437085,-64.78049068,Moncton
M0418,207 Church,46.09583131,-64.78015675,Moncton
M0882,279 Church,46.09785101,-64.7794862,Moncton
M0419,58 Donald,46.10151894,-64.77732165,Moncton
M0420,24 Donald,46.10279433,-64.77470918,Moncton
M0954,603 Elmwood,46.123965,-64.77091386,Moncton
M0427,637 Elmwood,46.12510494,-64.7707033,Moncton
M0883,Caledonia / Somers,46.13002411,-64.76474612,Moncton
M1084,530 MacNaughton,46.13085023,-64.75931598,Moncton
M0428,328 Urquhart,46.12893782,-64.74583654,Moncton
M0429,Urquhart / MacNaughton,46.13127805,-64.74464564,Moncton
M0430,Urquhart / Frenette,46.13410375,-64.74472879,Moncton
M0884,Frenette / Harrisville,46.13581232,-64.73198695,Moncton
M1092,230 Frenette,46.13782264,-64.72366674,Moncton
M1165,140 Frenette,46.13918788,-64.7181253,Moncton
M1085,Frenette / Commerce,46.13572515,-64.71305324,Moncton
M0431,85 Commerce ,46.13432101,-64.71911369,Moncton
M0421,Commerce / Venture,46.13299466,-64.72454919,Moncton
M0432,Commerce / Harrisville,46.13234288,-64.72966953,Moncton
M1071,125 MacNaughton,46.1291068,-64.73733528,Moncton
M0433,275 MacNaughton,46.13132364,-64.74458663,Moncton
M6602,Macnaughton,46.131259,-64.751531,Moncton
M0885,505 MacNaughton,46.13109297,-64.75867225,Moncton
M1119,Elmwood / Granite,46.13101653,-64.76996033,Moncton
M1022,945 Elmwood,46.1367645,-64.77170377,Moncton
M1033,969 Elmwood,46.13849453,-64.77209269,Moncton
M0886,Irishtown Nature Park,46.14162064,-64.7729054,Moncton
M0887,Cedarwood / Cypress,46.1486762,-64.77944328,Moncton
M1086,Cedarwood / Kingfisher,46.14716343,-64.78561102,Moncton
M0888,Cedarwood / Scotch Pine,46.14615626,-64.78974833,Moncton
M1087,Southpine / Scotch Pine,46.14255405,-64.78781043,Moncton
M0889,Southpine / Burgundy,46.14344321,-64.78365703,Moncton
M0898,Southpine / Rivera,46.14418752,-64.78047995,Moncton
M0890,Southpine / Montana,46.14475749,-64.77813168,Moncton
M0891,1164 Elmwood,46.14142216,-64.77287053,Moncton
M1032,1076 Elmwood,46.13846234,-64.77214901,Moncton
M0435,57 Donald,46.10262132,-64.77513699,Moncton
M0436,89 Donald,46.10182068,-64.77682008,Moncton
M1088,278 Church,46.09800926,-64.77948485,Moncton
M0437,240 Church,46.09641469,-64.78000118,Moncton
M0892,190 Church,46.09423674,-64.7804813,Moncton
M0439,128 Church,46.0924705,-64.77971552,Moncton
R1044,Hillsborough / Chesswood,46.07517562,-64.7756332,Moncton
R0542,250 Hillsborough,46.07552699,-64.77242662,Moncton
R0543,Old Coach / Hillsborough,46.07560343,-64.77038278,Moncton
R0545,Hillsborough / Sawgrass,46.074552,-64.75827797,Moncton
R0549,Hillsborough / Hiltz,46.06716788,-64.74581374,Moncton
M0466,1795 Main,46.07708937,-64.79944183,Moncton
M0467,1905 Main,46.0755471,-64.80447097,Moncton
M0468,1999 Main,46.07497177,-64.80793907,Moncton
M0469,2081 Main,46.07484168,-64.80924397,Moncton
M0471,103 Salisbury,46.07247463,-64.8175843,Moncton
M0836,133 Salisbury,46.07098467,-64.82221513,Moncton
M0472,185 Salisbury,46.07058636,-64.82416912,Moncton
M0473,275 Salisbury,46.06999225,-64.8282729,Moncton
M0474,Salisbury / Edinburgh,46.06988764,-64.83159481,Moncton
M0475,395 Salisbury,46.0688161,-64.83455866,Moncton
M0837,451 Salisbury,46.06750316,-64.83652874,Moncton
M0477,645 Salisbury,46.06332696,-64.84351992,Moncton
M0478,679 Salisbury,46.06255448,-64.84521373,Moncton
M0479,735 Salisbury,46.06150037,-64.84751641,Moncton
M0480,805 Salisbury,46.06049052,-64.8505178,Moncton
M0481,933 Salisbury,46.05868271,-64.85692962,Moncton
M0483,Atlantic Baptist,46.06030411,-64.85893457,Moncton
M0484,Salisbury / Arnold,46.058617,-64.85710397,Moncton
M0839,800 Salisbury,46.06054014,-64.85018789,Moncton
M0485,752 Salisbury,46.06120265,-64.84810247,Moncton
M0486,662 Salisbury,46.06286696,-64.8444493,Moncton
M0923,624 Salisbury,46.06357104,-64.84290569,Moncton
M0922,526 Salisbury,46.06550089,-64.83945905,Moncton
M0487,464 Salisbury,46.06698415,-64.83723282,Moncton
M0488,438 Salisbury,46.0677687,-64.83605533,Moncton
M0489,390 Salisbury,46.06883622,-64.83445405,Moncton
M0490,Salisbury / Edinburgh,46.06980181,-64.83194887,Moncton
M0491,238 Salisbury,46.07004723,-64.82708334,Moncton
M0492,196 Salisbury,46.07042006,-64.82484101,Moncton
M0493,76 Salisbury,46.07173032,-64.81934919,Moncton
M0494,38 Salisbury,46.07263959,-64.81707602,Moncton
M0495,Main / Milner,46.07492617,-64.80810403,Moncton
M0496,1850 Main,46.0755243,-64.80442538,Moncton
M0497,1840 Main,46.07626459,-64.80154871,Moncton
M0465,Main / Newton,46.07812202,-64.79750662,Moncton
M0498,1670 Main,46.07984132,-64.79602604,Moncton
M0499,1636 Main,46.08077607,-64.79530587,Moncton
M0606,1600 Main,46.08202598,-64.794351,Moncton
M0500,Main / Fownes,46.08382842,-64.79191287,Moncton
D1007,461 Paul,46.09600029,-64.75672095,Moncton
D0984,120 Champlain,46.09471819,-64.75250183,Moncton
D0661,310 Acadie,46.09366006,-64.74721386,Moncton
D1049,268 Acadie,46.09308205,-64.74594785,Moncton
D0662,Acadie / Alain-Gillette,46.09137348,-64.7421874,Moncton
D1006,275 Amirault,46.08626789,-64.73435266,Moncton
D0663,295 Amirault,46.08539886,-64.73374112,Moncton
D0664,393 Amirault,46.08247659,-64.73181261,Moncton
D1101,473 Amirault,46.08006126,-64.73056002,Moncton
D0665,517 Amirault,46.07846266,-64.72946031,Moncton
D0985,673 Amirault,46.07595748,-64.72724481,Moncton
D0668,Amirault / Jacques,46.07426233,-64.7256033,Moncton
D1102,855 Amirault,46.07295207,-64.72400604,Moncton
D0999,Melanson / Amirault,46.07030607,-64.7197306,Moncton
D0998,Melanson / Rotary Park,46.07135481,-64.71433668,Moncton
D0997,Melanson / Fidèle,46.07217288,-64.71014707,Moncton
D0996,443 Fox Creek,46.07197172,-64.70187379,Moncton
D1000,391 Fox Creek,46.06933779,-64.70149158,Moncton
D1001,Fox Creek / LeBlanc,46.06663144,-64.70146475,Moncton
D1002,Fox Creek / Amirault,46.0624083,-64.70473169,Moncton
D1003,1710 Amirault,46.06298766,-64.7083245,Moncton
D1050,1500 Amirault,46.06426841,-64.71361382,Moncton
D1004,1330 Amirault,46.06555453,-64.71742256,Moncton
D1005,1060 Amirault,46.06938473,-64.72048564,Moncton
D0857,848 Amirault,46.07293195,-64.72393764,Moncton
D0859,684 Amirault,46.07570804,-64.72697122,Moncton
D0860,536 Amirault,46.07837415,-64.72935437,Moncton
D0862,402 Amirault,46.08241892,-64.73173885,Moncton
D0861,312 Amirault,46.08576096,-64.73394765,Moncton
D0691,185 Acadie,46.09142176,-64.74222629,Moncton
D0896,253 Acadie,46.09282992,-64.74533765,Moncton
R0555,5 Riverlea,46.07365615,-64.75510626,Moncton
R0556,93 Muncey,46.07578046,-64.75658549,Moncton
R0557,74 Darwin,46.07677958,-64.75815727,Moncton
R0558,30 Darwin,46.077312,-64.75987656,Moncton
R0559,Darwin / Avondale,46.07761106,-64.76199417,Moncton
R0561,Avondale / Nowlan,46.07624045,-64.76246758,Moncton
R0560,Nowlan / Point Park,46.07641882,-64.76366384,Moncton
R0562,Point Park / Hillsborough,46.07567317,-64.76403131,Moncton
R0563,Old Coach / Sanford,46.07340804,-64.77007969,Moncton
R0564,Old Coach / Wendell,46.07154927,-64.7726412,Moncton
T8523,Old Coach /Leonard,46.07113621,-64.77441012,Moncton
R0565,128 Leonard,46.07331551,-64.77641641,Moncton
R0541,Leonard / Hillsborough,46.0746499,-64.77737932,Moncton
M6601,MHS / Longfellow,46.165235,-64.791128,Moncton
BSTP34318,Saint Patrick St. & Union St.,45.27374,-66.064929,Saint John
BSTP34319,Sierra Av. & Hampton Rd.,45.399854,-65.978018,Saint John
BSTP34320,King's Square North,45.274167,-66.058633,Saint John
BSTP34321,Royal Bank - Charlotte St.,45.272995,-66.058852,Saint John
BSTP34325,Place 400,45.275073,-66.076703,Saint John
BSTP34326,Douglas Ave. & Main St. N,45.27493,-66.078578,Saint John
BSTP34327,Douglas Ave. & Main St. N,45.274804,-66.0784,Saint John
BSTP34328,Across from 60 Douglas Avenue,45.273853,-66.079155,Saint John
BSTP34329,15 Market Square,45.272949,-66.06289,Saint John
BSTP34330,Broad St. & Sydney St.,45.266633,-66.054664,Saint John
BSTP34331,Golden Ball - Sydney St.,45.274747,-66.057275,Saint John
BSTP34332,Sydney St. & King's Sq. North,45.274432,-66.057472,Saint John
BSTP34333,Union St. & Carmarthen St.,45.275623,-66.055349,Saint John
BSTP34335,Union St. & Pitt St.,45.276078,-66.052615,Saint John
BSTP34337,Union St. & Crown St.,45.276521,-66.051254,Saint John
BSTP34338,Mount Pleasant Ave. & Bayside Dr.,45.280875,-66.036364,Saint John
BSTP34339,Bayside Dr. & Park Av.,45.281626,-66.037452,Saint John
BSTP34340,Belgrave St. & Mount Pleasant Av. East,45.281566,-66.034861,Saint John
BSTP34341,Park Av. & Belgrave St.,45.282607,-66.035507,Saint John
BSTP34342,Park Av. & Belgrave St.,45.282511,-66.035433,Saint John
BSTP34343,Park Av. & Wilton St.,45.28333,-66.033595,Saint John
BSTP34344,Park Av. & Wilton St.,45.283253,-66.033565,Saint John
BSTP34345,Park Av. & Virginia St.,45.285504,-66.02812,Saint John
BSTP34346,Park Av. & Virginia St.,45.285433,-66.027997,Saint John
BSTP34348,80 McDonald Street,45.288093,-66.028811,Saint John
BSTP34349,Across from 80 McDonald Street,45.288187,-66.02864,Saint John
BSTP34350,Loch Lomond Villa - Loch Lomond Rd.,45.289476,-66.033267,Saint John
BSTP34351,168 Loch Lomond Rd.,45.28896,-66.034269,Saint John
BSTP34352,Westmorland Rd. & Loch Lomond Rd.,45.288095,-66.040612,Saint John
BSTP34353,93 Loch Lomond Road,45.288309,-66.038589,Saint John
BSTP34354,100 Loch Lomond Road,45.288223,-66.038388,Saint John
BSTP34356,Westmorland Rd. & McLauchlin Cr.,45.289791,-66.038929,Saint John
BSTP34357,Westmorland Rd. & McLauchlin Cr.,45.289908,-66.039041,Saint John
BSTP34362,Loch Lomond Villa - Ellerdale St.,45.291515,-66.03284,Saint John
BSTP34363,Loch Lomond Villa - Ellerdale St.,45.291564,-66.032995,Saint John
BSTP34364,Ellerdale Street & Ridge St.,45.292386,-66.031458,Saint John
BSTP34365,Ellerdale Street & Ridge St.,45.292496,-66.03154,Saint John
BSTP34366,Ellerdale St. & Saint Anne St.,45.29341,-66.030163,Saint John
BSTP34367,Ellerdale St. & Saint Anne St.,45.29349,-66.030266,Saint John
BSTP34368,Ellerdale St. & Margaret St.,45.294601,-66.02926,Saint John
BSTP34369,Ellerdale St. & Margaret St.,45.294659,-66.029423,Saint John
BSTP34370,Ellerdale St. & Woodhollow Park,45.296808,-66.028533,Saint John
BSTP34371,Ellerdale St. & Woodhollow Park,45.296926,-66.02867,Saint John
BSTP34372,509 Ellerdale Street,45.298277,-66.027566,Saint John
BSTP34373,Across from 509 Ellerdale Street,45.298251,-66.027804,Saint John
BSTP34374,Westmorland Road & Ellerdale St.,45.299192,-66.028113,Saint John
BSTP34375,Westmorland Road & Ellerdale St.,45.299346,-66.028234,Saint John
BSTP34376,"Westmorland Road, Southwest of Retail Drive",45.300395,-66.025237,Saint John
BSTP34377,"Westmorland Rd., Southwest of Retail Dr.",45.30057,-66.025322,Saint John
BSTP34380,Westmorland Rd. & Depot Ct.,45.302938,-66.02239,Saint John
BSTP34381,Westmorland Rd. & Depot Ct.,45.302862,-66.022207,Saint John
BSTP34382,Canadian Tire - Westmorland Road,45.303998,-66.021158,Saint John
BSTP34383,Best Buy - Consumers Dr.,45.306275,-66.021134,Saint John
BSTP34384,Winners - Majors Brook Dr.,45.308654,-66.022552,Saint John
BSTP34385,Across from Best Buy - Consumers Dr.,45.306183,-66.021252,Saint John
BSTP34387,Walmart - Westmorland Rd.,45.307476,-66.018455,Saint John
BSTP34388,Consumers Dr. & Westmorland Rd.,45.305043,-66.018388,Saint John
BSTP34389,Consumers Dr. & Westmorland Rd.,45.305038,-66.018772,Saint John
BSTP34390,35 Consumers Drive,45.304342,-66.017114,Saint John
BSTP34392,McAllister Place,45.306,-66.017632,Saint John
BSTP34394,McDonald's - McAllister Drive,45.311944,-66.020372,Saint John
BSTP34358,Kilburn Av. & Westmorland Rd.,45.291741,-66.036257,Saint John
BSTP34359,Kilburn Av. & Westmorland Rd.,45.291867,-66.036344,Saint John
BSTP34361,Kilburn Av. & Ellerdale St.,45.291675,-66.034868,Saint John
BSTP34355,Westmorland Rd. & Loch Lomond Rd.,45.287973,-66.040854,Saint John
BSTP34395,Michael's - McAllister Drive,45.312206,-66.022001,Saint John
BSTP34396,Exhibition Park - McAllister Dr.,45.312631,-66.022638,Saint John
BSTP34397,McAllister Dr. & Golden Grove Rd.,45.313197,-66.024229,Saint John
BSTP34403,Rothesay Ave. & Retail Dr.,45.308266,-66.030452,Saint John
BSTP34404,Deluxe - Rothesay Avenue,45.308449,-66.030626,Saint John
BSTP34405,Across from 418 Rothesay Avenue,45.304388,-66.033891,Saint John
BSTP34406,418 Rothesay Avenue,45.304244,-66.033714,Saint John
BSTP34407,Crosby's Molasses - Rothesay Ave.,45.297679,-66.039355,Saint John
BSTP34409,Rothesay Ave. & Specer St.,45.294749,-66.041487,Saint John
BSTP34410,283 Rothesay Avenue,45.294845,-66.041686,Saint John
BSTP34411,276 Rothesay Avenue,45.293172,-66.042112,Saint John
BSTP34412,255 Rothesay Avenue,45.29311,-66.042343,Saint John
BSTP34414,Rothesay Ave.between Russell St. and railway,45.291001,-66.04318,Saint John
BSTP34415,Rothesay Av. between Russell St. & railway,45.29082,-66.04307,Saint John
BSTP34416,Superstore - Rothesay Avenue,45.28891,-66.045296,Saint John
BSTP34417,Brett's - Rothesay Avenue,45.288825,-66.045674,Saint John
BSTP34418,Rothesay Ave. & G. Arrowsmith Way,45.286256,-66.048351,Saint John
BSTP34419,Post Office - Rothesay Avenue,45.286077,-66.048853,Saint John
BSTP34420,80 Rothesay Avenue,45.285138,-66.049695,Saint John
BSTP34421,75 Rothesay Avenue,45.2852,-66.049887,Saint John
BSTP34422,Waterloo St. & Haymarket Sq.,45.281798,-66.053485,Saint John
BSTP34423,Haymarket Sq. & Waterloo St.,45.28221,-66.053453,Saint John
BSTP34424,Waterloo St. & Agar Pl.,45.280191,-66.054519,Saint John
BSTP34425,Waterloo St. & Agar Pl.,45.28025,-66.054685,Saint John
BSTP34426,Cathedral - Waterloo St.,45.278726,-66.055622,Saint John
BSTP34427,Cathedral - Waterloo St.,45.278625,-66.05553,Saint John
BSTP34428,Prince Edward St. & Richmond St.,45.277052,-66.054732,Saint John
BSTP34429,Prince Edward St. & Richmond St.,45.276994,-66.055008,Saint John
BSTP34430,Prince Edward St & Union St.,45.275761,-66.056335,Saint John
BSTP34432,King St. & Germain St.,45.273273,-66.060249,Saint John
BSTP34433,10 Market Square,45.27267,-66.062615,Saint John
BSTP34435,Hilyard Place - Main St.,45.276462,-66.070795,Saint John
BSTP34436,Hilyard Place - Main St.,45.27636,-66.070259,Saint John
BSTP34439,Main St. & Lansdowne Av.,45.275355,-66.076619,Saint John
BSTP34442,60 Douglas Avenue,45.273765,-66.079013,Saint John
BSTP34444,Main St. & Simonds St.,45.275418,-66.072893,Saint John
BSTP34445,Douglas Av. & Alexandra St.,45.270582,-66.081127,Saint John
BSTP34446,Douglas Ave. & Alexandra St.,45.270359,-66.081436,Saint John
BSTP34447,Douglas Ave. & Bentley St.,45.268798,-66.081955,Saint John
BSTP34448,Douglas Av. & Bentley St.,45.268856,-66.081748,Saint John
BSTP34449,Harbourview High School,45.26552,-66.083359,Saint John
BSTP34450,Harbourview High School,45.265722,-66.082971,Saint John
BSTP34451,Douglas Ave. & Fallsview Ave.,45.263865,-66.084175,Saint John
BSTP34452,Douglas Ave. & Fallsview Ave.,45.26366,-66.084032,Saint John
BSTP34453,500 Douglas Avenue,45.261177,-66.084802,Saint John
BSTP34454,500 Douglas Avenue,45.261225,-66.084985,Saint John
BSTP34455,Reversing Falls Restaurant - Bridge Rd.,45.258307,-66.089119,Saint John
BSTP34456,Bridge Rd. & Mill Rd.,45.258321,-66.089858,Saint John
BSTP34458,Simms Corner - Bridge Road,45.256762,-66.092192,Saint John
BSTP34460,Simms Corner,45.256516,-66.093165,Saint John
BSTP34461,572 Harding Street West,45.256296,-66.09464,Saint John
BSTP34462,630 Harding Street West,45.254868,-66.095678,Saint John
BSTP34463,Lancaster Mall,45.254053,-66.093132,Saint John
BSTP34466,Simms Corner - Bridge Road,45.256706,-66.092527,Saint John
BSTP34469,Dunn Ave. & Lancaster Ave.,45.253769,-66.084876,Saint John
BSTP34470,Lancaster Av. & Havelock St.,45.253755,-66.083751,Saint John
BSTP34471,Dunn Ave. & Young St.,45.252091,-66.086059,Saint John
BSTP34472,Dunn Av. & Fundy Dr.,45.250269,-66.086628,Saint John
BSTP34477,Across from 679 Chapel Street,45.252017,-66.073529,Saint John
BSTP34478,Chapel St. & Woodville Rd.,45.251127,-66.071428,Saint John
BSTP34479,Woodville Rd. & City Line,45.252482,-66.069625,Saint John
BSTP34482,St. John St. & Watson St.,45.255595,-66.07044,Saint John
BSTP34484,St. John St. & Ludlow St.,45.256458,-66.069594,Saint John
BSTP34485,St. John St. & Ludlow St.,45.256441,-66.069842,Saint John
BSTP34489,Duke St. West & Watson St.,45.258347,-66.07654,Saint John
BSTP34490,Duke St. West & City Line,45.25692,-66.077932,Saint John
BSTP34491,Duke St. West & Champlain St.,45.255901,-66.078552,Saint John
BSTP34493,Across from 476 Lancaster Avenue,45.253704,-66.080807,Saint John
BSTP34496,Sand Cove Rd. & Driscoll Dr.,45.247771,-66.088188,Saint John
BSTP34497,Sand Cove Rd. & Molson Ave.,45.247073,-66.090178,Saint John
BSTP34499,Bleury St. & Danells Dr.,45.24708,-66.093159,Saint John
BSTP34502,170 Douglas Avenue,45.271926,-66.080435,Saint John
BSTP34503,153 Douglas Avenue,45.271988,-66.080639,Saint John
BSTP34504,Across from 302 Douglas Avenue,45.266923,-66.082644,Saint John
BSTP34505,302 Douglas Avenue,45.266911,-66.082414,Saint John
BSTP34509,King St. West & Watson St.,45.25913,-66.077103,Saint John
BSTP34514,Bleury St. & Sherbrooke St.,45.2499,-66.093338,Saint John
BSTP34515,Park Av. & Alma St. East,45.284658,-66.029965,Saint John
BSTP34516,Park Av. & Alma St. East,45.284787,-66.029871,Saint John
BSTP34517,Park Av. & Belmont St.,45.28401,-66.03193,Saint John
BSTP34518,Park Av. & Belmont St.,45.283874,-66.031793,Saint John
BSTP34523,451 Rothesay Avenue,45.306987,-66.031795,Saint John
BSTP34524,450 Rothesay Avenue,45.306727,-66.031722,Saint John
BSTP34525,421 Rothesay Avenue,45.30503,-66.033359,Saint John
BSTP34526,428 Rothesay Avenue,45.30521,-66.032964,Saint John
BSTP34527,410 Rothesay Avenue,45.303273,-66.034514,Saint John
BSTP34528,Across from 410 Rothesay Avenue,45.303278,-66.03479,Saint John
BSTP34529,347 Rothesay Avenue,45.300334,-66.03719,Saint John
BSTP34530,368 Rothesay Avenue,45.300256,-66.036968,Saint John
BSTP34532,356 Rothesay Avenue,45.297623,-66.039118,Saint John
BSTP34533,Across from 330 Rothesay Avenue,45.296014,-66.040707,Saint John
BSTP34534,324 Rothesay Avenue,45.295615,-66.040756,Saint John
BSTP34536,175 Rothesay Avenue,45.287669,-66.047082,Saint John
BSTP34537,Across from 175 Rothesay Avenue,45.287525,-66.046901,Saint John
BSTP34538,Paddock St. & Waterloo St.,45.276786,-66.057221,Saint John
BSTP34539,Coburg St. & Paddock St.,45.277468,-66.059027,Saint John
BSTP34540,St. Joeph's Hospital,45.278725,-66.058426,Saint John
BSTP34541,King St. & Germain St.,45.273155,-66.060176,Saint John
BSTP34542,Mercantile Centre,45.274559,-66.064901,Saint John
BSTP34545,Lansdowne Av. & Visart St.,45.279629,-66.076525,Saint John
BSTP34546,Lansdowne Av. & Visart St.,45.279663,-66.076779,Saint John
BSTP34547,Visart St. & Churchill Blvd,45.280035,-66.077926,Saint John
BSTP34548,Visart St. & Churchill Blvd,45.279884,-66.077776,Saint John
BSTP34549,Adelaide St. & Millidge Ave.,45.280918,-66.080336,Saint John
BSTP34550,Millidge Av. & Ropewalk Rd.,45.283756,-66.083349,Saint John
BSTP34551,Millidge Av. & Ropewalk Rd.,45.283611,-66.08339,Saint John
BSTP34552,Millidge Av. & Valerie St.,45.282753,-66.082333,Saint John
BSTP34553,Millidge Av. & Valerie St.,45.282721,-66.082491,Saint John
BSTP34554,Millidge Av. & Sussex Dr.,45.283527,-66.085018,Saint John
BSTP34555,Millidge Av. & Sussex Dr.,45.283381,-66.085039,Saint John
BSTP34556,Millidge Av. & Spar Cove Rd.,45.283143,-66.087027,Saint John
BSTP34557,Millidge Av. & Spar Cove Rd.,45.283286,-66.087146,Saint John
BSTP34558,Millidge Av. & Lime Kiln Rd.,45.285751,-66.089345,Saint John
BSTP34559,Millidge Av. & Tartan St.,45.285811,-66.089659,Saint John
BSTP34560,Millidge Av. & Somerset St.,45.287901,-66.091663,Saint John
BSTP34561,Millidge Av. & Somerset St.,45.287814,-66.091784,Saint John
BSTP34562,Millidge Av. & Boars Head Rd.,45.290795,-66.094392,Saint John
BSTP34563,Millidge Av. & Boars Head Rd.,45.290879,-66.094785,Saint John
BSTP34564,Millidge Av. & University Av.,45.293382,-66.096123,Saint John
BSTP34565,University Av. & Millidge Av.,45.293655,-66.095297,Saint John
BSTP34566,University Ave. & Woodhaven Dr.,45.295312,-66.091304,Saint John
BSTP34567,121 University Avenue,45.295162,-66.091079,Saint John
BSTP34570,University Av. & Varsity St.,45.300214,-66.083864,Saint John
BSTP34571,University Av. & Varsity St.,45.300111,-66.08442,Saint John
BSTP34573,Saint John Regional Hospital,45.301529,-66.085037,Saint John
BSTP34574,Saint John Regional Hospital,45.30305,-66.083416,Saint John
BSTP34576,Tucker Park Road,45.306721,-66.078947,Saint John
BSTP34577,Student Union Hall - U.N.B.S.J.,45.306801,-66.086144,Saint John
BSTP34578,Annex - U.N.B.S.J.,45.304826,-66.085434,Saint John
BSTP34580,Millidge Av. & Natalie St.,45.28105,-66.080891,Saint John
BSTP34581,Millidge Av. & Charlton Pl.,45.281401,-66.081134,Saint John
BSTP34583,University Ave. & Candlewood Lane,45.293954,-66.093426,Saint John
BSTP34584,Gorman Arena - University Avenue,45.294438,-66.092921,Saint John
BSTP34585,University Av. & Royal Parkway,45.296675,-66.087686,Saint John
BSTP34586,University Av. & Royal Parkway,45.296852,-66.087847,Saint John
BSTP34587,Somerset St. & Magee Pl.,45.28824,-66.090022,Saint John
BSTP34588,Somerset St. & Lime Kiln Rd.,45.288054,-66.089501,Saint John
BSTP34589,Superstore - Somerset St.,45.288905,-66.083567,Saint John
BSTP34590,Superstore - Somerset St.,45.288762,-66.083688,Saint John
BSTP34591,535 Somerset Street,45.287522,-66.080065,Saint John
BSTP34592,520 Somerset Street,45.287652,-66.079978,Saint John
BSTP34593,Churchill Blvd. & Somerset St.,45.286186,-66.078849,Saint John
BSTP34594,Churchill Blvd. & Somerset St.,45.286185,-66.078641,Saint John
BSTP34595,YMCA - Churchill Blvd.,45.284589,-66.078509,Saint John
BSTP34596,YMCA - Churchill Blvd.,45.285276,-66.078407,Saint John
BSTP34599,Churchill Blvd. & Balfour St.,45.282302,-66.078059,Saint John
BSTP34600,Lansdowne Avenue,45.277811,-66.076705,Saint John
BSTP34601,75 Lansdowne Avenue,45.277672,-66.076993,Saint John
BSTP34608,171 Adelaide St.,45.279338,-66.08061,Saint John
BSTP34610,Adelaide St. & Harrington St.,45.278188,-66.080467,Saint John
BSTP34611,Harrington St. & Visart St.,45.279997,-66.079237,Saint John
BSTP34612,Spar Cove Rd. & Millidge Avenue,45.28311,-66.087471,Saint John
BSTP34613,Belleview Av. & Highland Rd.,45.27894,-66.091035,Saint John
BSTP34614,Belleview Ave. & Pokiok Rd.,45.278116,-66.091545,Saint John
BSTP34615,Pokiok Rd. & Bridge St.,45.277591,-66.08939,Saint John
BSTP34616,Robertson Square - Bridge Street,45.275008,-66.088151,Saint John
BSTP34617,Main St. & Cedar St.,45.275075,-66.08517,Saint John
BSTP34618,Albert St. & Metcalf St.,45.275944,-66.084342,Saint John
BSTP34619,Newman St. & Shamrock Ct.,45.277476,-66.084314,Saint John
BSTP34620,Newman St. & Adelaide St.,45.277491,-66.080684,Saint John
BSTP34623,Boars Head Rd. & Millidge Av.,45.29071,-66.094918,Saint John
BSTP34624,Boars Head Rd. & Millidge Av.,45.290594,-66.094827,Saint John
BSTP34625,Boars Head Rd. & McIntosh St.,45.291195,-66.099377,Saint John
BSTP34626,Boars Head Rd. & McIntosh St.,45.291152,-66.099687,Saint John
BSTP34627,Boars Head Rd. & Cambridge Dr.,45.292383,-66.106264,Saint John
BSTP34628,Boars Head Rd. & Cambridge Dr.,45.292273,-66.106505,Saint John
BSTP34629,Boars Head Rd. & Woodward Av.,45.292995,-66.112582,Saint John
BSTP34630,Woodward Av. & Brentwood Cr.,45.293551,-66.106085,Saint John
BSTP34631,Woodward Av. & Brentwood Cr.,45.293468,-66.106309,Saint John
BSTP34632,Across from 298 Woodward Ave.,45.29325,-66.103944,Saint John
BSTP34633,298 Woodward Avenue,45.293391,-66.103872,Saint John
BSTP34634,Air Canada Call Center - Woodward Avenue,45.293295,-66.101884,Saint John
BSTP34635,40 Woodward Ave.,45.293443,-66.101837,Saint John
BSTP34636,Ray St. & Black St.,45.295149,-66.102177,Saint John
BSTP34637,Black St. & Ray St.,45.295326,-66.102367,Saint John
BSTP34638,Black St. & Daniel Av.,45.297138,-66.101661,Saint John
BSTP34639,Black St. & Daniel Av.,45.297137,-66.101505,Saint John
BSTP34640,Daniel Av. & Millidge Av.,45.297656,-66.100464,Saint John
BSTP34641,Millidge Av. & Daniel Av.,45.297997,-66.0998,Saint John
BSTP34642,Millidge Av. & Park Lawn Ct.,45.299744,-66.10127,Saint John
BSTP34643,Kennebecasis Dr. & Meadowbank Av.,45.302215,-66.099677,Saint John
BSTP34644,Kennebecasis Dr. & Meadowbank Av.,45.302056,-66.100066,Saint John
BSTP34652,Metcalf St. & Lansdowne Av.,45.276009,-66.076805,Saint John
BSTP34655,Wellesley Av. & Dufferin Av.,45.278556,-66.075617,Saint John
BSTP34659,Wellesley Ave. & Fegan Ct.,45.27969,-66.073937,Saint John
BSTP34661,Wellesley Av. & Montgomery Cr.,45.280532,-66.073064,Saint John
BSTP34662,Wellesley Av. & Somerset St.,45.281664,-66.07132,Saint John
BSTP34664,Anglin Dr. & Anglin Cr.,45.28828,-66.069154,Saint John
BSTP34665,108 Anglin Drive,45.288853,-66.068768,Saint John
BSTP34666,Sandy Point Rd. & Jack St.,45.290608,-66.064985,Saint John
BSTP34667,Sandy Point Road,45.291188,-66.067189,Saint John
BSTP34668,MacLaren Blvd & Sandy Point Road,45.291899,-66.071523,Saint John
BSTP34669,MacLaren Blvd. & Howard's Court,45.291268,-66.072484,Saint John
BSTP34670,MacLaren Blvd. & Flemming Court,45.290219,-66.075041,Saint John
BSTP34671,113 MacLaren Blvd,45.289443,-66.075366,Saint John
BSTP34673,75 MacLaren Blvd,45.288745,-66.076355,Saint John
BSTP34678,Charlotte St. & Duke St.,45.270554,-66.058025,Saint John
BSTP34679,Charlotte St. & Queen Sq. North,45.269531,-66.057687,Saint John
BSTP34680,Charlotte St. & St. James St.,45.267852,-66.05714,Saint John
BSTP34683,Broad St. & Charlotte St.,45.26677,-66.056802,Saint John
BSTP34684,Broad St. & Carmarthen St.,45.266871,-66.053221,Saint John
BSTP34685,Wentworth St. & Broad St.,45.267685,-66.051387,Saint John
BSTP34686,Wentworth St. & St. James St.,45.26837,-66.051585,Saint John
BSTP34687,Mecklenburg St. & Wentworth St.,45.270644,-66.051908,Saint John
BSTP34688,Mecklenburg St & Pitt St.,45.270868,-66.050849,Saint John
BSTP34689,Pitt St. & Leinster St.,45.273777,-66.051585,Saint John
BSTP34690,Pitt St. & King St. East,45.274551,-66.051787,Saint John
BSTP34692,Crown St. & Stephen Park,45.279268,-66.051617,Saint John
BSTP34693,Crown St. & Paul Harris St.,45.278744,-66.051891,Saint John
BSTP34696,Crown St. & Hanover St.,45.281689,-66.051795,Saint John
BSTP34697,Crown St. & Hanover St.,45.281871,-66.051551,Saint John
BSTP34698,Crown Street & Dunlop Ln.,45.280395,-66.051862,Saint John
BSTP34700,Seely St. & Mount Pleasant Ave.,45.286855,-66.055449,Saint John
BSTP34701,235 Gilbert Street,45.287499,-66.052185,Saint John
BSTP34703,Gilbert St. & Davenport Ave.,45.286407,-66.053321,Saint John
BSTP34705,Wright Street & Spruce St.,45.28416,-66.056518,Saint John
BSTP34706,Wright Street & Spruce St.,45.284051,-66.056423,Saint John
BSTP34707,Wright St. & Autumn St.,45.282502,-66.059513,Saint John
BSTP34708,Wright St. & Autumn St.,45.28263,-66.059531,Saint John
BSTP34709,Winter St. & Summer St.,45.281681,-66.059523,Saint John
BSTP34710,Winter St. & Summer St.,45.281619,-66.059428,Saint John
BSTP34711,Winter St. & Spring St.,45.281136,-66.060553,Saint John
BSTP34712,Winter St. & Spring St,45.281069,-66.060466,Saint John
BSTP34713,Winter St. & Rockland Rd.,45.280304,-66.062123,Saint John
BSTP34714,Rockland Rd. & Winter St.,45.280178,-66.062816,Saint John
BSTP34715,Parks Street & Mitchell St.,45.280605,-66.065539,Saint John
BSTP34716,Parks Street & Mitchell St.,45.28055,-66.065648,Saint John
BSTP34717,5 Corners,45.281677,-66.066805,Saint John
BSTP34718,Second St. & Cranston Ave.,45.280197,-66.068276,Saint John
BSTP34719,Barker St. & Somerset St.,45.279421,-66.068928,Saint John
BSTP34720,Fort Howe Apt. - Magazine St.,45.277886,-66.071787,Saint John
BSTP34721,Fifth St. & Cranston Av.,45.281884,-66.069384,Saint John
BSTP34722,Fifth St. & Parks St.,45.282623,-66.067442,Saint John
BSTP34724,Parkwood Av. & Sandy Point Rd.,45.287007,-66.063659,Saint John
BSTP34725,Mount Pleasant Ave. & Arrow Walk Rd.,45.287297,-66.059805,Saint John
BSTP34726,Mount Pleasant Ave. & Burpee St.,45.282736,-66.063775,Saint John
BSTP34727,Bleury St. & Sherbrooke St.,45.249884,-66.093542,Saint John
BSTP34740,Main St. West & Harding St. West,45.256482,-66.094671,Saint John
BSTP34741,TD Canada Trust Bank - Main St. W,45.256787,-66.097339,Saint John
BSTP34742,Moosehead Brewery - Main St. West,45.256937,-66.097296,Saint John
BSTP34743,15 Main Street West,45.257095,-66.099451,Saint John
BSTP34750,Green Head Rd. & Milford Rd.,45.261947,-66.10574,Saint John
BSTP34752,Green Head Rd. & Balmoral Cr.,45.26383,-66.109264,Saint John
BSTP34754,420 Green Head Road,45.265059,-66.111845,Saint John
BSTP34756,Dwyer Rd. & Russell Hill Rd.,45.268829,-66.112208,Saint John
BSTP34758,Dwyer Rd. & Balmoral Cr.,45.2697,-66.108867,Saint John
BSTP34760,Kingsville Rd. & Primrose St.,45.269792,-66.104611,Saint John
BSTP34761,Kingsville Rd. & Violet St.,45.268577,-66.103339,Saint John
BSTP34762,Kingsville Rd. & Hawtrey St.,45.267915,-66.102116,Saint John
BSTP34763,Kingsville Rd. & Milford Rd.,45.267746,-66.10097,Saint John
BSTP34764,Milford Rd. & Kingsville Rd.,45.267886,-66.100929,Saint John
BSTP34767,205 Milford Road,45.271325,-66.10184,Saint John
BSTP34768,210 Milford Road,45.27129,-66.101984,Saint John
BSTP34770,135 Milford Road,45.273028,-66.100799,Saint John
BSTP34771,134 Milford Road,45.273066,-66.100957,Saint John
BSTP34772,113 Milford Road,45.273683,-66.10056,Saint John
BSTP34774,110 Milford Road,45.273741,-66.10075,Saint John
BSTP34775,Allison St. & Francis St.,45.273183,-66.098909,Saint John
BSTP34776,38 Milford Road,45.2738,-66.097653,Saint John
BSTP34777,Milford Rd. & Williams St.,45.266645,-66.101233,Saint John
BSTP34778,Milford Rd. & Violet St.,45.265023,-66.102862,Saint John
BSTP34779,Green Head Rd. & Milford Rd.,45.262032,-66.105541,Saint John
BSTP34789,843 Bleury Street,45.248936,-66.093272,Saint John
BSTP34790,Across from 843 Bleury Street,45.248957,-66.09347,Saint John
BSTP34793,468 Green Head Road,45.265976,-66.112919,Saint John
BSTP34794,490 Green Head Road,45.267243,-66.112665,Saint John
BSTP34795,Dwyer Road & River Hill Dr.,45.269942,-66.107233,Saint John
BSTP34796,233 Milford Road,45.270047,-66.100571,Saint John
BSTP34797,244 Milford Road,45.270014,-66.100712,Saint John
BSTP34798,162 Milford Road,45.272357,-66.101348,Saint John
BSTP34799,Across from 162 Milford Road,45.272288,-66.101227,Saint John
BSTP34801,462 Milford Rd.,45.264216,-66.104034,Saint John
BSTP34802,Manawagonish Rd. & Coster St.,45.254613,-66.102245,Saint John
BSTP34803,Manawagonish Rd. & Coster St.,45.254667,-66.102416,Saint John
BSTP34804,Birch St. & Manawagonish Rd.,45.253103,-66.103778,Saint John
BSTP34805,Birch St. & Manawagonish Rd.,45.252989,-66.103848,Saint John
BSTP34806,Manawagonish Rd. & Orange St. West,45.256542,-66.100976,Saint John
BSTP34807,Dexter Dr. & Mollins Dr.,45.253442,-66.106142,Saint John
BSTP34808,Dexter Dr. & Mollins Dr.,45.253565,-66.105842,Saint John
BSTP34809,157 Greendale Cresent,45.253332,-66.110162,Saint John
BSTP34810,154 Greendale Cresent,45.253214,-66.110138,Saint John
BSTP34825,Anderson Dr. & Edgehill Row,45.251382,-66.118932,Saint John
BSTP34826,Anderson Dr. & Edgehill Row,45.251507,-66.119073,Saint John
BSTP34827,Anderson Dr. & Lorne Ave.,45.249219,-66.118225,Saint John
BSTP34828,Anderson Dr. & Lorne Ave.,45.249207,-66.118366,Saint John
BSTP34829,Central Avenue,45.246295,-66.117757,Saint John
BSTP34830,Central Avenue,45.246523,-66.118349,Saint John
BSTP34831,Quinton Ave. & Central Ave.,45.244797,-66.116993,Saint John
BSTP34832,Quinton Ave. & Central Ave.,45.244786,-66.117173,Saint John
BSTP34833,Horsler Dr. & Harbary Terr.,45.242282,-66.118311,Saint John
BSTP34834,Horsler Dr. & Harbary Terr.,45.242329,-66.11804,Saint John
BSTP34835,Centennial Dr. & Horsler Dr.,45.240152,-66.120481,Saint John
BSTP34836,Centennial Dr. & Horsler Dr.,45.240031,-66.120462,Saint John
BSTP34839,1650 Manawagonish Road,45.235377,-66.124059,Saint John
BSTP34840,1655 Manawagonish Road,45.235277,-66.123975,Saint John
BSTP34841,Manawagonish Rd. & Fairville Blvd.,45.237442,-66.120625,Saint John
BSTP34846,Manawagonish Rd. & Ridge Row,45.233445,-66.131487,Saint John
BSTP34847,Manawagonish Rd. & Ridge Row,45.233333,-66.131664,Saint John
BSTP34850,Manawagonish Rd. & Westgate Dr.,45.233901,-66.135054,Saint John
BSTP34855,Manawagonish Road,45.234773,-66.138107,Saint John
BSTP34856,Across from 1918 Manawagonish Road,45.234661,-66.138255,Saint John
BSTP34877,Manawagonish Road,45.241073,-66.117651,Saint John
BSTP34878,Manawagonish Road,45.241128,-66.117435,Saint John
BSTP34879,Manawagonish Rd. & Hillcrest Dr.,45.243062,-66.116266,Saint John
BSTP34880,Manawagonish Rd. & Hillcrest Dr.,45.243259,-66.116315,Saint John
BSTP34881,Manchester Av. & Manawagonish Rd.,45.249053,-66.112222,Saint John
BSTP34882,Manawagonish Rd. ( Hillcrest Village ),45.247765,-66.112837,Saint John
BSTP34883,Manawagonish Rd. ( Hillcrest Village ),45.247707,-66.112623,Saint John
BSTP34894,Fairville Blvd. & Catherwood St.,45.253256,-66.097342,Saint John
BSTP34895,Fairville Blvd. & Catherwood St.,45.253047,-66.097221,Saint John
BSTP34896,Westwind Place,45.252033,-66.100004,Saint John
BSTP34897,Westwind Place,45.251752,-66.099983,Saint John
BSTP34898,Canadian Tire - Fairville Blvd.,45.25032,-66.101664,Saint John
BSTP34899,Canadian Tire - Fairville Blvd.,45.250302,-66.102091,Saint John
BSTP34900,Fairville Blvd & Plaza Av.,45.248711,-66.103521,Saint John
BSTP34901,Fairville Blvd & Plaza Av.,45.248844,-66.103806,Saint John
BSTP34902,Fairville Blvd. & Kierstead Rd.,45.246912,-66.107295,Saint John
BSTP34903,Fairville Blvd. & Kierstead Rd.,45.246798,-66.10692,Saint John
BSTP34904,Fairville Blvd. & Linton Rd.,45.244696,-66.110923,Saint John
BSTP34905,Fairville Blvd. & Linton Rd.,45.24478,-66.111204,Saint John
BSTP34906,Fairville Blvd. & Manawagonish Rd.,45.237949,-66.119464,Saint John
BSTP34909,Ridgewood,45.254714,-66.128206,Saint John
BSTP34911,Gault Rd. & Westfield Rd.,45.252413,-66.140523,Saint John
BSTP34912,Westfield Rd. & Gault Rd.,45.252576,-66.141308,Saint John
BSTP34913,Westfield Rd. & Grenville Ln.,45.262541,-66.155268,Saint John
BSTP34914,Westfield Rd. & Grenville Ln.,45.262511,-66.155144,Saint John
BSTP34915,Westfield Rd. & Lawrence Long Rd.,45.265938,-66.155369,Saint John
BSTP34916,Westfield Rd. & Lawrence Long Rd.,45.266007,-66.15552,Saint John
BSTP34917,Westfield Rd. & Acamac Beach Rd.,45.268416,-66.155504,Saint John
BSTP34918,Westfield Rd. & Acamac Beach Rd.,45.268504,-66.155631,Saint John
BSTP34919,Westfield Rd. & Acamac Backland Rd.,45.273722,-66.154832,Saint John
BSTP34920,Westfield Rd. & Acamac Backland Rd.,45.273817,-66.154831,Saint John
BSTP34921,Westfield Rd. & Belmont Rd.,45.286292,-66.162433,Saint John
BSTP34922,Westfield Rd. & Belmont Rd.,45.28636,-66.16254,Saint John
BSTP34923,Westfield Rd. & Martinon Bypass,45.29012,-66.195087,Saint John
BSTP34924,Westfield Rd. & Martinon Bypass,45.289908,-66.195132,Saint John
BSTP34925,Westfield Rd. & By Rd. #7,45.276001,-66.151587,Saint John
BSTP34926,Westfield Rd. & By Rd. #7,45.276068,-66.15177,Saint John
BSTP34927,Westfield Rd. & By Rd. #2,45.278405,-66.153655,Saint John
BSTP34928,Westfield Rd. & By Rd. #2,45.278403,-66.153893,Saint John
BSTP34929,Westfield Rd. & Ann Ave.,45.289698,-66.189752,Saint John
BSTP34930,Westfield Rd. & Highfield Ave.,45.289787,-66.18995,Saint John
BSTP34931,Guardian Drugs - Grand Bay,45.299796,-66.19483,Saint John
BSTP34938,Manawagonish Rd. & Gault Rd.,45.236238,-66.142677,Saint John
BSTP34946,681 Michael Cresent,45.301888,-66.017712,Saint John
BSTP34947,635 Michael Cresent,45.301027,-66.019127,Saint John
BSTP34948,571 Michael Cr.,45.299361,-66.020911,Saint John
BSTP34949,475 Michael Cr.,45.297298,-66.021476,Saint John
BSTP34950,455 Michael Cresent,45.296826,-66.020807,Saint John
BSTP34951,19 Nason Road,45.297196,-66.019013,Saint John
BSTP34953,Martha Av. & Nason Rd.,45.297537,-66.017507,Saint John
BSTP34955,558 Martha Av.,45.298159,-66.017347,Saint John
BSTP34956,Cindy Lee St. & Bonita Av.,45.298659,-66.01977,Saint John
BSTP34957,620 Bonita Avenue,45.299973,-66.018767,Saint John
BSTP34958,Mark Drive & Michael Cr.,45.301483,-66.016978,Saint John
BSTP34977,Loch Lomond Rd. & Eugene's Way,45.302509,-65.996544,Saint John
BSTP34978,NBCC - Grandview Avenue,45.285557,-65.993841,Saint John
BSTP34979,NBCC - Grandview Avenue,45.285476,-65.993648,Saint John
BSTP34981,1123 Grandview Avenue,45.287752,-65.990229,Saint John
BSTP34982,Across from 1123 Grandview Avenue,45.28767,-65.990077,Saint John
BSTP34983,Heather Way & Grandview Ave.,45.29136,-65.9853,Saint John
BSTP34984,Heather Way & Grandview Ave.,45.291552,-65.985075,Saint John
BSTP34985,Heather Way & Wyatt Cr.,45.295127,-65.986023,Saint John
BSTP34986,Heather Way & Wyatt Cr.,45.295174,-65.985702,Saint John
BSTP34987,Heather Way & Oakhill Cr.,45.299612,-65.986182,Saint John
BSTP34988,Heather Way & Oakhill Cr.,45.299321,-65.985734,Saint John
BSTP34989,Hickey Rd. & Jillian Ct.,45.300612,-65.987322,Saint John
BSTP34990,Hickey Rd. & Jillian Ct.,45.300456,-65.98761,Saint John
BSTP34991,1501 Hickey Road,45.300798,-65.991561,Saint John
BSTP34992,Simonds High School,45.300665,-65.991807,Saint John
BSTP34993,Tim Horton's - Hickey Road,45.301475,-65.997248,Saint John
BSTP34994,On The Vine - Hickey Road,45.301362,-65.997383,Saint John
BSTP34995,Loch Lomond Rd. West of Hickey Rd.,45.301564,-65.998478,Saint John
BSTP34996,Loch Lomond Rd. West of Hickey Rd.,45.301617,-65.998775,Saint John
BSTP34997,Loch Lomond Rd. & Silverstone St.,45.300386,-66.003904,Saint John
BSTP34998,Loch Lomond Rd. & Silverstone St.,45.300119,-66.004181,Saint John
BSTP34999,49 Champlain Drive,45.295188,-66.006496,Saint John
BSTP35000,Champlain Dr. & Creighton Ave.,45.295234,-66.006742,Saint John
BSTP35003,74 Champlain Dr.,45.293345,-66.005237,Saint John
BSTP35004,Champlain Dr. & Knox Court,45.293437,-66.005093,Saint John
BSTP35005,104 Champlain Drive,45.290604,-66.003389,Saint John
BSTP35006,Champlain Heights School,45.290744,-66.002697,Saint John
BSTP35007,Champlain Dr. & Dorothea Dr.,45.288297,-66.001685,Saint John
BSTP35008,Champlain Dr. & Dorothea Dr.,45.288354,-66.001522,Saint John
BSTP35009,Champlain Dr. & Ian St.,45.284253,-65.998396,Saint John
BSTP35010,198 Champlain Drive,45.284135,-65.998509,Saint John
BSTP35011,Champlain Dr. & Swanton St.,45.286344,-65.999987,Saint John
BSTP35012,152 Champlain Drive,45.286448,-66.000239,Saint John
BSTP35013,1210 Loch Lomond Rd.,45.303642,-65.992334,Saint John
BSTP35014,Irving - Loch Lomond Rd.,45.303675,-65.992609,Saint John
BSTP35015,1395 Loch Lomond Rd.,45.304613,-65.98951,Saint John
BSTP35016,Loch Lomond Rd. & Bon Accord Dr.,45.304484,-65.989394,Saint John
BSTP35017,Across from 1433 Loch Lomond Rd.,45.306078,-65.985399,Saint John
BSTP35018,Across from 1506 Loch Lomond Rd.,45.306251,-65.985069,Saint John
BSTP35019,1674 Loch Lomond Rd.,45.307793,-65.978562,Saint John
BSTP35020,Loch Lomond Rd. & McNamara Dr.,45.308054,-65.978307,Saint John
BSTP35021,McNamara Dr. & Summit Dr.,45.308427,-65.978733,Saint John
BSTP35022,McNamara Dr. & Dianne St.,45.312286,-65.9817,Saint John
BSTP35023,Bing Av. & David St.,45.314284,-65.984279,Saint John
BSTP35024,30 David Street,45.315851,-65.985759,Saint John
BSTP35025,Willie Av. & Summit Dr.,45.317291,-65.984006,Saint John
BSTP35026,Willie Av. & Lakeview Dr.,45.317073,-65.983053,Saint John
BSTP35027,255 Lakeview Drive,45.314411,-65.981025,Saint John
BSTP35028,Lakeview Drive & Charles St. East,45.311585,-65.978716,Saint John
BSTP35029,29 Lakeview Drive,45.309302,-65.976882,Saint John
BSTP35030,McAllister Dr. & Highmeadow Dr.,45.301566,-66.006562,Saint John
BSTP35031,McAllister Dr. & Highmeadow Dr.,45.301229,-66.006548,Saint John
BSTP35032,Revenue Canada - Mountain View Dr.,45.303107,-66.00706,Saint John
BSTP35033,Revenue Canada - Mountain View Dr.,45.303311,-66.007136,Saint John
BSTP35034,Mountain View Dr. & Carlile Cr.,45.30666,-66.004852,Saint John
BSTP35035,Mountain View Dr. & Carlile Cr.,45.306763,-66.00491,Saint John
BSTP35036,Mountain View Dr. & Mountain Rd.,45.309292,-66.004037,Saint John
BSTP35037,Mountain View Dr. & Mountain Rd.,45.309304,-66.004278,Saint John
BSTP35038,65 Mountain Road,45.309404,-66.006303,Saint John
BSTP35039,70 Mountain Road,45.309318,-66.006306,Saint John
BSTP35040,Mountain Rd. & Morley Cr.,45.309261,-66.011044,Saint John
BSTP35041,Mountain Rd. & Morley Cr.,45.309364,-66.010657,Saint John
BSTP35042,Mountain Rd. & Westmorland Rd.,45.311903,-66.012943,Saint John
BSTP35043,Westmorland Rd. & Braemar Dr.,45.311967,-66.01386,Saint John
BSTP35044,Westmorland Rd. & McAllister Dr.,45.310648,-66.015209,Saint John
BSTP35045,Westmorland Rd. & McAllister Dr.,45.31076,-66.015455,Saint John
BSTP35046,Westmorland Rd. & Hubert St.,45.309438,-66.016572,Saint John
BSTP35047,Westmorland Rd. & Hubert St.,45.30986,-66.016448,Saint John
BSTP35074,Bayside Dr. & Park Av.,45.281732,-66.037957,Saint John
BSTP35078,Loch Lomond Rd. & Eldersley Av.,45.325182,-65.935809,Saint John
BSTP35086,McAllister Dr. & Hubert St.,45.309843,-66.014379,Saint John
BSTP35087,Golden Grove Rd. & Simpson Dr.,45.314446,-66.022798,Saint John
BSTP35089,Gault Rd. & Pipe Line Rd. West,45.238615,-66.143161,Saint John
BSTP35090,Gault Rd. & Pipe Line Rd. West,45.238581,-66.143333,Saint John
BSTP35093,Gault Rd. & Valentine Blvd.,45.242072,-66.144309,Saint John
BSTP35094,Gault Rd. & Valentine Blvd.,45.24213,-66.144109,Saint John
BSTP35095,276 Gault Road,45.244118,-66.144687,Saint John
BSTP35096,277 Gault Road,45.244098,-66.144861,Saint John
BSTP35097,Gault Rd. & Hayes Ave.,45.250156,-66.142598,Saint John
BSTP35098,Gault Rd. & Hayes Ave.,45.250195,-66.142706,Saint John
BSTP35099,60 Golden Grove Rd.,45.315274,-66.019041,Saint John
BSTP35100,Golden Grove Rd. & Parkhill Dr.,45.315707,-66.017148,Saint John
BSTP35101,Golden Grove Rd. & Wildwood St.,45.316898,-66.011963,Saint John
BSTP35102,Golden Grove Rd. & Harmony Dr.,45.317554,-66.010082,Saint John
BSTP35103,Golden Grove Rd. & Westmorland Rd.,45.319548,-66.004851,Saint John
BSTP35104,Coldbrook Cr. & Mystery Lake Dr.,45.320335,-66.00115,Saint John
BSTP35106,Roxbury Dr. & Reading Cr.,45.321508,-66.006836,Saint John
BSTP35107,Across from 1 Roxbury Dr.,45.320823,-66.007706,Saint John
BSTP35108,13 John T. McMillian Ave.,45.321657,-66.010522,Saint John
BSTP35109,Belgian Rd. & John T. McMillan Av.,45.322448,-66.011616,Saint John
BSTP35111,Glen Rd. & Connaught Ave.,45.321745,-66.015947,Saint John
BSTP35112,Glen Rd & Simpson Dr.,45.322181,-66.018922,Saint John
BSTP35113,Simpson Dr. & Broadway Av.,45.321019,-66.020849,Saint John
BSTP35114,Simpson Dr. & Holland St.,45.31836,-66.022057,Saint John
BSTP35115,Simpson Dr. & Princess Ct.,45.316567,-66.022651,Saint John
BSTP35116,Simpson Drive & Golden Grove Rd.,45.314775,-66.023223,Saint John
BSTP35123,Parkside Rd. Park & Ride,45.415623,-65.939683,Saint John
BSTP35124,Kennebecasis Baptist United Church,45.421344,-65.951568,Saint John
BSTP35125,Quispamsis Arts & Culture Park,45.408065,-65.968459,Saint John
BSTP35126,Lila Ct. Park,45.404989,-65.970047,Saint John
BSTP35127,Rothesay High School,45.393597,-65.987427,Saint John
BSTP35128,Rothesay Common,45.389889,-65.997258,Saint John
BSTP35129,Across from Riverside Country Club,45.371656,-66.009505,Saint John
BSTP35130,Across from 1700 Rothesay Rd.,45.347578,-66.017963,Saint John
BSTP35131,1700 Rothesay Rd.,45.34751,-66.017762,Saint John
BSTP35132,Riverside Country Club,45.371627,-66.009287,Saint John
BSTP35133,Rothesay Common,45.389805,-65.997179,Saint John
BSTP35134,Rothesay Town Hall,45.393472,-65.987242,Saint John
BSTP35135,Hampton Rd. & Donlyn Dr.,45.404657,-65.970219,Saint John
BSTP35138,233 Loch Lomond Road,45.290961,-66.027494,Saint John
BSTP35139,244 Loch Lomond Road,45.290846,-66.027327,Saint John
BSTP35140,Loch Lomond Rd. & Linda Crt.,45.291227,-66.024933,Saint John
BSTP35141,Across from 255 Loch Lomond Road,45.29112,-66.024652,Saint John
BSTP35142,Irving Oil Refinery - Loch Lomond Rd.,45.291772,-66.021649,Saint John
BSTP35143,Loch Lomond Rd. (across from the refinery),45.291841,-66.021852,Saint John
BSTP35144,Commerce Dr. & Loch Lomond Rd.,45.298012,-66.013048,Saint John
BSTP35145,Commerce Dr. & Loch Lomond Rd.,45.297936,-66.012938,Saint John
BSTP35148,Loch Lomond Rd. & Charles St. East,45.310453,-65.972044,Saint John
BSTP35149,Loch Lomond Rd. & Charles St. East,45.310365,-65.971934,Saint John
BSTP35150,2075 Loch Lomond Rd.,45.314256,-65.964684,Saint John
BSTP35151,2074 Loch Lomond Rd.,45.314097,-65.964749,Saint John
BSTP35152,Loch Lomond Rd. & Wayne's Way,45.315953,-65.959783,Saint John
BSTP35153,Loch Lomond Rd. & Wayne's Way,45.315865,-65.95968,Saint John
BSTP35154,Loch Lomond Rd. & Greenwood St.,45.318479,-65.947878,Saint John
BSTP35156,Loch Lomond Rd. & Greenwood St.,45.318607,-65.947977,Saint John
BSTP35157,Loch Lomond Rd. & Eldersley Av.,45.325406,-65.935724,Saint John
BSTP35158,Loch Lomond Rd. & Greenhill Rd.,45.326748,-65.933318,Saint John
BSTP35159,Loch Lomond Rd. & Greenhill Rd.,45.326856,-65.933449,Saint John
BSTP35160,Loch Lomond Rd. & Norris Rd.,45.330838,-65.924821,Saint John
BSTP35161,Loch Lomond Rd. & Norris Rd.,45.330907,-65.924987,Saint John
BSTP35162,Loch Lomond Rd. & Churchland Rd.,45.331858,-65.922414,Saint John
BSTP35163,Loch Lomond Rd. & Churchland Rd.,45.331715,-65.922431,Saint John
BSTP35164,Loch Lomond Rd. & Sproule Rd.,45.333366,-65.913449,Saint John
BSTP35165,Loch Lomond Rd. & Sproule Rd.,45.333223,-65.913734,Saint John
BSTP35166,Loch Lomond Rd. & Evergreen Av.,45.333118,-65.900668,Saint John
BSTP35167,Loch Lomond Rd. & Evergreen Av.,45.333297,-65.900655,Saint John
BSTP35168,Airport Store - Loch Lomond Rd.,45.330157,-65.892248,Saint John
BSTP35169,Airport Store - Loch Lomond Rd.,45.330024,-65.892565,Saint John
BSTP35170,Saint John Airport,45.330705,-65.889801,Saint John
BSTP35171,Saint John Airport,45.330797,-65.889921,Saint John
BSTP35172,Loch Lomond Rd. & Johnston Rd.,45.335428,-65.881517,Saint John
BSTP35173,Loch Lomond Rd. & Johnston Rd.,45.335226,-65.881626,Saint John
BSTP35174,Loch Lomond Rd. & St. Martins Rd.,45.341329,-65.869891,Saint John
BSTP35175,Loch Lomond Rd. & St. Martins Rd,45.341402,-65.870463,Saint John
BSTP35176,Range Rd. & Garnett Settlement Rd.,45.324019,-65.851943,Saint John
BSTP35177,Range Rd. & Route 111,45.333382,-65.841303,Saint John
BSTP35178,Willow Grove Store,45.332862,-65.838695,Saint John
BSTP35179,Wentworth St. & Queen St.,45.269836,-66.052096,Saint John
BSTP35181,Wright St. & Gooderich St.,45.283344,-66.058132,Saint John
BSTP35182,Wright St. & Gooderich St.,45.283253,-66.058021,Saint John
BSTP35184,Hawthorne Av. & Arrow Walk Rd.,45.287491,-66.061437,Saint John
BSTP35185,Mount Pleasant Avenue,45.284469,-66.062438,Saint John
BSTP35186,5 Corners,45.281853,-66.066184,Saint John
BSTP35187,Bridge St. & Victoria St.,45.276224,-66.088353,Saint John
BSTP35188,Golden Grove Rd. & Mystery Lake Dr.,45.321344,-66.001205,Saint John
BSTP35189,Across from 38 John T. McMillian Ave.,45.320317,-66.009566,Saint John
BSTP35190,Sandy Point Road,45.291666,-66.068501,Saint John
BSTP35192,Tim Horton's - King St. West,45.260323,-66.075965,Saint John
BSTP35198,Heather Way & Eagle Blvd.,45.297045,-65.985928,Saint John
BSTP35199,Heather Way & Eagle Blvd.,45.297023,-65.985503,Saint John
BSTP35200,Westmorland Rd. & Braemar Dr.,45.31186,-66.013779,Saint John
BSTP35201,Willie Av. & Riley Dr.,45.316737,-65.985299,Saint John
BSTP35202,Loch Lomond Rd. & Whalen Rd.,45.339158,-65.874128,Saint John
BSTP35203,Loch Lomond Rd. & Whalen Rd.,45.339034,-65.873946,Saint John
BSTP35204,Boars Head Rd. & Woodward Av.,45.292868,-66.112584,Saint John
BSTP35205,Kennebec Manor - Woodward Avenue,45.293904,-66.111072,Saint John
BSTP35206,Kennebec Manor - Woodward Avenue,45.29377,-66.111026,Saint John
BSTP35207,Millidge Av. & Park Lawn Ct.,45.299683,-66.101441,Saint John
BSTP35208,Churchill Blvd. & Memorial Court,45.282276,-66.078246,Saint John
BSTP35209,Westfield Rd. & John Green Roadway,45.25927,-66.152591,Saint John
BSTP35210,Westfield Rd. & John Green Roadway,45.259171,-66.152715,Saint John
BSTP35211,Westfield Rd. & Ketepec Rd.,45.280339,-66.158835,Saint John
BSTP35212,Westfield Rd. & Ketepec Rd.,45.280261,-66.158993,Saint John
BSTP35213,Westfield Rd. & Woodside Dr.,45.288714,-66.165556,Saint John
BSTP35214,Westfield Rd. & Woodside Dr.,45.288591,-66.165659,Saint John
BSTP35215,Westfield Rd. & Clark Rd. #1,45.288708,-66.17064,Saint John
BSTP35216,Westfield Rd. & Clark Rd. #1,45.288585,-66.170669,Saint John
BSTP35217,Westfield Rd. & Olsen Rd.,45.28911,-66.17632,Saint John
BSTP35218,Westfield Rd. & Olsen Rd.,45.288988,-66.176354,Saint John
BSTP35219,Westfield Rd. & Buckley Rd.,45.289572,-66.18504,Saint John
BSTP35220,Westfield Rd. & Buckley Rd.,45.289449,-66.185126,Saint John
BSTP35221,Westfield Rd. & Woodland Rd.,45.289891,-66.187561,Saint John
BSTP35222,Westfield Rd. & Woodland Rd.,45.289766,-66.187652,Saint John
BSTP35223,Loch Lomond Rd. & Jean St.,45.288869,-66.035874,Saint John
BSTP35224,Loch Lomond Rd. & Jean St.,45.288679,-66.035939,Saint John
BSTP35225,Retail Dr. & Oakland St.,45.307598,-66.029152,Saint John
BSTP35226,Retail Drive,45.302133,-66.025453,Saint John
BSTP35228,Sand Cove Rd. & Danells Dr.,45.24683,-66.092051,Saint John
BSTP35232,Manawagonish Rd. & Orange St. West,45.256319,-66.100919,Saint John
BSTP35233,Main St. West & Walnut St.,45.257004,-66.098852,Saint John
BSTP35234,Central Av. & Fenton Dr.,45.247934,-66.118589,Saint John
BSTP35235,Central Av. & Fenton Dr.,45.247962,-66.118426,Saint John
BSTP35238,Horsler Dr. & Hillcrest Dr.,45.243312,-66.117335,Saint John
BSTP35239,Horsler Dr. & Hillcrest Dr.,45.243248,-66.117171,Saint John
BSTP35247,Kennebecasis Dr. & Lentook Av.,45.321395,-66.077173,Saint John
BSTP35250,Cherry Brook Zoo,45.321768,-66.069097,Saint John
BSTP35251,Cherry Brook Zoo,45.321595,-66.068716,Saint John
BSTP35252,Rockwood Park Golf Course,45.310416,-66.078274,Saint John
BSTP35253,Rockwood Park Golf Course,45.3104,-66.078083,Saint John
BSTP35258,36 Parks St. Ext.,45.284015,-66.066959,Saint John
BSTP35259,124 Parks St. Ext.,45.286061,-66.06521,Saint John
BSTP35267,Anglin Dr. & Thornbrough St.,45.286301,-66.07023,Saint John
BSTP35276,King St. East & Carmarthen St.,45.274192,-66.055252,Saint John
BSTP35282,Sobeys - Plaza Av.,45.248802,-66.102388,Saint John
BSTP35283,Retail Dr. & Oakland St.,45.307733,-66.02903,Saint John
BSTP35284,East Point Way,45.302996,-66.028427,Saint John
BSTP35285,Retail Dr. & Fashion Dr.,45.302608,-66.025696,Saint John
BSTP35292,Boyd Street,45.28719,-66.053394,Saint John
BSTP35293,River Valley Community Centre,45.320954,-66.196188,Saint John
BSTP35295,Qplex,45.439881,-65.974833,Saint John
BSTP35302,East Point Way,45.303134,-66.02862,Saint John
BSTP35303,Costco,45.304532,-66.026879,Saint John
BSTP35304,Costco,45.304465,-66.026662,Saint John
BSTP35305,Fairville Blvd Plaza,45.247975,-66.102951,Saint John
BSTP35306,Canadian Tire - Westmorland Rd.,45.304266,-66.02055,Saint John
BSTP35308,Bayside Middle School,45.284587,-66.040422,Saint John
BSTP35309,Bayside Middle School,45.284483,-66.040673,Saint John
BSTP35310,15 Bayside Drive,45.286586,-66.042196,Saint John
BSTP35311,6 Bayside Drive,45.286516,-66.042461,Saint John
BSTP35312,Loch Lomond Rd. & McAllister Dr.,45.299624,-66.006665,Saint John
BSTP35313,Loch Lomond Rd. & McAllister Dr.,45.29948,-66.00656,Saint John
BSTP35314,Across from Kent - Consumers Dr.,45.307026,-66.022908,Saint John
BSTP35315,Kent - Consumers Dr.,45.306923,-66.022997,Saint John
BSTP35316,Across from Winners - Majors Brook Dr.,45.30877,-66.022684,Saint John
BSTP35317,Parkway Mall - Majors Brook Dr.,45.310909,-66.019928,Saint John
BSTP35318,Across from Parkway Mall - Majors Brook Dr.,45.310994,-66.020147,Saint John
BSTP35319,Brunswick Dr. & Exmouth St.,45.279521,-66.053158,Saint John
BSTP35320,Brunswick Dr. & Exmouth St.,45.279519,-66.053318,Saint John
BSTP35321,Metcalf St. & Lansdowne Av.,45.276219,-66.07736,Saint John
BSTP35322,Thornbrough St. & Kiwanis Ct.,45.285366,-66.072015,Saint John
BSTP35323,Carmarthen St. & Union St.,45.27525,-66.055724,Saint John
BSTP35324,Pitt St. & Orange St.,45.272604,-66.051193,Saint John
BSTP35325,Seely St. & Mount Pleasant Ave.,45.286633,-66.055348,Saint John
BSTP35326,King St. West & Market Pl.,45.261155,-66.074819,Saint John
BSTP35327,King St. West & Ludlow St.,45.259852,-66.0761,Saint John
BSTP35328,Duke St. West & Watson St.,45.25838,-66.076287,Saint John
BSTP35329,Duke St. West & City Line,45.256777,-66.07784,Saint John
BSTP35330,Duke St. West & Champlain St.,45.255866,-66.078373,Saint John
BSTP35331,Champlain St. & Charlotte St. West,45.254643,-66.075511,Saint John
BSTP35332,Champlain St. & Charlotte St. West,45.254575,-66.075594,Saint John
BSTP35333,Charlotte St. West & Lancaster St.,45.255982,-66.073949,Saint John
BSTP35334,Charlotte St. West & Lancaster St.,45.255932,-66.073761,Saint John
BSTP35335,Charlotte St. West & Watson St.,45.257038,-66.072709,Saint John
BSTP35336,Charlotte St. West & Watson St.,45.257108,-66.072835,Saint John
BSTP35337,Ludlow St. & Charlotte St. West,45.257976,-66.071607,Saint John
BSTP35338,Ludlow St. & Charlotte St. West,45.257769,-66.071526,Saint John
BSTP35339,St.John St. & Watson St.,45.255663,-66.070578,Saint John
BSTP35340,St. John St. & Lancaster St.,45.254328,-66.071661,Saint John
BSTP35341,City Line & Clifton St. West,45.25325,-66.071005,Saint John
BSTP35342,City Line & Clifton St. West,45.253304,-66.070805,Saint John
BSTP35255,McDonald St. & Park Av.,45.289065,-66.0294,Saint John
BSTP35343,Woodville Rd. & City Line,45.252439,-66.069875,Saint John
BSTP35344,Chapel St. & Woodville Rd.,45.251267,-66.071466,Saint John
BSTP35345,677 Chapel Street,45.252065,-66.07333,Saint John
BSTP35346,Lancaster Av. & Dufferin Row,45.252204,-66.075032,Saint John
BSTP35347,Lancaster Av. & Dufferin Row,45.252134,-66.075115,Saint John
BSTP35348,Lancaster Av. & Charlotte St. West,45.25301,-66.07634,Saint John
BSTP35349,Lancaster Av. & Charlotte St. West,45.25294,-66.076467,Saint John
BSTP35350,Lancaster Av. & Maple Row,45.253931,-66.077991,Saint John
BSTP35351,Lancaster Av. & Maple Row,45.25384,-66.078092,Saint John
BSTP35352,476 Lancaster Avenue,45.253624,-66.08064,Saint John
BSTP35353,Lancaster Av. & Havelock St.,45.253619,-66.083824,Saint John
BSTP35354,Dunn Ave. & Young St.,45.251594,-66.086062,Saint John
BSTP35355,Dunn Av. & Fundy Dr.,45.249776,-66.086612,Saint John
BSTP35356,Dunn Av. & Argyle St.,45.248663,-66.087121,Saint John
BSTP35357,Sand Cove Rd. & Molson Ave.,45.24702,-66.089942,Saint John
BSTP35358,Sand Cove Rd. & Danells Dr.,45.246694,-66.092117,Saint John
BSTP35359,Bleury St. & Danells Dr.,45.24715,-66.093355,Saint John
BSTP35360,Manawagonish Rd. & Ambercrest Ct.,45.238352,-66.120002,Saint John
BSTP35361,Manawagonish Rd. & Ambercrest Ct.,45.23821,-66.119886,Saint John
BSTP35362,Manawagonish Rd. & Centennial Dr.,45.239578,-66.118517,Saint John
BSTP35363,Manawagonish Rd. & Centennial Dr.,45.239522,-66.118364,Saint John
BSTP35364,Manawagonish Rd. & Scotiaview Dr.,45.245615,-66.114555,Saint John
BSTP35365,Manawagonish Rd. & Scotiaview Dr.,45.245444,-66.114489,Saint John
BSTP35366,Manchester Av. & Manawagonish Rd.,45.248896,-66.112238,Saint John
BSTP35367,Manchester Av. & Sunset Dr.,45.250539,-66.115725,Saint John
BSTP35368,Manchester Av. & Sunset Dr.,45.250455,-66.115849,Saint John
BSTP35369,Manchester Av. & Dever Rd.,45.252075,-66.119757,Saint John
BSTP35370,Manchester Av. & Dever Rd.,45.251973,-66.11981,Saint John
BSTP35371,Manchester Av. & Glenwood Dr.,45.252193,-66.124167,Saint John
BSTP35372,Manchester Av. & Glenwood Dr.,45.252258,-66.123928,Saint John
BSTP35373,Greendale Cr. & Mollins Dr.,45.251281,-66.110732,Saint John
BSTP35374,Greendale Cr. & Mollins Dr.,45.251164,-66.110801,Saint John
BSTP35375,Greendale Cr. & Dever Rd.,45.255619,-66.110414,Saint John
BSTP35376,Greendale Cr. & Dever Rd.,45.255533,-66.11056,Saint John
BSTP35377,Dever Rd. & Green Head Rd.,45.257529,-66.105543,Saint John
BSTP35378,Dever Rd. & Green Head Rd.,45.257416,-66.105461,Saint John
BSTP35379,Grand Bay-Westfield Community Centrum,45.315839,-66.194882,Saint John
BSTP35380,Grand Bay-Westfield Community Centrum,45.315817,-66.195094,Saint John
BSTP35381,River Valley Dr. & Woolastook Dr.,45.308338,-66.194601,Saint John
BSTP35382,River Valley Dr. & Woolastook Dr.,45.308362,-66.194743,Saint John
BSTP35383,Newman St. & Shamrock Ct.,45.277637,-66.084246,Saint John
BSTP35384,Albert St. & Victoria St.,45.27664,-66.084746,Saint John
BSTP35385,Albert St. & Victoria St.,45.276669,-66.084606,Saint John
BSTP35386,Main St. & Cedar St.,45.275218,-66.085256,Saint John
BSTP35387,Across from Robertson Square - Bridge Street,45.27507,-66.088001,Saint John
BSTP35388,Bridge St. & Victoria St.,45.276142,-66.088197,Saint John
BSTP35389,Pokiok Rd. & Bridge St.,45.277715,-66.089494,Saint John
BSTP35390,Belleview Ave. & Pokiok Rd.,45.278104,-66.091429,Saint John
BSTP35391,Belleview Av. & Highland Rd.,45.27888,-66.09095,Saint John
BSTP35392,Spar Cove Rd. & Millidge Avenue,45.283078,-66.087335,Saint John
BSTP35393,St. Joseph's Catholic Church Loch Lomond Rd.,45.334402,-65.883544,Saint John
BSTP35394,"Hampton Rd., across from Sierra Av.",45.399848,-65.977676,Saint John
BSTP35395,Kennebecasis Dr. & Lentook Av.,45.321486,-66.077338,Saint John
BSTP34360,Kilburn Av. & Ellerdale St.,45.291618,-66.035026,Saint John
BSTP35254,McDonald St. & Park Av.,45.288996,-66.029607,Saint John
BSTP35396,Kennebecasis Baptist Church,45.421242,-65.951311,Saint John
BSTP35299,Quispamsis Arts & Culture Park,45.40813,-65.968134,Saint John
BSTP34334,Prince Edward Square,45.275965,-66.0546,Saint John
FR1000,KINGS PLACE,45.96181409,-66.64361753,Fredericton
FR1001,Killarney Lake Lodge,46.01368444,-66.63028713,Fredericton
FR1002,1265 Brookside,46.0122185,-66.63284213,Fredericton
FR1003,Julien,46.0085869,-66.64048813,Fredericton
FR1004,1037 Brookside,46.006691,-66.63753113,Fredericton
FR1005,Brookside & Heron,46.0011024,-66.64241913,Fredericton
FR1006,Brookside & Peters,45.9981613,-66.64503414,Fredericton
FR1007,641 Brookside,45.9970055,-66.64600513,Fredericton
FR1008,8 Terrence,45.9949989,-66.64910314,Fredericton
FR1009,88 Terrence,45.9956703,-66.6506704,Fredericton
FR1010,Terrence & Stairs,45.9965897,-66.65283114,Fredericton
FR1011,49 Stairs,45.9958649,-66.65406514,Fredericton
FR1012,Stairs & Jeremy,45.9953041,-66.65441814,Fredericton
FR1013,Brookside Mall on McKnight,45.9935989,-66.65480014,Fredericton
FR1014,95 McKnight,45.9916687,-66.65610273,Fredericton
FR1015,187 McKnight,45.9917603,-66.65820765,Fredericton
FR1016,235 McKnight,45.9919052,-66.66058514,Fredericton
FR1017,85 Barton Crescent,45.9914513,-66.66358114,Fredericton
FR1018,Royal Road & Barton,45.9915771,-66.66544347,Fredericton
FR1019,57 Royal Road,45.9882317,-66.66485551,Fredericton
FR1020,45 Royal Road,45.987072,-66.66459873,Fredericton
FR1021,14 Hawkins,45.9856873,-66.66267314,Fredericton
FR1022,52 Hawkins,45.9847336,-66.65990895,Fredericton
FR1023,158 Brookside,45.9840546,-66.65692714,Fredericton
FR1024,198 Brookside,45.9856224,-66.65589821,Fredericton
FR1025,204 Brookside,45.9868927,-66.6547882,Fredericton
FR1026,1035 Douglas,45.9885712,-66.65178673,Fredericton
FR1027,101 Regent,45.95959143,-66.64016113,Fredericton
FR1028,917 Douglas,45.9898186,-66.64742451,Fredericton
FR1029,535 Fulton,45.9894447,-66.6466555,Fredericton
FR1030,477 Fulton,45.9881668,-66.64679714,Fredericton
FR1031,Fulton & Hickory,45.9841309,-66.65043701,Fredericton
FR1032,213 Fulton,45.9823723,-66.65153555,Fredericton
FR1033,102 Maple,45.9809418,-66.65139039,Fredericton
FR1034,301 Maple,45.980278,-66.64929647,Fredericton
FR1035,318 Maple,45.9793663,-66.64651612,Fredericton
FR1036,573 Maple,45.978672,-66.64430436,Fredericton
FR1037,589 Maple,45.9779282,-66.64187653,Fredericton
FR1038,601 Maple,45.9772186,-66.63967706,Fredericton
FR1039,Victoria Health Centre,45.9644909,-66.65282567,Fredericton
FR1040,51 Woodstock,45.9646988,-66.65479205,Fredericton
FR1041,101 Woodstock,45.9650688,-66.65819096,Fredericton
FR1042,Delta,45.9642487,-66.66260801,Fredericton
FR1043,293 Woodstock,45.9636688,-66.66551322,Fredericton
FR1044,359  Woodstock,45.96281646,-66.66842779,Fredericton
FR1045,Hilton & Flemming,45.91911387,-66.622561,Fredericton
FR1046,63 Hanwell,45.9611778,-66.66864662,Fredericton
FR1047,Hanwell & Waggoners,45.9594688,-66.66819573,Fredericton
FR1048,Waggoners Across from Canada Post,45.9589348,-66.66606781,Fredericton
FR1049,Waggoners & Rookwood,45.9586487,-66.66291709,Fredericton
FR1050,25 Waggoners,45.9580345,-66.66104498,Fredericton
FR1051,Waggoners & Simpson,45.9574394,-66.65915734,Fredericton
FR1052,575 Smythe,45.9559441,-66.65858554,Fredericton
FR1053,629 Smythe,45.9547806,-66.65957014,Fredericton
FR1054,687 Smythe,45.9537277,-66.66045214,Fredericton
FR1055,795 Smythe,45.9517441,-66.66208162,Fredericton
FR1056,905 Smythe,45.949543,-66.66393048,Fredericton
FR1057,989 Smythe,45.9476204,-66.66553014,Fredericton
FR1058,25  Parkside,45.9460602,-66.66760822,Fredericton
FR1059,129 Parkside,45.9461594,-66.67036654,Fredericton
FR1060,245 Parkside,45.9456291,-66.67287024,Fredericton
FR1062,Prospect & Greenfields,45.9461212,-66.67633477,Fredericton
FR1063,860 Prospect,45.9450798,-66.67598873,Fredericton
FR1064,924 Prospect,45.9441071,-66.673693,Fredericton
FR1065,984 Prospect,45.9429436,-66.67099723,Fredericton
FR1066,1034 Prospect,45.9417458,-66.66829321,Fredericton
FR1070,1120 Prospect,45.9407616,-66.66598163,Fredericton
FR1071,1025 Prospect,45.94195604,-66.66810904,Fredericton
FR1072,967 Prospect,45.943335,-66.671408,Fredericton
FR1073,919 Prospect,45.944371,-66.673774,Fredericton
FR1074,845 Prospect,45.94521152,-66.67577989,Fredericton
FR1075,Prospect & Greenfields,45.94607943,-66.67618514,Fredericton
FR1076,102 Greenfields,45.94674258,-66.67504975,Fredericton
FR1078,240 Parkside,45.94550122,-66.67290151,Fredericton
FR1079,144 Parkside,45.94578672,-66.67082857,Fredericton
FR1080,78 Parkside,45.94608248,-66.66857687,Fredericton
FR1081,1040 Parkside,45.94620756,-66.66643885,Fredericton
FR1082,986 Smythe,45.94767731,-66.66521634,Fredericton
FR1083,916 Smythe,45.94936505,-66.66381632,Fredericton
FR1084,794 Smythe,45.95175748,-66.66186156,Fredericton
FR1085,696 Smythe,45.95357943,-66.66029714,Fredericton
FR1086,634 Smythe,45.95469298,-66.65937162,Fredericton
FR1087,568 Smythe,45.95591156,-66.65836037,Fredericton
FR1088,Superstore on Waggoners,45.95770278,-66.65940612,Fredericton
FR1089,15 Waggoners,45.95823939,-66.6612634,Fredericton
FR1090,249 Waggoners,45.95897043,-66.66344714,Fredericton
FR1091,125 Inglewood,45.95905886,-66.66605013,Fredericton
FR1092,289 Inglewood,45.95933301,-66.66758468,Fredericton
FR1093,352 Parkhurst,45.96153395,-66.66858182,Fredericton
FR1094,276 Parkhurst,45.96288094,-66.66790535,Fredericton
FR1095,214 Parkhurst,45.96359488,-66.66516682,Fredericton
FR1096,Wilmot Apartments,45.964106,-66.66265008,Fredericton
FR1097,50 Saunders,45.96486396,-66.65747352,Fredericton
FR1098,284 Smythe,45.96435558,-66.65296805,Fredericton
FR1100,139 Northumberland,45.96330355,-66.64891302,Fredericton
FR1101,371 Queen,45.963388,-66.643868,Fredericton
FR1102,600 Maple,45.97742482,-66.63982097,Fredericton
FR1103,590 Maple,45.97801526,-66.64166779,Fredericton
FR1104,420 Maple,45.97867258,-66.64377421,Fredericton
FR1105,318 Maple,45.97949422,-66.64635863,Fredericton
FR1106,306 Maple,45.98008144,-66.64821814,Fredericton
FR1110,214 Fulton,45.98264938,-66.6512424,Fredericton
FR1111,228 Fulton,45.98405421,-66.65030483,Fredericton
FR1112,Nashwaaksis Middle School,45.98591478,-66.64866091,Fredericton
FR1113,480 Fulton,45.988043,-66.64667114,Fredericton
FR1114,544 Fulton,45.98965424,-66.64654931,Fredericton
FR1115,962 Douglas,45.98949204,-66.64929067,Fredericton
FR1116,1050 Douglas,45.98875944,-66.65174414,Fredericton
FR1117,247 Brookside,45.98803119,-66.65395355,Fredericton
FR1118,217 Brookside,45.98686744,-66.65497314,Fredericton
FR1119,Brookside & Westview,45.98585159,-66.65587572,Fredericton
FR1120,157 Brookside,45.98424672,-66.65697628,Fredericton
FR1121,55 Hawkins,45.98386965,-66.65812003,Fredericton
FR1122,33 Hawkins,45.98471917,-66.65954257,Fredericton
FR1123,14 Hawkins,45.98528698,-66.66102678,Fredericton
FR1124,50 Royal,45.98699212,-66.66438572,Fredericton
FR1125,60 Royal,45.98816102,-66.66460992,Fredericton
FR1126,34 Barton Crescent,45.9915832,-66.6646291,Fredericton
FR1127,82 Barton Crescent,45.99097222,-66.66232706,Fredericton
FR1128,232 McKnight,45.9917565,-66.66057962,Fredericton
FR1129,120 McKnight,45.99159513,-66.65583641,Fredericton
FR1130,Brookside Mall on McKnight,45.99355642,-66.65462012,Fredericton
FR1131,Brookside & Reynolds,45.99489757,-66.65435455,Fredericton
FR1132,64 Stairs,45.99610611,-66.65360597,Fredericton
FR1133,Terrence & Ferguson,45.99648064,-66.65293724,Fredericton
FR1134,92 Terrence,45.99563496,-66.6509923,Fredericton
FR1135,Brookside & Terrence,45.99484421,-66.64918143,Fredericton
FR1136,Brookside & Summerhill,45.99736596,-66.64543104,Fredericton
FR1137,700 Brookside,45.99858886,-66.64439248,Fredericton
FR1138,Brookside & Heron,46.00162819,-66.64170551,Fredericton
FR1139,Brookside & Jacob,46.00702156,-66.63703515,Fredericton
FR1140,1180 Brookside,46.00992044,-66.63453713,Fredericton
FR1141,1260 Brookside,46.01208836,-66.63267278,Fredericton
FR1142,66 Hawkins,45.9839363,-66.65842114,Fredericton
FR1143,302 Brookside,45.9881592,-66.65360814,Fredericton
FR1144,341 Fulton,45.9860992,-66.64868678,Fredericton
FR1145,175 King,45.9641075,-66.64926806,Fredericton
FR1146,700 Forest Hill,45.93409032,-66.63103963,Fredericton
FR1200,333 Cliffe,45.97482757,-66.62691902,Fredericton
FR1201,548 York,45.953728,-66.651021,Fredericton
FR1202,Cliffe / Fieldstone,45.97581979,-66.62355445,Fredericton
FR1203,Gibson and Union,45.96159214,-66.62511473,Fredericton
FR1204,189 University,45.95562713,-66.63409155,Fredericton
FR1205,221 University,45.95492008,-66.63469934,Fredericton
FR1206,Priestman/College Hill,45.93893178,-66.65108303,Fredericton
FR1600,67 Dineen,45.94476392,-66.64483866,Fredericton
FR1601,45 MacKay,45.94517033,-66.63912371,Fredericton
FR1603,614 MacLaren,45.97118161,-66.62701055,Fredericton
FR2001,Carlisle,45.97839239,-66.73218051,Fredericton
FR2003,Clements & Diamond,45.97818843,-66.7273393,Fredericton
FR2004,705 Clements,45.97761187,-66.71902551,Fredericton
FR2005,Clements & Grasse,45.97803471,-66.70802081,Fredericton
FR2006,Clements & Jasper,45.97823904,-66.70508664,Fredericton
FR2007,Clements & Ruby,45.97848867,-66.70116889,Fredericton
FR2008,18 Sunset,45.97871809,-66.69816297,Fredericton
FR2009,28 Sunset,45.97850479,-66.69612468,Fredericton
FR2010,Sunset & Currie,45.97874077,-66.69295712,Fredericton
FR2011,80 Sunset,45.97844928,-66.69062932,Fredericton
FR2012,96 Sunset,45.97801655,-66.68746583,Fredericton
FR2013,120 Sunset,45.97761723,-66.68379432,Fredericton
FR2014,152 Sunset,45.97762261,-66.68202757,Fredericton
FR2015,178 Sunset,45.97759406,-66.6790131,Fredericton
FR2016,206 Sunset,45.9782489,-66.67618374,Fredericton
FR2017,Clements/Diamond,45.97793848,-66.72279802,Fredericton
FR2018,Sunset & Clearview,45.9801913,-66.67307446,Fredericton
FR2019,270 Sunset,45.98112335,-66.67140497,Fredericton
FR2020,310 Sunset,45.9827691,-66.6681602,Fredericton
FR2021,380 Sunset,45.98310838,-66.66723799,Fredericton
FR2022,Sunset & Stone Bridge,45.98391039,-66.66518592,Fredericton
FR2023,30 Main,45.98373691,-66.66345717,Fredericton
FR2024,46 Main,45.98190207,-66.66175179,Fredericton
FR2025,Main & Johnston,45.98044223,-66.6589282,Fredericton
FR2027,154 Main,45.97855031,-66.65429757,Fredericton
FR2028,180 Main,45.97775026,-66.65247016,Fredericton
FR2029,218 Main,45.97685145,-66.65040633,Fredericton
FR2030,Main & Alder,45.97503902,-66.64540738,Fredericton
FR2031,Main & Douglas,45.97408826,-66.6423707,Fredericton
FR2033,364 Union,45.97283528,-66.63851577,Fredericton
FR2034,418 Union,45.97187911,-66.63644941,Fredericton
FR2035,114 St Mary's,45.97197806,-66.63478585,Fredericton
FR2036,St Mary's & Highland,45.97477126,-66.63402762,Fredericton
FR2037,St Marys/ Maple,45.97614171,-66.63571613,Fredericton
FR2039,Clements/McGregor,45.97775716,-66.72133889,Fredericton
FR2040,631 Clements,45.97775567,-66.71553703,Fredericton
FR2041,King & St John,45.95956516,-66.63825878,Fredericton
FR2042,24 Waterloo,45.95580477,-66.63315365,Fredericton
FR2043,82 Waterloo,45.95379226,-66.63266075,Fredericton
FR2044,126 Waterloo,45.95262924,-66.63267646,Fredericton
FR2046,284 Waterloo,45.94835241,-66.63398296,Fredericton
FR2048,463 Waterloo,45.94727185,-66.63460932,Fredericton
FR2047,Waterloo & Acacia,45.94485068,-66.6344014,Fredericton
FR2049,567 Waterloo,45.94356208,-66.63328425,Fredericton
FR2050,Dunns Crossing & Boyne,45.93685631,-66.62909529,Fredericton
FR2051,80 Biggs,45.93394649,-66.62844205,Fredericton
FR2052,190 Biggs,45.93251515,-66.62787039,Fredericton
FR2053,826 Forest Hill,45.9319308,-66.62868843,Fredericton
FR2054,Clements/Gardiner,45.97793783,-66.71002808,Fredericton
FR2056,518 Forest Hill,45.9359496,-66.63319045,Fredericton
FR2057,334 Forest Hill,45.93837988,-66.63442962,Fredericton
FR2058,155 Forest Hill,45.94098967,-66.63390319,Fredericton
FR2059,9 Forest Hill,45.94690735,-66.63656596,Fredericton
FR2060,Head Hall on Beaverbrook,45.9514289,-66.64209133,Fredericton
FR2061,525 Tweedsmuir,45.95164308,-66.64389103,Fredericton
FR2062,270 Main Street,45.97607421,-66.64861533,Fredericton
FR2063,581 Windsor,45.94957574,-66.64330686,Fredericton
FR2064,711 Windsor,45.94771539,-66.64478189,Fredericton
FR2065,King/Church,45.95832352,-66.63530436,Fredericton
FR2066,Windsor & Fenety,45.94498165,-66.64714705,Fredericton
FR2067,769 Windsor,45.94362924,-66.64830715,Fredericton
FR2068,890 Montgomery,45.94430798,-66.65083241,Fredericton
FR2069,696 Regent,45.94341165,-66.65419044,Fredericton
FR2070,Medical Complex,45.9422604,-66.65517435,Fredericton
FR2071,Hospital,45.93981462,-66.65729075,Fredericton
FR2072,1213 Regent,45.9375328,-66.65931777,Fredericton
FR2073,Fredericton Motor Inn,45.935856,-66.660629,Fredericton
FR2074,Regent Mall,45.9352608,-66.66288475,Fredericton
FR2075,City Motel,45.93738874,-66.65900494,Fredericton
FR2076,Regent/ Priestman,45.93903696,-66.65768875,Fredericton
FR2077,711 Waterloo,45.94170858,-66.63224382,Fredericton
