stop_id,stop_name,stop_lat,stop_lon,muni
3734,Primrose / Lenore,52.172675,-106.63285,Saskatoon
4022,Heritage / McKercher,52.104141,-106.587697,Saskatoon
4023,Richardson / Lehrer,52.152466,-106.697736,Saskatoon
4020,Preston / Circle Drive Alliance,52.08689,-106.622418,Saskatoon
4021,Richardson / 37th Street,52.150729,-106.696677,Saskatoon
4028,Arthur Rose / Day,52.200773,-106.630835,Saskatoon
4029,Arthur Rose / Beavis,52.198936,-106.630821,Saskatoon
3999,60th Street / Miners,52.187524,-106.655869,Saskatoon
3998,Assiniboine / Sturgeon Crescent,52.163646,-106.626625,Saskatoon
3997,Assiniboine / Nahanni,52.163813,-106.625929,Saskatoon
3996,Assiniboine / Nahanni,52.163837,-106.623491,Saskatoon
3994,Fairmont / 300-Block,52.122962,-106.721627,Saskatoon
3993,Preston Crossing,52.14869,-106.619764,Saskatoon
3992,Preston / Preston Crossing,52.148997,-106.617238,Saskatoon
3991,Canadian Light Source OB,52.138316,-106.631328,Saskatoon
3990,Canadian Light Source,52.138285,-106.631841,Saskatoon
5854,Meilicke / Stechishin,52.180132,-106.623922,Saskatoon
5855,Louise / Preston,52.10033,-106.62319,Saskatoon
5856,Ruth / Cantlon,52.100315,-106.633762,Saskatoon
5857,Ruth / Ewart,52.10032,-106.637495,Saskatoon
5851,Temperance / Colony,52.123815,-106.650217,Saskatoon
5852,Pinehouse / La Ronge Road,52.168615,-106.626792,Saskatoon
5853,Meilicke / Silverwood,52.180139,-106.619894,Saskatoon
5858,Ruth / Blain,52.100154,-106.632252,Saskatoon
5859,Ruth / Melrose,52.100283,-106.665388,Saskatoon
3773,Osborne / 9th Avenue,52.145904,-106.650022,Saskatoon
3772,Osborne / Edward,52.145909,-106.646864,Saskatoon
3771,Osborne / Edward Avenue,52.145789,-106.646677,Saskatoon
3777,Osborne / 10th Avenue,52.145779,-106.647942,Saskatoon
3776,Osborne / 7th,52.145909,-106.651848,Saskatoon
3775,Osborne / 7th Avenue,52.145801,-106.651595,Saskatoon
3774,Osborne / 8th Avenue,52.145789,-106.650045,Saskatoon
3778,Osborne / 10th,52.145896,-106.648163,Saskatoon
5825,2400 Eastview / 2700 Eastview,52.091895,-106.616793,Saskatoon
4148,Clarence / Main,52.117012,-106.646385,Saskatoon
4145,Clarence / Isabella,52.105051,-106.64664,Saskatoon
4144,Clarence / Hilliard,52.103845,-106.646383,Saskatoon
3513,Wilson / Broadway,52.095065,-106.655475,Saskatoon
3512,Wilson / Cascade,52.096535,-106.660313,Saskatoon
3511,Wilson / Clare,52.095564,-106.651438,Saskatoon
3510,Wilson / Cumberland,52.093476,-106.634503,Saskatoon
3514,Wilson / McAskill,52.095225,-106.647712,Saskatoon
5404,45th Street / Avenue C,52.163958,-106.675342,Saskatoon
3202,2nd Avenue / 26th Street,52.135048,-106.661008,Saskatoon
3201,2nd / 26th Street,52.135468,-106.660432,Saskatoon
3200,2nd Avenue / 25th Street,52.133169,-106.661919,Saskatoon
3209,2nd Avenue / Queen,52.136271,-106.660429,Saskatoon
5458,Laurentian / Boychuk,52.12052,-106.574683,Saskatoon
5459,Laurentian / Guelph,52.119016,-106.571454,Saskatoon
3348,8th Street / Moss,52.114582,-106.592884,Saskatoon
3349,8th Street / Munroe,52.114625,-106.640758,Saskatoon
3342,8th Street / Louise,52.114949,-106.631325,Saskatoon
3343,8th Street / McKercher,52.114861,-106.588098,Saskatoon
3340,8th Street / Lansdowne,52.114762,-106.651717,Saskatoon
5453,Broadway / Cascade,52.097099,-106.656617,Saskatoon
3346,Millar / 70th Street,52.199871,-106.646689,Saskatoon
3347,Millar / 68th Street,52.198247,-106.646665,Saskatoon
5456,Ruth / Vernon,52.100141,-106.669451,Saskatoon
3345,8th Street / McPherson,52.114482,-106.667489,Saskatoon
4251,Fairmont / Forrester,52.124818,-106.722206,Saskatoon
4253,Nelson / McOrmond,52.150165,-106.566806,Saskatoon
4255,Stensrud / Zimmer,52.155504,-106.561554,Saskatoon
4254,Konihowski / Bourgonje,52.167399,-106.589029,Saskatoon
5533,East Hampton / McClocklin,52.154131,-106.703407,Saskatoon
5532,Galloway / Lynd,52.081783,-106.635438,Saskatoon
5531,Galloway / McIntosh,52.079545,-106.63277,Saskatoon
5537,East Hampton / Coad Manor,52.155382,-106.710102,Saskatoon
5535,East Hampton / Denham,52.155136,-106.706199,Saskatoon
5538,McClocklin / Hampton Gate,52.15162,-106.718331,Saskatoon
4388,Briarwood / Briargate,52.110899,-106.565731,Saskatoon
5627,45th Street / Wheaton,52.163796,-106.675787,Saskatoon
4382,51st Street / Miners,52.17314,-106.657665,Saskatoon
4381,Faithfull / 51st Street,52.171946,-106.665036,Saskatoon
4380,Miners / 2900-Block,52.175692,-106.657293,Saskatoon
4387,Briargate / Braeside,52.113389,-106.565885,Saskatoon
4386,Avenue C / 39th Street,52.153413,-106.673083,Saskatoon
4385,George / Ward,52.149557,-106.720938,Saskatoon
4384,George /Makaroff,52.14696,-106.723353,Saskatoon
3835,McCormack / Sherry,52.120387,-106.744018,Saskatoon
3830,McEown / Adelaide,52.101959,-106.617937,Saskatoon
3838,McCormack / Postnikoff,52.126451,-106.737299,Saskatoon
3839,McCormack / Parr,52.119653,-106.755774,Saskatoon
4031,Boychuk / Laval,52.123139,-106.576,Saskatoon
4030,Boychuk / DeGeer,52.117922,-106.575223,Saskatoon
4033,Boychuk / McKercher,52.123388,-106.58541,Saskatoon
4032,Taylor / Louise,52.107264,-106.630471,Saskatoon
4035,Boychuk / Waterloo,52.12313,-106.57981,Saskatoon
4037,8th Street / Boychuk,52.11461,-106.575834,Saskatoon
4036,Preston / Willis,52.086747,-106.622814,Saskatoon
4039,Briarvale / Briarwood,52.109458,-106.56899,Saskatoon
5665,Gordon / Laycock,52.083162,-106.628709,Saskatoon
5664,Hart Road / Betts,52.125369,-106.75833,Saskatoon
5669,Stonebridge Common / Gordon,52.083263,-106.62434,Saskatoon
5668,Gordon / Stepney,52.084056,-106.633046,Saskatoon
5847,Pinehouse / Primrose,52.169735,-106.633578,Saskatoon
5846,LaRonge / Saguenay,52.166347,-106.617841,Saskatoon
5845,Taylor / Acadia,52.104411,-106.598109,Saskatoon
5844,Airport Station,52.169414,-106.690418,Saskatoon
5843,Avenue H / 29th Street,52.136806,-106.681413,Saskatoon
5840,Airport / 2100 Block,52.157979,-106.687462,Saskatoon
5848,LaRonge / Nahanni,52.166213,-106.622425,Saskatoon
3748,Centennial / Childers,52.132392,-106.755515,Saskatoon
3749,Kensington / Centennial,52.133553,-106.758868,Saskatoon
3746,Preston / 14th Street,52.122512,-106.622512,Saskatoon
3747,Preston / 14th Street,52.121362,-106.622829,Saskatoon
3744,Preston / Adelaide,52.103018,-106.622535,Saskatoon
3745,Dieppe / Simonds,52.108384,-106.739847,Saskatoon
3743,Preston Avenue / Louise,52.100729,-106.622514,Saskatoon
3740,Preston / Walter Murray,52.105705,-106.622479,Saskatoon
3690,Richardson / Avenue W,52.146949,-106.705374,Saskatoon
3691,Richardson / Hnatyshyn,52.146956,-106.703001,Saskatoon
3692,Richardson / Davidson,52.147843,-106.699693,Saskatoon
3694,Rever / Konihowski,52.155154,-106.592851,Saskatoon
3695,Rever / Haslam,52.152294,-106.592885,Saskatoon
3696,Rever / Fairbrother,52.152795,-106.592607,Saskatoon
3697,Quebec / 39th Street,52.152903,-106.6635,Saskatoon
3526,Confederation / 33rd Street,52.143261,-106.726147,Saskatoon
3527,Dundonald School,52.145533,-106.726586,Saskatoon
3524,Wedge / Nesbitt,52.146299,-106.735736,Saskatoon
3525,Wedge / Hunt,52.146316,-106.730922,Saskatoon
3522,Faithfull / 48th Street,52.167717,-106.665004,Saskatoon
3523,2nd / Duke Street,52.141242,-106.65821,Saskatoon
3520,Faithfull / 47th Street,52.165212,-106.664991,Saskatoon
3528,Waterbury / Nesslin,52.096533,-106.580618,Saskatoon
3529,Waterbury / Kingsmere,52.093551,-106.583287,Saskatoon
3232,33rd Street / Avenue L,52.143921,-106.687428,Saskatoon
3233,33rd Street / Avenue P,52.143944,-106.694619,Saskatoon
3230,33rd Street / Avenue J,52.143783,-106.683978,Saskatoon
3231,33rd Street / Avenue K,52.143778,-106.685476,Saskatoon
3236,37th Street / Junor,52.150855,-106.717068,Saskatoon
3237,33rd Street / Edmonton,52.143973,-106.697437,Saskatoon
3234,33rd Street / Avenue P,52.14378,-106.693604,Saskatoon
3235,33rd Street / Avenue W,52.143785,-106.705268,Saskatoon
3238,33rd Street / Edmonton,52.143756,-106.6984,Saskatoon
3239,33rd Street / Faulkner,52.143771,-106.688438,Saskatoon
3355,8th Street / Sommerfeld,52.114952,-106.628567,Saskatoon
3354,8th Street / Sommerfeld,52.114631,-106.62746,Saskatoon
3357,8th Street / Victoria,52.114511,-106.661787,Saskatoon
3356,Herman / Isabella,52.10511,-106.677379,Saskatoon
3351,8th Street / Preston,52.114641,-106.621292,Saskatoon
3350,8th Street / Munroe,52.114883,-106.641829,Saskatoon
3353,Preston / 8th Street,52.115285,-106.622536,Saskatoon
3352,8th Street / Preston,52.114959,-106.623328,Saskatoon
3359,8th Street / Wiggins,52.11463,-106.637893,Saskatoon
3358,8th Street / Victoria,52.114754,-106.662828,Saskatoon
5449,Pendygrasse / Diggle,52.120007,-106.736285,Saskatoon
5618,Briarwood / Beechmont,52.110905,-106.559865,Saskatoon
5619,Briarwood / Bayfield,52.111001,-106.562453,Saskatoon
5612,Arlington / Welker,52.109313,-106.608706,Saskatoon
5613,Briarwood / Boychuk,52.104884,-106.572545,Saskatoon
5616,Briarwood / Beechdale,52.10731,-106.559215,Saskatoon
5617,Briarwood / Beechmont,52.109036,-106.557822,Saskatoon
5614,Briarwood / Briarvale,52.105033,-106.566976,Saskatoon
5615,Briarwood / Beechdale,52.105749,-106.563172,Saskatoon
3323,8th Street / Arlington,52.114652,-106.609966,Saskatoon
3324,8th Street / Broadway,52.11475,-106.657461,Saskatoon
5714,Edmonton / 1800 Block,52.144394,-106.698399,Saskatoon
3823,McKercher / Heritage,52.104657,-106.588086,Saskatoon
3822,McKercher / Mount Allison,52.120638,-106.586793,Saskatoon
3820,McKercher / Stillwater,52.099522,-106.591799,Saskatoon
3829,Louise / 2500-Block,52.100336,-106.617641,Saskatoon
3828,McEown / Porter,52.104674,-106.616198,Saskatoon
4282,37th Street / Nixon,52.150717,-106.721545,Saskatoon
4283,Junor / Carrothers,52.144773,-106.717971,Saskatoon
4281,Kristjanson / Garvie,52.159,-106.597459,Saskatoon
4287,20th Street / 1st Avenue,52.125854,-106.667418,Saskatoon
4284,Junor / Ward,52.14887,-106.717962,Saskatoon
4289,Muzyka / Bennion,52.141019,-106.556966,Saskatoon
5872,Kenderdine / Rogers,52.140201,-106.575005,Saskatoon
5873,St. Joseph High School,52.147043,-106.582977,Saskatoon
5876,22nd Street / Avenue H,52.129379,-106.681978,Saskatoon
5877,McKercher / Holland,52.10796,-106.58721,Saskatoon
5874,Preston / Cornish,52.085175,-106.622826,Saskatoon
5875,McKercher / Parkdale,52.110949,-106.587206,Saskatoon
5878,Heritage / Heritage,52.103392,-106.582014,Saskatoon
5879,Heritage / Heritage View,52.104529,-106.577769,Saskatoon
3759,Pendygrasse / Terra Rosa,52.119265,-106.725798,Saskatoon
3758,500 Block Pendygrasse,52.119596,-106.732025,Saskatoon
3750,Diefenbaker / Childers,52.136858,-106.754518,Saskatoon
3752,Pinehouse / Saguenay,52.167873,-106.617932,Saskatoon
3755,Pinehouse / La Ronge,52.168876,-106.627812,Saskatoon
3754,Pinehouse / Primrose Drive,52.169568,-106.633706,Saskatoon
3757,Pendygrasse / 400-Block,52.119503,-106.730003,Saskatoon
3756,Pendygrasse / Henigman,52.119675,-106.72979,Saskatoon
3689,Richardson / 37th Street,52.150242,-106.696933,Saskatoon
3688,Ruth  / Broadway Avenue,52.10031,-106.657596,Saskatoon
3683,Quebec / 36th Street,52.147964,-106.663477,Saskatoon
3686,Kingsmere / Brightsand,52.09306,-106.583416,Saskatoon
3685,Richardson / Cole,52.148282,-106.699206,Saskatoon
3531,Warman / Assiniboine Drive,52.161317,-106.646085,Saskatoon
3530,Waterbury / Emmeline,52.095097,-106.580881,Saskatoon
3533,Wardlow / Appleby,52.121455,-106.711645,Saskatoon
3532,Warman / Assiniboine,52.161573,-106.645523,Saskatoon
3537,Richardson / Junor,52.147232,-106.717007,Saskatoon
3538,Circle / Venture Crescent,52.157827,-106.650644,Saskatoon
3229,33rd Street / Avenue J,52.14395,-106.68392,Saskatoon
3228,33rd Street / Avenue I,52.143781,-106.68237,Saskatoon
3225,33rd Street / Avenue H,52.143931,-106.680981,Saskatoon
3224,33rd Street / Avenue F,52.143937,-106.677969,Saskatoon
3226,33rd Street / Avenue H,52.143779,-106.680992,Saskatoon
3221,33rd Street / Avenue D,52.143794,-106.674212,Saskatoon
3220,Kilburn / 5th Street,52.111535,-106.673632,Saskatoon
3223,33rd Street / Avenue F,52.143807,-106.6779,Saskatoon
3222,33rd / Avenue D,52.143911,-106.674298,Saskatoon
5476,Cornish / Willis Crescent,52.086366,-106.633876,Saskatoon
3321,8th Street / Albert,52.114499,-106.648074,Saskatoon
5475,Cornish / Willis Way,52.086437,-106.629106,Saskatoon
5472,Preston / Dumont,52.090865,-106.6225,Saskatoon
5473,Preston / East,52.097095,-106.622494,Saskatoon
3327,8th Street / Clarence,52.114785,-106.64741,Saskatoon
3328,8th Street / Cumberland,52.11464,-106.634437,Saskatoon
3329,8th Street / Cumberland,52.114957,-106.63492,Saskatoon
5519,Preston / Arlington,52.094458,-106.622504,Saskatoon
5518,Clarence / 7th Street,52.114216,-106.64635,Saskatoon
5517,McClocklin / West Hampton,52.151508,-106.730038,Saskatoon
3038,11th Street / Avenue W,52.114646,-106.702594,Saskatoon
3034,11th Street / Avenue R,52.114624,-106.696565,Saskatoon
3036,11th Street / Avenue T,52.114641,-106.699164,Saskatoon
3031,Avenue P / 11th Street,52.11442,-106.694231,Saskatoon
5605,115th Street / Kenderdine,52.143861,-106.576102,Saskatoon
5604,Kenderdine / 2420 Kenderdine,52.143859,-106.572436,Saskatoon
5607,Wilson / 1800-Block,52.093473,-106.626273,Saskatoon
5606,Wilson / Deborah,52.093315,-106.626416,Saskatoon
5601,Kenderdine / Steiger,52.140393,-106.564028,Saskatoon
5603,Kenderdine / Vincent,52.142503,-106.566801,Saskatoon
5602,Kochar / Sarcan,52.195767,-106.639972,Saskatoon
5608,Idylwyld / 30th Street,52.138304,-106.670404,Saskatoon
3812,Millar / 51st Street,52.173832,-106.646342,Saskatoon
3813,McWillie / Konihowski,52.155674,-106.596473,Saskatoon
3810,Faithfull / 50th Street,52.170284,-106.664999,Saskatoon
3811,Millar / English,52.180439,-106.646351,Saskatoon
3817,McKercher / Taylor,52.10239,-106.589343,Saskatoon
3814,Taylor / Louise,52.107429,-106.631534,Saskatoon
3818,McKercher / Taylor,52.101505,-106.590262,Saskatoon
3819,McKercher / Tait,52.109522,-106.586784,Saskatoon
4298,Heritage / Heritage View,52.104754,-106.578374,Saskatoon
4295,Heritage / Heritage Lane,52.102085,-106.58666,Saskatoon
4294,Heritage / 1500-Block,52.103538,-106.581775,Saskatoon
4296,Keedwell / Muzyka,52.143894,-106.552582,Saskatoon
4291,Muzyka / Kershaw Park,52.141804,-106.550137,Saskatoon
4290,Muzyka / Padget,52.138988,-106.552823,Saskatoon
4293,Rupert / Hazen,52.153243,-106.646893,Saskatoon
4292,Hazen / Rupert,52.153173,-106.64743,Saskatoon
5869,Centennial Collegiate,52.149949,-106.578485,Saskatoon
5868,Nelson / Lowe,52.149583,-106.575636,Saskatoon
5864,Lancaster / Ortona,52.111444,-106.725164,Saskatoon
5867,Stensrud / Paton,52.154083,-106.557479,Saskatoon
5866,51st Street / Wentz,52.172869,-106.65528,Saskatoon
5863,Lowe / Attridge,52.145118,-106.575212,Saskatoon
5862,Fairlight / McCormack,52.125544,-106.733719,Saskatoon
5766,33rd Street / Catherwood,52.143943,-106.714699,Saskatoon
4203,Diefenbaker / Lisgar,52.136827,-106.746738,Saskatoon
4200,Diefenbaker / Centennial,52.134066,-106.729517,Saskatoon
5761,Wellington / Avenue M,52.109031,-106.68998,Saskatoon
3787,Innovation / Lot H,52.135157,-106.633444,Saskatoon
3789,Nemeiben / Smoothstone,52.098557,-106.582001,Saskatoon
3258,37th Street / Sumner,52.150723,-106.726463,Saskatoon
3259,37th Street / Cole,52.150519,-106.699343,Saskatoon
3250,36th Street / Avenue I,52.148496,-106.681635,Saskatoon
3252,36th Street - Avenue C,52.148561,-106.673651,Saskatoon
3253,36th Street / Avenue E,52.148558,-106.676567,Saskatoon
3254,36th Street / Idylwyld,52.148557,-106.670916,Saskatoon
3255,37th Street / Heggie,52.15069,-106.735001,Saskatoon
3256,37th Street / Hunt,52.150696,-106.729834,Saskatoon
3257,37th Street / Latrace,52.150685,-106.738408,Saskatoon
3333,8th Street / Eastlake,52.114514,-106.659082,Saskatoon
3332,8th Street / Eastlake,52.114754,-106.65998,Saskatoon
3331,8th Street / Dufferin,52.114741,-106.654452,Saskatoon
3330,8th Street / Dufferin,52.114506,-106.653584,Saskatoon
3337,8th Street / Ewart,52.114917,-106.636641,Saskatoon
3335,8th Street / Emerson,52.114939,-106.617313,Saskatoon
3334,8th Street / Emerson,52.114666,-106.616135,Saskatoon
5469,Preston / Dumont,52.090895,-106.622929,Saskatoon
5468,Preston / Wilson,52.092913,-106.622924,Saskatoon
3339,8th Street / Lansdowne,52.114502,-106.650822,Saskatoon
3338,8th Street / Grosvenor,52.114958,-106.626615,Saskatoon
3029,Lorne / Exhibition Grounds,52.099676,-106.670534,Saskatoon
3028,Lorne / Adelaide,52.101698,-106.670514,Saskatoon
3027,Lorne / Hilliard,52.103372,-106.670551,Saskatoon
3026,Lorne / Isabella,52.105038,-106.670508,Saskatoon
3024,Lorne / Taylor,52.107138,-106.670474,Saskatoon
3023,115th Street / Berini,52.143881,-106.58308,Saskatoon
3022,115th Street / Vickies,52.143928,-106.594801,Saskatoon
3021,115th Street / Prairie,52.143764,-106.594818,Saskatoon
3020,115th Street / Spruce,52.143923,-106.591893,Saskatoon
4198,McKercher / DeGeer,52.118493,-106.586791,Saskatoon
4199,DeGeer / DeGeer,52.118315,-106.579905,Saskatoon
4196,Degeer / Boychuk,52.118311,-106.575531,Saskatoon
4197,DeGeer / DeGeer,52.118308,-106.583748,Saskatoon
4194,Konihowski / Le May,52.167256,-106.588879,Saskatoon
4195,Konihowski / Bourgonje,52.169362,-106.586725,Saskatoon
4192,Cumberland / Temperance,52.125638,-106.634803,Saskatoon
4193,Cumberland / Temperance,52.126156,-106.634574,Saskatoon
4190,Cumberland / Main,52.116452,-106.634792,Saskatoon
4191,Cumberland / Main,52.117034,-106.634546,Saskatoon
4358,Central / 116th Street,52.14593,-106.598815,Saskatoon
5675,Galloway / LeValley,52.079068,-106.62781,Saskatoon
5676,Clarence / Wilson,52.095002,-106.646604,Saskatoon
5677,Clarence / Cascade,52.097591,-106.646379,Saskatoon
4354,37th / Nixon,52.150875,-106.722445,Saskatoon
5679,Clarence / Glasgow,52.092881,-106.646344,Saskatoon
4357,Lorne / WDM entrance,52.096349,-106.670525,Saskatoon
4352,115th St / Dunlop,52.143765,-106.591551,Saskatoon
3313,Arlington / 7th Street,52.112777,-106.60922,Saskatoon
3809,60th Street / Millar,52.187514,-106.647015,Saskatoon
3808,Millar / Molaro,52.177866,-106.646354,Saskatoon
3805,Miners / 3000-Block,52.177416,-106.657736,Saskatoon
3804,51st Street / Faithfull,52.172844,-106.664014,Saskatoon
3807,25th Street / Ontario,52.133928,-106.666453,Saskatoon
3806,Wilson / Cumberland,52.093316,-106.634492,Saskatoon
3801,Miners / 58th Street,52.183553,-106.657793,Saskatoon
3800,Mountbatten / Crerar,52.108237,-106.7294,Saskatoon
3803,Miners / 56th Street,52.179829,-106.657794,Saskatoon
3802,51st Street / Cleveland,52.172848,-106.650022,Saskatoon
5709,Baltzan / Boykowich,52.164158,-106.56203,Saskatoon
5705,Baltzan Boulevard / Boykowich,52.166952,-106.555167,Saskatoon
5707,Baltzan Boulevard / Akhtar,52.164562,-106.556078,Saskatoon
5700,36th Street / Idylwyld,52.148451,-106.669436,Saskatoon
5703,Kensington / Diefenbaker,52.136862,-106.759892,Saskatoon
4174,Superstore,52.132195,-106.723969,Saskatoon
4175,Confederation / Massey,52.139929,-106.726156,Saskatoon
4176,Confederation / Massey,52.139198,-106.726543,Saskatoon
4177,Confederation / Milton,52.136371,-106.725859,Saskatoon
4172,8th Street / Arlington,52.114925,-106.61142,Saskatoon
4178,Confederation / Confederation,52.135421,-106.725866,Saskatoon
4179,Confederation / Laurier,52.133824,-106.724649,Saskatoon
5818,Arlington / 2300 Easthill,52.095001,-106.611545,Saskatoon
5819,Arlington / 1700 East Heights,52.09742,-106.609721,Saskatoon
5810,Wilson / MacDermid,52.094716,-106.64195,Saskatoon
5811,Wilson / MacLean,52.093794,-106.63849,Saskatoon
5812,Wilson / Riel,52.093331,-106.629305,Saskatoon
5813,Wilson / Preston,52.093319,-106.623188,Saskatoon
5814,Arlington / Preston,52.094109,-106.621641,Saskatoon
5815,Arlington / 2700 Eastview,52.094107,-106.617848,Saskatoon
5816,2400 Eastview / 2500 Eastview,52.091977,-106.612871,Saskatoon
5817,2300 Easthill / 2000 Easthill,52.093706,-106.610664,Saskatoon
Lawson,Lawson Hub,52.168402,-106.638461,Saskatoon
4500,SaskTel Centre,52.189718,-106.679793,Saskatoon
5450,Forrester / Peeling,52.121653,-106.734767,Saskatoon
5452,Pawlychenko / Slimmon,52.100593,-106.559367,Saskatoon
3341,8th Street / Louise,52.114642,-106.630396,Saskatoon
5454,Arlington / Louise,52.10038,-106.6101,Saskatoon
3344,8th Street / McPherson,52.114756,-106.668153,Saskatoon
3799,Mountbatten / Haida,52.107898,-106.735276,Saskatoon
3798,Mountbatten / Lancaster,52.108745,-106.724609,Saskatoon
3795,Moss / Elim Lodge,52.113168,-106.593752,Saskatoon
3794,Moss / Parkdale,52.111669,-106.593754,Saskatoon
3796,Moss / 8th Street,52.113662,-106.59404,Saskatoon
3790,Nemeiben / Emmeline,52.098536,-106.573161,Saskatoon
3793,Circle / Venture,52.157855,-106.653821,Saskatoon
5380,Quebec / 33rd Street,52.144309,-106.663235,Saskatoon
5381,Quebec / 36th,52.148735,-106.663234,Saskatoon
5382,Quebec / 40th Street,52.154322,-106.663497,Saskatoon
5383,Fletcher / Schuyler,52.111459,-106.703492,Saskatoon
5384,Dudley / McLeod,52.11118,-106.712244,Saskatoon
5387,Kingsmere / Wollaston,52.093431,-106.588155,Saskatoon
5388,Dudley / Schuyler,52.112524,-106.710072,Saskatoon
5389,Dudley / McLeod,52.110512,-106.7124,Saskatoon
3249,36th Street / Avenue G,52.148457,-106.678687,Saskatoon
3248,36th Street / Avenue G,52.148582,-106.679514,Saskatoon
3243,Slimmon / Slimmon Place,52.099117,-106.562223,Saskatoon
3242,33rd Street / Northumberland,52.143829,-106.713667,Saskatoon
3241,33rd Street / Idylwyld,52.143932,-106.671023,Saskatoon
3240,33rd Street / Howell,52.143948,-106.693069,Saskatoon
3247,36th Street / Avenue E,52.148428,-106.675185,Saskatoon
3245,Nemeiben / Anglin,52.098535,-106.57817,Saskatoon
3244,Slimmon / Herold,52.09854,-106.567592,Saskatoon
5498,Kenderdine / Perehudoff,52.145496,-106.574946,Saskatoon
3309,7th / King Street,52.138052,-106.65202,Saskatoon
3306,7th Avenue / Duke,52.140796,-106.652258,Saskatoon
3307,Konihowski / Pezer Cr 100 Block,52.159112,-106.590665,Saskatoon
3304,7th Avenue / Duchess,52.142322,-106.652249,Saskatoon
3305,7th / Duke Street,52.141295,-106.652013,Saskatoon
3302,7th Avenue / 33rd Street,52.144064,-106.652211,Saskatoon
5491,Evergreen / Manek,52.170823,-106.564908,Saskatoon
3300,Miners / 60th Street,52.186947,-106.657802,Saskatoon
3301,7th / 33rd Street,52.144171,-106.652007,Saskatoon
4362,Confederation / CT gasbar,52.130987,-106.722744,Saskatoon
3018,115th Street / Kenderdine,52.143701,-106.574385,Saskatoon
3019,115th Street / Rayner,52.143766,-106.600883,Saskatoon
3013,115th Street / Egbert,52.14378,-106.603513,Saskatoon
3010,Central / 115th Street,52.143887,-106.599476,Saskatoon
3011,115th Street / Central,52.143761,-106.598379,Saskatoon
3017,22nd Street / Avenue M,52.129395,-106.689236,Saskatoon
3015,115th Street / Innes Court,52.143896,-106.586028,Saskatoon
4189,Cumberland / Garrison,52.120175,-106.634546,Saskatoon
4188,Cumberland / Colony,52.124175,-106.634582,Saskatoon
4181,Cumberland / 3rd Street,52.11049,-106.635182,Saskatoon
4180,Cumberland / 12th Street,52.119518,-106.634798,Saskatoon
4183,Cumberland / 5th Street,52.111803,-106.63517,Saskatoon
4182,Cumberland / 3rd Street,52.109999,-106.635443,Saskatoon
4185,Cumberland / 8th Street,52.114347,-106.635419,Saskatoon
4184,Cumberland / 5th Street,52.111368,-106.635433,Saskatoon
4187,Cumberland / Colony,52.123577,-106.634809,Saskatoon
4186,Cumberland / 8th Street,52.115235,-106.63516,Saskatoon
5663,19th Street / 1st Avenue,52.124536,-106.668652,Saskatoon
5662,Hart / crosswalk,52.126694,-106.741687,Saskatoon
5661,Hart / Bowlt,52.126546,-106.748535,Saskatoon
5660,Hart / Shillington,52.125402,-106.755093,Saskatoon
5667,Gordon / Baillie,52.083894,-106.633658,Saskatoon
4349,7th Street / Conn,52.113079,-106.614225,Saskatoon
4348,Taylor / Preston,52.107241,-106.621472,Saskatoon
4345,Hunter / Sutter,52.078661,-106.609321,Saskatoon
4344,Avenue H / 17th Street,52.121766,-106.681326,Saskatoon
4343,Innovation / Lot F,52.135145,-106.633615,Saskatoon
3878,Louise / Ruth,52.100661,-106.627666,Saskatoon
3871,Louise / Louise,52.102835,-106.606539,Saskatoon
3872,Louise / St Ann's Home,52.100822,-106.607657,Saskatoon
3873,Louise / East Place,52.100178,-106.61738,Saskatoon
3874,Louise / Arlington,52.10062,-106.609999,Saskatoon
3875,Louise / East Center,52.100172,-106.614166,Saskatoon
3877,8th Street / Acadia Drive,52.114553,-106.598185,Saskatoon
5719,Milton / Northumberland,52.136593,-106.721031,Saskatoon
5718,Massey / Northumberland,52.139473,-106.718295,Saskatoon
5715,Avenue P / 29th Street,52.137197,-106.694239,Saskatoon
3118,Witney / 20th Street,52.126456,-106.710188,Saskatoon
5713,Lowe / Pohorecky,52.163285,-106.574965,Saskatoon
5712,33rd Street / Junor,52.144275,-106.717687,Saskatoon
5711,Matheson / Maxwell,52.141362,-106.722086,Saskatoon
5710,33rd Street / Matheson,52.14396,-106.720652,Saskatoon
3904,Lenore / Redberry,52.176634,-106.615467,Saskatoon
3907,Laurier / Confederation,52.133306,-106.723782,Saskatoon
3900,Evergreen / Wyant,52.168249,-106.575778,Saskatoon
3901,Evergreen / Salloum,52.170604,-106.573167,Saskatoon
3902,Evergreen / Kloppenburg,52.170637,-106.567512,Saskatoon
3903,Lenore / Silverwood,52.176896,-106.612856,Saskatoon
3908,Laurier Drive / Confederation,52.133203,-106.725568,Saskatoon
3909,Laurentian / Brock,52.119435,-106.57174,Saskatoon
4167,Ruth Street / Broadway,52.10015,-106.656329,Saskatoon
4166,College / Campus,52.129108,-106.629397,Saskatoon
4165,College Drive / Cumberland,52.129013,-106.634519,Saskatoon
4164,Marquis Drive / Kochar,52.197325,-106.639628,Saskatoon
4163,College / Munroe,52.128975,-106.641978,Saskatoon
4162,College / Munroe,52.128744,-106.64064,Saskatoon
4161,College / Field House,52.128749,-106.627386,Saskatoon
4160,Konihowski / Le May (S/Leg),52.165865,-106.591865,Saskatoon
4169,Confederation / Mall Exit,52.13167,-106.722994,Saskatoon
4168,Ruth Street / York Avenue,52.100164,-106.648883,Saskatoon
5809,Wilson / Clarence,52.095217,-106.645398,Saskatoon
5808,7th Street / Emerson,52.113199,-106.617133,Saskatoon
5803,Rosewood Gate / Hastings,52.098633,-106.55157,Saskatoon
5802,Main / Cumberland,52.116655,-106.634221,Saskatoon
5801,Rusholme / Avenue I,52.133306,-106.683127,Saskatoon
5800,Avenue H / Rusholme,52.133136,-106.68144,Saskatoon
5807,7th Street / Goodwin,52.11323,-106.614249,Saskatoon
5806,7th Street / Arlington,52.113225,-106.611369,Saskatoon
5805,Arlington / Clark,52.110931,-106.608794,Saskatoon
5804,23rd Street / Avenue G,52.130796,-106.680538,Saskatoon
5935,College Drive / Bottomley Avenue,52.128963,-106.637107,Saskatoon
5934,Wiggins Avenue / Temperance,52.125998,-106.639064,Saskatoon
5933,Wiggins / Temperance,52.125665,-106.638801,Saskatoon
5932,College Drive / Cumberland Avenue,52.12874,-106.633657,Saskatoon
5931,College Drive / Wiggins,52.128736,-106.638442,Saskatoon
3499,Avenue P / Dudley,52.11298,-106.693975,Saskatoon
3497,Avenue P / Edmonton,52.145337,-106.694219,Saskatoon
3494,Avenue P / 31st Street,52.139864,-106.694239,Saskatoon
3495,Avenue P / 33rd Street,52.143459,-106.694215,Saskatoon
3492,Avenue K / Dudley,52.113111,-106.686432,Saskatoon
3493,Avenue P / 30th Street,52.138245,-106.694245,Saskatoon
3490,37th Street / Junor,52.150731,-106.717157,Saskatoon
3491,Avenue K / Dudley,52.112862,-106.686613,Saskatoon
3658,Rusholme / Avenue V,52.133449,-106.704384,Saskatoon
3659,Rusholme / Avenue T,52.133279,-106.700419,Saskatoon
3657,Rusholme / Avenue W,52.133282,-106.705088,Saskatoon
3650,Witney / Rusholme,52.133248,-106.710382,Saskatoon
3652,Witney / 22nd Street,52.128986,-106.710416,Saskatoon
3653,Rusholme / Leif Erickson,52.133297,-106.691194,Saskatoon
4408,Gray / Grant,52.138801,-106.593157,Saskatoon
4409,Gray / Imperial,52.137405,-106.59114,Saskatoon
4404,Kellough / James,52.137492,-106.588498,Saskatoon
4407,Gray / Fitzgerald,52.140287,-106.595289,Saskatoon
4228,Egbert / 104th Street,52.131705,-106.604152,Saskatoon
4229,Egbert / 105th Street,52.133851,-106.603905,Saskatoon
5392,Campus / Campus Drive,52.129546,-106.629157,Saskatoon
5391,Campus / Kinesiology,52.129125,-106.631794,Saskatoon
5397,Rosewood / Ledingham Crescent,52.09208,-106.563536,Saskatoon
5396,Rosewood / Hastings Crescent,52.093525,-106.555533,Saskatoon
5395,Rosewood Gate / Werschner,52.09607,-106.551514,Saskatoon
5398,Rosewood / Ledingham Way,52.090897,-106.57035,Saskatoon
3276,3rd Avenue / 20th Street,52.12564,-106.663309,Saskatoon
4224,Stillwater / Keeley,52.098827,-106.586992,Saskatoon
3274,Quebec / 39th,52.153398,-106.663241,Saskatoon
3275,3rd / 20th,52.125129,-106.663823,Saskatoon
3273,33rd Street / 1st Avenue,52.143973,-106.660978,Saskatoon
4225,Stillwater / Weyakwin,52.098051,-106.584565,Saskatoon
3278,3rd Avenue / 21st Street,52.1266,-106.663128,Saskatoon
3279,3rd Avenue / 21st Street,52.127181,-106.662575,Saskatoon
3474,Avenue H / 19th Street,52.124287,-106.681523,Saskatoon
3477,Quebec / 38th Street,52.15135,-106.663517,Saskatoon
3470,Avenue H / 17th Street,52.121157,-106.681506,Saskatoon
3472,Avenue H / 18th Street,52.123166,-106.681527,Saskatoon
3473,Avenue H / 18th Street,52.123281,-106.681255,Saskatoon
3479,Quebec / 38th,52.151875,-106.663242,Saskatoon
3311,7th / Princess Street,52.139631,-106.652069,Saskatoon
3310,7th Avenue / King,52.137618,-106.652281,Saskatoon
5485,Stonebridge / Clarence,52.083879,-106.645712,Saskatoon
3312,7th Avenue / Princess,52.139155,-106.652202,Saskatoon
5483,Galloway / Stonebridge,52.08358,-106.635423,Saskatoon
5482,Stonebridge / Galloway,52.08409,-106.637792,Saskatoon
4383,George / 121 George Road,52.14516,-106.725742,Saskatoon
5626,Stonebridge / Wellman,52.083891,-106.638667,Saskatoon
5625,Betts / Molland,52.127265,-106.758587,Saskatoon
3005,108th Street / Bryans,52.136527,-106.607783,Saskatoon
3004,104th St / O'Neil Cres,52.131399,-106.601293,Saskatoon
3007,108th Street / Egbert,52.136664,-106.60454,Saskatoon
3006,108th Street / Bryans Ave,52.136638,-106.608555,Saskatoon
3001,104th Street / Central,52.131521,-106.599567,Saskatoon
3003,104th Street / 100 Block,52.131526,-106.601693,Saskatoon
3002,104th Street / Egbert,52.131395,-106.603886,Saskatoon
3008,108th Street / Preston,52.13471,-106.621989,Saskatoon
3315,7th Street / Early,52.113226,-106.619571,Saskatoon
3314,Early / 7th Street,52.113079,-106.618189,Saskatoon
4378,Research / Resources Row,52.142659,-106.625347,Saskatoon
4379,Resources / Innovation,52.140596,-106.625444,Saskatoon
4372,Millar Avenue / 66th Street,52.196047,-106.646679,Saskatoon
5657,Ontario / 36th Street,52.148255,-106.666256,Saskatoon
4370,3rd / 26th Street,52.135189,-106.658857,Saskatoon
5655,Ontario / 34th Street,52.145671,-106.666254,Saskatoon
5653,Wayne Hicks / Airport Drive,52.169172,-106.686705,Saskatoon
4374,Research / Resources,52.14265,-106.625616,Saskatoon
4375,Resources Row / Innovation,52.140547,-106.625628,Saskatoon
4080,Hampton Circle / East Hampton,52.155091,-106.713653,Saskatoon
4081,Ruth Street / Dufferin,52.10017,-106.653385,Saskatoon
4082,Hampton Circle / Henick,52.157001,-106.715618,Saskatoon
3868,Main / Arlington,52.118329,-106.609999,Saskatoon
4084,Hampton Circle / Geary,52.155487,-106.721991,Saskatoon
4085,Centennial / Diefenbaker,52.134224,-106.730238,Saskatoon
4086,Marquis / Burron,52.196003,-106.653992,Saskatoon
4087,Marquis / Siemens,52.194794,-106.667596,Saskatoon
3863,Main / Kirk,52.117088,-106.620887,Saskatoon
4089,Millar / 71st Street,52.201367,-106.646661,Saskatoon
3861,Main / Lake,52.116875,-106.625832,Saskatoon
3860,Main / Moxon,52.118568,-106.615898,Saskatoon
3867,Main / Arlington,52.11852,-106.610142,Saskatoon
3866,Main / Bateman,52.1186,-106.611544,Saskatoon
3865,Main / Bateman,52.118713,-106.614821,Saskatoon
3864,Main / Garrison,52.116653,-106.627228,Saskatoon
5728,Arlington / Early,52.108393,-106.608982,Saskatoon
5729,Appleby / Carling,52.118518,-106.708524,Saskatoon
5722,Arlington / Taylor,52.105362,-106.609378,Saskatoon
5723,Massey / Matheson,52.139768,-106.721967,Saskatoon
5720,Northumberland / Milton,52.136651,-106.721416,Saskatoon
5721,Arlington / Louise,52.103471,-106.610019,Saskatoon
5726,Louise / McEown,52.100334,-106.618265,Saskatoon
5724,Matheson / Maxwell,52.141569,-106.721812,Saskatoon
5725,33rd Street / Matheson,52.143807,-106.721298,Saskatoon
3917,Lansdowne / 13th Street,52.120872,-106.65143,Saskatoon
3914,Lansdowne / 14th Street,52.121708,-106.651088,Saskatoon
3913,Latrace / Murray,52.148008,-106.738915,Saskatoon
3912,Latrace / Wedge,52.146562,-106.738903,Saskatoon
3911,Laurentian / Boychuk,52.116363,-106.574302,Saskatoon
3910,Laurentian / Guelph,52.117308,-106.570107,Saskatoon
5631,West Hampton / Hargreaves,52.154435,-106.729252,Saskatoon
3918,Lansdowne / 12th Street,52.120042,-106.651074,Saskatoon
5836,22nd Street / Avenue E,52.129139,-106.677153,Saskatoon
5837,22nd Street / Avenue C,52.129137,-106.672869,Saskatoon
4150,Clarence / Ruth,52.100505,-106.646405,Saskatoon
5835,22nd Street / Avenue H,52.129125,-106.68014,Saskatoon
4156,Clarence / Wilson,52.095633,-106.64643,Saskatoon
5833,Avenue H / 23rd Street,52.131075,-106.681181,Saskatoon
5830,22nd Street / Avenue C,52.129373,-106.673936,Saskatoon
4155,Clarence / Temperance,52.125453,-106.646607,Saskatoon
4158,29th Street / Avenue K,52.136967,-106.685497,Saskatoon
5902,Downtown Terminal East,52.130212,-106.662823,Saskatoon
5903,Place Riel / Terminal W&N,52.130617,-106.636917,Saskatoon
5900,Downtown Terminal South,52.129574,-106.661698,Saskatoon
5901,Downtown Terminal West,52.130286,-106.662215,Saskatoon
5906,Market Mall Terminal I/B,52.100338,-106.620286,Saskatoon
5907,Lawson Terminal O/B,52.168415,-106.637947,Saskatoon
5904,Place Riel / Terminal E&S,52.13059,-106.636829,Saskatoon
5905,Market Mall Terminal O/B,52.100338,-106.620899,Saskatoon
5908,Lawson Terminal I/B,52.168056,-106.63897,Saskatoon
5909,Centre Mall Terminal O/B,52.1124,-106.597697,Saskatoon
3489,Avenue K/ /13th Street,52.117312,-106.686027,Saskatoon
3488,Avenue K / 12th Street,52.116246,-106.685866,Saskatoon
3481,Evergreen / Evergreen Boulevard,52.164664,-106.572043,Saskatoon
3480,Avenue I / 36th Street,52.148713,-106.681995,Saskatoon
3483,Avenue I / Howell,52.150173,-106.68213,Saskatoon
3482,Evergreen / Manek,52.164661,-106.569523,Saskatoon
3485,Millar / 64th Street,52.191456,-106.646664,Saskatoon
3484,Lowe / Atton,52.162752,-106.575262,Saskatoon
3487,Avenue K /12th Street,52.116071,-106.68599,Saskatoon
3486,Avenue K / 11th Street,52.11485,-106.686087,Saskatoon
3648,Russell / Goerzen,52.181352,-106.632934,Saskatoon
3646,Russell / Lenore,52.17381,-106.632608,Saskatoon
3645,Russell / Meilicke,52.178302,-106.632947,Saskatoon
3644,Russell / Meilicke Road,52.177599,-106.633184,Saskatoon
3643,Russell / Roborecki,52.175995,-106.632781,Saskatoon
3641,Russell / Thain,52.17546,-106.633005,Saskatoon
3640,Ruth / Cairns,52.100157,-106.639143,Saskatoon
4419,33rd Street / 7th Avenue,52.143941,-106.652763,Saskatoon
4418,105th Street / Packham,52.130662,-106.587002,Saskatoon
4417,Packham / 105th Street,52.130656,-106.587654,Saskatoon
4416,Packham / 103rd Street,52.128418,-106.589058,Saskatoon
4415,Packham / 103rd Street,52.12855,-106.588686,Saskatoon
4414,103rd Street / Central,52.130155,-106.597708,Saskatoon
4413,103rd Street / Jessop,52.129672,-106.593664,Saskatoon
4412,103rd Street / Jessop,52.128931,-106.591783,Saskatoon
4411,103rd Street / Central,52.129968,-106.59839,Saskatoon
4410,Central / 104th Street,52.131108,-106.599102,Saskatoon
3261,37th Street / Cole,52.150625,-106.699901,Saskatoon
3260,37th Street / Hnatyshyn,52.150412,-106.703675,Saskatoon
3263,37th Street / Byers,52.150317,-106.707013,Saskatoon
3262,37th Street / Richardson,52.150585,-106.697161,Saskatoon
3264,Richardson / Hnatyshyn,52.147116,-106.704186,Saskatoon
3268,38th Street / Avenue G,52.151679,-106.679746,Saskatoon
3467,Avenue H / 15th Street,52.118762,-106.681384,Saskatoon
3466,Cope / Terminus,52.085484,-106.641927,Saskatoon
3465,cope terminus,52.08563,-106.642394,Saskatoon
3461,Millar / 66th Street,52.196668,-106.646416,Saskatoon
3460,64th Street  / MapleLeaf Foods,52.191759,-106.640386,Saskatoon
3469,Avenue H / 16th Street,52.120279,-106.681315,Saskatoon
3468,Avenue H / 16th Street,52.119743,-106.681581,Saskatoon
5832,Avenue H / 22nd Street,52.129697,-106.681168,Saskatoon
3071,Winnipeg / 18th Street,52.12222,-106.714687,Saskatoon
3072,19th Street / 3rd Avenue,52.123593,-106.663129,Saskatoon
3073,19th Street / 3rd Avenue,52.123797,-106.663506,Saskatoon
3074,1st Avenue / 20th Street,52.126354,-106.666639,Saskatoon
3075,1st Avenue / 21st Street,52.127852,-106.665895,Saskatoon
3076,1st Avenue / 22nd,52.129438,-106.665172,Saskatoon
3077,1st Avenue / 21st Street,52.126949,-106.66673,Saskatoon
3078,1st Avenue / 22nd Street,52.128686,-106.665904,Saskatoon
5344,Lowe / Nelson,52.149415,-106.575615,Saskatoon
4365,Pendygrasse / Clancy,52.121047,-106.724626,Saskatoon
4364,McKercher / Holland,52.107359,-106.586808,Saskatoon
4366,Queen / 5th,52.136707,-106.655647,Saskatoon
4361,McCormack / Kinloch,52.121091,-106.760206,Saskatoon
4363,Kenderdine / Stodola,52.136186,-106.560524,Saskatoon
5831,22nd Street / Avenue F,52.1294,-106.677978,Saskatoon
4369,Main / Morton,52.117153,-106.62006,Saskatoon
4368,37th / Hunt,52.150869,-106.730933,Saskatoon
5643,Robin / Robin Way,52.156718,-106.681361,Saskatoon
5642,Robin / Saskatoon Inn,52.156357,-106.684508,Saskatoon
5645,Hanselman / Shaw Cable,52.162463,-106.679225,Saskatoon
5644,Cynthia / Hanselman,52.159316,-106.679229,Saskatoon
3108,20th Street / Avenue S,52.126258,-106.699813,Saskatoon
3109,20th Street / Avenue S,52.126086,-106.698812,Saskatoon
3104,20th Street / Avenue O,52.12627,-106.692659,Saskatoon
3105,20th Street / Columbian Pl,52.126111,-106.691763,Saskatoon
3106,20th Street / Avenue Q,52.126266,-106.696995,Saskatoon
3107,20th Street / Avenue Q,52.1261,-106.695685,Saskatoon
3100,20th Street / Avenue L,52.126279,-106.687839,Saskatoon
3101,20th Street / Avenue M,52.126285,-106.689192,Saskatoon
3102,20th Street / Avenue M,52.126092,-106.688441,Saskatoon
3103,20th Street / Avenue N,52.126095,-106.689936,Saskatoon
4093,1st Avenue / 44th Street,52.161454,-106.660715,Saskatoon
4092,Centennial / McDougall,52.13255,-106.734101,Saskatoon
4091,Centennial / Lisgar,52.132393,-106.746857,Saskatoon
4090,Centennial / Tache,52.132365,-106.740332,Saskatoon
4097,Central / 105th Street,52.133258,-106.599096,Saskatoon
4096,Central / 105th Street,52.133912,-106.598828,Saskatoon
4095,Central / 115th Street,52.143259,-106.59904,Saskatoon
4094,Centennial / Cockburn,52.13239,-106.752589,Saskatoon
4098,1st Avenue / 25th Street,52.133412,-106.663604,Saskatoon
5735,Appleby / Avenue W,52.118515,-106.706266,Saskatoon
5734,Wardlow / 18th Street,52.121516,-106.711919,Saskatoon
5737,8th Street / Grosvenor,52.114639,-106.625452,Saskatoon
5736,Avenue W / 18th Street,52.121771,-106.705676,Saskatoon
5731,20th Street / Witney,52.126242,-106.711015,Saskatoon
5730,Appleby / Wardlow,52.118524,-106.710528,Saskatoon
5733,18th Street / Winnipeg,52.121844,-106.714002,Saskatoon
5732,Winnipeg / 20th Street,52.125935,-106.714914,Saskatoon
3704,Reid / Central,52.148137,-106.599413,Saskatoon
5739,11th Street / Avenue U,52.114657,-106.700177,Saskatoon
5738,8th Street / Albert,52.114703,-106.649062,Saskatoon
3921,Zary / Evergreen,52.166906,-106.576557,Saskatoon
3926,La Ronge / Nahanni,52.166368,-106.623044,Saskatoon
3927,La Ronge Road / Bethany,52.166937,-106.626556,Saskatoon
3925,La Ronge / Pinehouse,52.168472,-106.627439,Saskatoon
3928,La Ronge / Bethany Manor,52.167399,-106.626839,Saskatoon
3929,Konihowski / Rever,52.155475,-106.593381,Saskatoon
5656,Ontario / 34th,52.145658,-106.666049,Saskatoon
4373,Wedge / Latrace,52.14612,-106.73823,Saskatoon
5821,Ilarion Residence,52.100333,-106.614508,Saskatoon
5820,Arlington / 1500 East Heights,52.098729,-106.609704,Saskatoon
5823,Wilson / Estey,52.09348,-106.630556,Saskatoon
5822,Wilson / Preston,52.093478,-106.62366,Saskatoon
4149,Clarence / Osler,52.127104,-106.646381,Saskatoon
5824,Broadway / 1st Street,52.108012,-106.656936,Saskatoon
5827,Avenue C / Circle Drive,52.158882,-106.673042,Saskatoon
5826,Arlington / Stephenson,52.112688,-106.608991,Saskatoon
5829,Avenue C / Pakwa,52.16171,-106.674142,Saskatoon
5828,Avenue C / Cynthia,52.159832,-106.673041,Saskatoon
4147,Clarence / Main,52.116486,-106.646607,Saskatoon
4146,Clarence / Isabella,52.105505,-106.646385,Saskatoon
4141,Clarence / Colony,52.124066,-106.646371,Saskatoon
4140,Clarence / College,52.128579,-106.646363,Saskatoon
4143,Clarence / Hilliard,52.103367,-106.646646,Saskatoon
4142,Clarence / Colony,52.123598,-106.646671,Saskatoon
3856,Main / Rutter,52.117778,-106.61794,Saskatoon
3857,Main / Quance,52.118024,-106.617714,Saskatoon
3855,Main / Simpson,52.118938,-106.612869,Saskatoon
3851,Massey / Matheson,52.139976,-106.722265,Saskatoon
3858,Main / Preston,52.11688,-106.623202,Saskatoon
3859,Main / Preston,52.116682,-106.622144,Saskatoon
5919,105th Street / McKercher,52.129672,-106.584309,Saskatoon
5918,2630 Jasper Avenue,52.094264,-106.665552,Saskatoon
5914,45th Street / Thayer,52.163953,-106.679671,Saskatoon
5916,45th Street / Airport Drive,52.163938,-106.685826,Saskatoon
5911,Confederation Terminal,52.134017,-106.72149,Saskatoon
5910,Centre Mall Terminal I/B,52.1124,-106.598237,Saskatoon
5913,Valley Road Garage,52.101599,-106.72558,Saskatoon
5912,Confederation Terminal,52.133927,-106.721578,Saskatoon
3670,Rusholme / Avenue J,52.133462,-106.684821,Saskatoon
3671,Rowles / Russell,52.184259,-106.63082,Saskatoon
3580,Stillwater / Weyakwin,52.098243,-106.58452,Saskatoon
3582,Stillwater / Kenosee,52.098981,-106.588161,Saskatoon
3583,Steeves / Whelan,52.138987,-106.749577,Saskatoon
3585,Steeves / John A MacDonald,52.14195,-106.749576,Saskatoon
3586,23rd Street / 4th Avenue,52.129951,-106.660205,Saskatoon
3588,Arlington / East Drive,52.09734,-106.609944,Saskatoon
5599,Attridge Drive / Rever,52.151106,-106.593922,Saskatoon
4422,Diefenbaker / Worobetz,52.131997,-106.728022,Saskatoon
4423,Cree / Cree Place,52.171575,-106.635879,Saskatoon
4424,Cree / Lenore,52.17282,-106.63531,Saskatoon
4425,Ontario / 33rd Street,52.144316,-106.666028,Saskatoon
4083,Hampton Circle / Klassen,52.156744,-106.720459,Saskatoon
3299,Millar / English,52.184136,-106.646346,Saskatoon
3294,4th Avenue / 25th Street,52.132468,-106.658484,Saskatoon
3296,60th Street / 800-Block,52.187527,-106.652427,Saskatoon
3290,2nd Avenue / Princess,52.139226,-106.659006,Saskatoon
3292,4th Avenue / 24th Street,52.13102,-106.659191,Saskatoon
3293,24th Street / 4th Avenue,52.131189,-106.658449,Saskatoon
3457,Stensrud / Willowgrove,52.147775,-106.557429,Saskatoon
3454,Stensrud / Keedwell,52.144164,-106.554913,Saskatoon
3458,Stensrud / Shepherd,52.151405,-106.558805,Saskatoon
3459,Millar / 60th Street,52.187875,-106.646374,Saskatoon
4088,Centennial / Johnson,52.13239,-106.743826,Saskatoon
3739,Preston / 108th Street,52.13427,-106.623,Saskatoon
3063,15th Street / Avenue H,52.118504,-106.681938,Saskatoon
3062,14th Street / Spinks,52.121746,-106.603143,Saskatoon
3067,15th Street / Avenue K,52.118512,-106.685774,Saskatoon
3065,15th Street / Avenue I,52.11843,-106.682544,Saskatoon
3064,15th Street / Avenue I,52.118506,-106.683401,Saskatoon
3069,Fairlight / Fairmont,52.127759,-106.7239,Saskatoon
3068,15th Street / Avenue K,52.118373,-106.685367,Saskatoon
5355,Taylor / McEown,52.106013,-106.61485,Saskatoon
4310,Idylwyld / 25th Street,52.134039,-106.670357,Saskatoon
4311,Idylwyld / 27th Street,52.134947,-106.670355,Saskatoon
4312,Idylwyld / 29th Street,52.136693,-106.670397,Saskatoon
4313,Idylwyld / 31st Street,52.139789,-106.670378,Saskatoon
4314,Idylwyld / 32nd Street,52.142652,-106.67006,Saskatoon
4315,Idylwyld / 33rd Street,52.143479,-106.670404,Saskatoon
4316,37th St / Sumner Cr,52.15087,-106.727243,Saskatoon
4318,25th Street / Ontario,52.133792,-106.665153,Saskatoon
5461,Boychuk / Laurentian,52.116517,-106.574524,Saskatoon
3119,Elevator / 11th Street,52.114536,-106.741793,Saskatoon
5460,Laurentian / Begg,52.117315,-106.570466,Saskatoon
3117,Fairlight / 3600 Block,52.1234,-106.738035,Saskatoon
3116,Witney / 22nd Street,52.128853,-106.710143,Saskatoon
3115,20th Street / Avenue W,52.126094,-106.705002,Saskatoon
3114,Elevator/ 11th Street,52.114469,-106.741569,Saskatoon
3113,20th Street / Avenue U,52.12609,-106.7027,Saskatoon
3112,20th Street / Avenue U,52.126253,-106.70294,Saskatoon
3111,20th Street / Avenue T,52.12608,-106.700541,Saskatoon
3110,20th Street / Avenue T,52.126256,-106.701222,Saskatoon
5465,Bowlt / Shaw Center,52.12822,-106.746232,Saskatoon
5467,Preston / 2600-Block,52.096339,-106.622935,Saskatoon
5466,Preston / 2400-Block,52.098875,-106.622924,Saskatoon
5740,Schuyler / Avenue M,52.110832,-106.689061,Saskatoon
5741,Campus / PAC,52.129263,-106.631697,Saskatoon
5742,Campus / Campus,52.129496,-106.629499,Saskatoon
5743,19th Street / Avenue F,52.124535,-106.677798,Saskatoon
5744,DeGeer / McKercher,52.118142,-106.586561,Saskatoon
5745,DeGeer / Champlin,52.118144,-106.583626,Saskatoon
5746,DeGeer / Trent,52.118143,-106.57873,Saskatoon
5747,Boychuk / Laurentian,52.120901,-106.574958,Saskatoon
5748,Boychuk / Arnason,52.1228,-106.57495,Saskatoon
5749,Boychuk / McMaster,52.123306,-106.579852,Saskatoon
4227,Edward / Balmoral,52.146742,-106.646489,Saskatoon
4220,Circle / 1st Avenue,52.157868,-106.659505,Saskatoon
4221,Circle / Quebec,52.157808,-106.662974,Saskatoon
4222,Preston / Taylor,52.107002,-106.622897,Saskatoon
4223,McKercher  / Stillwater,52.099484,-106.592315,Saskatoon
5587,Bill Hunter / Marquis,52.193483,-106.684724,Saskatoon
5584,Marquis Dr / 100 Block,52.194891,-106.674765,Saskatoon
5585,Marquis / Costco,52.19464,-106.676766,Saskatoon
5581,Idylwyld Service / 3600-Block,52.191994,-106.670348,Saskatoon
5588,Apex / Bill Hunter,52.192172,-106.682986,Saskatoon
5589,Apex / Thatcher,52.192336,-106.678137,Saskatoon
3939,Kingsmere / Crean,52.096864,-106.599028,Saskatoon
3938,Kingsmere / Delaronde,52.092991,-106.596416,Saskatoon
3935,30th Street / Avenue V,52.138625,-106.704566,Saskatoon
3934,Kingsmere / Wollaston,52.092995,-106.591012,Saskatoon
3937,Kingsmere / Delaronde,52.094447,-106.599013,Saskatoon
3936,Kingsmere / Stillwater,52.099821,-106.599023,Saskatoon
3931,Kingsmere / Bronson,52.091527,-106.578175,Saskatoon
3933,Kingsmere / Brightsand,52.092147,-106.581961,Saskatoon
3932,Kingsmere / Brightwater,52.091485,-106.574316,Saskatoon
4138,Clarence / Adelaide,52.102124,-106.6464,Saskatoon
4139,Clarence / Aird,52.125123,-106.646433,Saskatoon
4130,Clarence / 4th Street,52.111249,-106.646376,Saskatoon
4131,Clarence / 5th Street,52.111579,-106.646624,Saskatoon
4132,Clarence / 6th Street,52.112496,-106.646618,Saskatoon
4133,Clarence / 6th Street,52.113113,-106.646373,Saskatoon
4134,Clarence / 8th Street,52.114249,-106.646625,Saskatoon
4135,Clarence / 8th Street,52.11508,-106.646378,Saskatoon
4136,Clarence / 9th Street,52.115481,-106.646606,Saskatoon
4137,Clarence / Adelaide,52.101651,-106.646646,Saskatoon
3841,McCormack / Heise,52.124319,-106.744762,Saskatoon
3840,McCormack / Neatby,52.124309,-106.750202,Saskatoon
3843,McCormack / Fairlight,52.125984,-106.733448,Saskatoon
3845,McCormack / Cory,52.122877,-106.755856,Saskatoon
3844,Ruth / Louise,52.10104,-106.628807,Saskatoon
3847,McCormack / Blue,52.125525,-106.740116,Saskatoon
3849,Massey / Northumberland,52.139666,-106.718291,Saskatoon
4044,Broadway / 2nd Street,52.108944,-106.656948,Saskatoon
4045,Broadway / 2nd Street,52.10908,-106.656609,Saskatoon
4046,Broadway / 3rd Street,52.109918,-106.656936,Saskatoon
4047,Broadway / 3rd Street,52.110408,-106.656646,Saskatoon
4041,Broadway / 10th Street,52.117485,-106.656972,Saskatoon
4042,Broadway / 11th Street,52.1196,-106.656551,Saskatoon
4043,Broadway / 12th Street,52.119452,-106.656965,Saskatoon
4048,Broadway / 4th Street,52.110823,-106.656931,Saskatoon
4049,Broadway / 4th Street,52.111273,-106.656604,Saskatoon
3665,Rusholme / Avenue M,52.133311,-106.688341,Saskatoon
3664,Rusholme / Avenue P,52.133449,-106.694466,Saskatoon
3667,Rusholme / Avenue L,52.133321,-106.687038,Saskatoon
3666,Rusholme / E D Feehan,52.133458,-106.690017,Saskatoon
3661,Rusholme / Avenue R,52.133437,-106.698455,Saskatoon
3660,Rusholme / Avenue T,52.133436,-106.701543,Saskatoon
3663,Rusholme / Avenue P,52.133282,-106.693444,Saskatoon
3662,Rusholme / Avenue R,52.133309,-106.697216,Saskatoon
3669,Rusholme / Avenue J,52.133309,-106.684873,Saskatoon
3593,Silverwood / O'Brien,52.178491,-106.613406,Saskatoon
3591,Silverwood / Whiteswan,52.181066,-106.619553,Saskatoon
3590,Taylor / Arlington,52.105221,-106.610095,Saskatoon
3597,Silverwood / JJ Thissen,52.179213,-106.617638,Saskatoon
3596,Silverwood / Lenore,52.177198,-106.611976,Saskatoon
3594,Silverwood / Molloy,52.184126,-106.619517,Saskatoon
3598,Silverwood / Chan,52.179562,-106.618254,Saskatoon
4434,1st Avenue / Circle,52.158537,-106.660706,Saskatoon
4437,29th Street / Avenue P,52.137105,-106.694508,Saskatoon
4436,Edmonton / 31st Street,52.140485,-106.705693,Saskatoon
4431,29th Street / Avenue I,52.137223,-106.683381,Saskatoon
4433,33rd Street / 6th Avenue,52.143797,-106.65395,Saskatoon
4432,Central / Rossmo,52.148318,-106.598784,Saskatoon
4438,Avenue R / 29th Street,52.137252,-106.697533,Saskatoon
4152,Clarence / Taylor,52.106951,-106.646639,Saskatoon
4153,Clarence / Taylor,52.107198,-106.646375,Saskatoon
5834,Avenue H / 23rd Street,52.130665,-106.681414,Saskatoon
3289,2nd Avenue / Duke,52.140732,-106.658336,Saskatoon
3288,45th Street / Hanselman,52.163803,-106.678713,Saskatoon
3287,2nd / Princess Street,52.139685,-106.658419,Saskatoon
3286,Konihowski / Pezer Cr 1000 Block,52.161323,-106.592451,Saskatoon
3285,3rd Avenue / 25th Street,52.132716,-106.660278,Saskatoon
3284,Heritage / Boychuk,52.104624,-106.574869,Saskatoon
3283,3rd Avenue / 24th Street,52.131343,-106.660928,Saskatoon
3282,3rd / 24th Street,52.131815,-106.660334,Saskatoon
3281,3rd / 22nd Street,52.128774,-106.661799,Saskatoon
3280,3rd Avenue / 22nd Street,52.128156,-106.662429,Saskatoon
4154,Clarence / University Drive,52.126887,-106.646604,Saskatoon
3445,Avenue C / Cynthia,52.159831,-106.673358,Saskatoon
3444,Avenue C / Circle,52.157111,-106.673328,Saskatoon
3447,33rd Street / West Portal,52.143953,-106.723368,Saskatoon
3446,Avenue C / Haskamp,52.161174,-106.674181,Saskatoon
3441,Assiniboine / Warman,52.160998,-106.644723,Saskatoon
3440,Assiniboine / St Lawrence Crescent,52.161524,-106.642538,Saskatoon
3443,Avenue C / 45th Street,52.163423,-106.674385,Saskatoon
3442,Avenue C / 39th Street,52.152968,-106.673314,Saskatoon
3729,Quebec / 41st Street,52.156118,-106.663496,Saskatoon
3386,Acadia / McKercher,52.122772,-106.587352,Saskatoon
3387,Acadia / McKercher,52.122927,-106.587267,Saskatoon
3056,12th Street / Lansdowne,52.119889,-106.65175,Saskatoon
3053,Fairmont / Forrester,52.124168,-106.722261,Saskatoon
5362,McCormack / Kinloch,52.120053,-106.760746,Saskatoon
5363,Nelson Road / Heal,52.150145,-106.570099,Saskatoon
3380,Acadia / Haight,52.109276,-106.599039,Saskatoon
5364,Avenue P / 1000-Block,52.141612,-106.69426,Saskatoon
5368,Avenue W / 17th Street,52.119793,-106.70565,Saskatoon
3381,Acadia / Harrington,52.118038,-106.599064,Saskatoon
4303,Hilliard / St Henry,52.103682,-106.68155,Saskatoon
4302,Herman / Taylor,52.107022,-106.67741,Saskatoon
4301,Hilliard / Herman,52.103682,-106.677722,Saskatoon
4300,Taylor / McKercher,52.101865,-106.588383,Saskatoon
4307,Latrace / Robinson,52.14755,-106.739184,Saskatoon
4305,Latrace / 37th Street,52.150377,-106.739204,Saskatoon
4304,Central / 116th Street,52.14534,-106.599021,Saskatoon
4309,Kerr / Gillam,52.13469,-106.579264,Saskatoon
3128,22nd Street / Avenue P,52.129163,-106.693357,Saskatoon
3129,Taylor Street / Herold,52.10286,-106.566388,Saskatoon
3123,20th Street / Sears,52.126059,-106.667362,Saskatoon
3120,Fairlight / Pendygrasse,52.120016,-106.741401,Saskatoon
3126,22nd Street / 3rd Avenue,52.128555,-106.662357,Saskatoon
3127,22nd / Avenue P,52.129409,-106.694756,Saskatoon
3124,Fairlight  / 3600 Block,52.122612,-106.738997,Saskatoon
5753,Avenue K / 11th Street,52.114514,-106.686428,Saskatoon
5752,19th Street / Avenue H,52.124552,-106.680769,Saskatoon
5751,Acadia / 8th Street,52.115203,-106.598775,Saskatoon
5750,36th Street / Avenue C,52.148453,-106.672627,Saskatoon
5757,McKercher / Mount Allison,52.12024,-106.587217,Saskatoon
5756,19th Street / 2nd Avenue,52.124085,-106.666995,Saskatoon
4239,Egbert / 113th Street,52.142052,-106.603862,Saskatoon
5754,19th Street / Avenue E,52.124511,-106.676345,Saskatoon
4237,Egbert / 111th Street,52.13944,-106.604103,Saskatoon
4236,Egbert / 111th Street,52.139903,-106.603866,Saskatoon
5759,19th Street / Avenue D,52.124663,-106.675903,Saskatoon
5758,19th / Avenue B,52.124626,-106.672508,Saskatoon
4233,Egbert / 108th Street,52.136899,-106.603851,Saskatoon
4232,Egbert / 107th Street,52.135817,-106.60397,Saskatoon
4231,Egbert / 106th Street,52.134844,-106.603899,Saskatoon
4230,Egbert Ave/ 105th Street,52.133926,-106.6041,Saskatoon
5591,20th Street / Witney,52.126071,-106.709708,Saskatoon
5590,Thatcher / Marquis,52.193716,-106.677743,Saskatoon
5593,Kingsmere / Taylor,52.103098,-106.596679,Saskatoon
5592,71st Street / Case New Holland,52.202189,-106.637393,Saskatoon
5595,Rever Road / Attridge,52.15158,-106.592601,Saskatoon
5594,Kingsmere / Costigan,52.101697,-106.598555,Saskatoon
5597,Preston Avenue / Research,52.142473,-106.622916,Saskatoon
5596,Preston / 115th Street,52.143053,-106.622599,Saskatoon
3277,Diefenbaker / Mowat,52.135488,-106.731141,Saskatoon
5598,Attridge Drive / Rever Road,52.150868,-106.592313,Saskatoon
3948,Confederation / J A MacDonald,52.141648,-106.726384,Saskatoon
3946,J A MacDonald / Cartier,52.142234,-106.729541,Saskatoon
3947,J A MacDonald / Confederation,52.142057,-106.726713,Saskatoon
4210,Diefenbaker / Vanier,52.136824,-106.742479,Saskatoon
4129,Richardson / Glenwood,52.149055,-106.697118,Saskatoon
4128,Clarence / 2nd Street,52.109417,-106.646386,Saskatoon
4123,Clarence / 14th Street,52.121542,-106.646603,Saskatoon
4121,Clarence / 12th Street,52.120056,-106.646352,Saskatoon
4120,Clarence / 12th Street,52.119896,-106.646629,Saskatoon
4127,Clarence / 2nd Street,52.108965,-106.646631,Saskatoon
4126,Clarence / 15th Street,52.123045,-106.646386,Saskatoon
4125,Clarence / 15th Street,52.122566,-106.646606,Saskatoon
4124,Clarence / 14th Street,52.121715,-106.646376,Saskatoon
5684,Cope Lane / Cope Crescent,52.085174,-106.641742,Saskatoon
5681,Clarence / Brand,52.086154,-106.646356,Saskatoon
5680,Clarence / Glasgow,52.092731,-106.64669,Saskatoon
5683,Cope Way / Stonebridge,52.084405,-106.643952,Saskatoon
5682,Clarence / Brand,52.086143,-106.646742,Saskatoon
4057,Broadway / Hilliard,52.103374,-106.656906,Saskatoon
4056,Broadway / Adelaide,52.102156,-106.656634,Saskatoon
4055,Broadway / Adelaide,52.101634,-106.656898,Saskatoon
4054,Fairmont / Camponi exit,52.125815,-106.722807,Saskatoon
4053,Broadway / 8th Street,52.114303,-106.657009,Saskatoon
4052,Broadway / 8th Street,52.11527,-106.656597,Saskatoon
4051,Broadway / 6th Street,52.112612,-106.656603,Saskatoon
4050,Broadway / 6th Street,52.112459,-106.656942,Saskatoon
4059,Broadway / Isabella,52.105068,-106.6569,Saskatoon
4058,Broadway / Hilliard,52.103535,-106.656631,Saskatoon
5674,Galloway / Stonebridge Common,52.079058,-106.624879,Saskatoon
3616,Saguenay / Sandy,52.164703,-106.617275,Saskatoon
3617,Zary / Atton,52.166778,-106.57747,Saskatoon
3618,Saguenay / La Ronge Road,52.166578,-106.617286,Saskatoon
3619,Saguenay / La Ronge,52.165999,-106.617532,Saskatoon
5678,Clarence / Bute,52.09857,-106.646642,Saskatoon
4441,51st Street / 1st Avenue,52.173147,-106.661104,Saskatoon
4442,College Drive / Bottomley,52.129014,-106.636684,Saskatoon
3728,Quebec / Circle,52.157594,-106.663502,Saskatoon
4445,Rupert / 100-Block,52.156045,-106.645892,Saskatoon
4446,Rupert / 61 Rupert,52.155653,-106.646387,Saskatoon
4447,Alexandra / Rupert,52.155961,-106.642127,Saskatoon
4448,8th Street / Goodwin,52.114633,-106.613096,Saskatoon
3725,Queen / 4th Avenue,52.136565,-106.656377,Saskatoon
3726,Queen / 4th,52.136705,-106.657095,Saskatoon
3727,Queen / 3rd Avenue,52.136542,-106.657782,Saskatoon
3721,Queen / 7th Avenue,52.136538,-106.65258,Saskatoon
3722,Queen / 7th,52.136699,-106.652682,Saskatoon
3723,Queen / 5th Avenue,52.136538,-106.654768,Saskatoon
100000,University-Place Riel Hub,52.13059,-106.6368,Saskatoon
3438,Assiniboine / Saguenay,52.164524,-106.618118,Saskatoon
3439,Assiniboine / St Lawrence,52.161246,-106.643581,Saskatoon
3430,Assiniboine / Churchill,52.163514,-106.630791,Saskatoon
3431,Assiniboine / Huron,52.164052,-106.620542,Saskatoon
3432,Assiniboine / Kootenay,52.162344,-106.6407,Saskatoon
3433,Assiniboine / Sturgeon,52.16369,-106.622117,Saskatoon
3435,Assiniboine / Rainy,52.164188,-106.619456,Saskatoon
3436,Assiniboine / Ravine,52.16245,-106.635321,Saskatoon
3437,3rd Avenue / Queen,52.136395,-106.658515,Saskatoon
3544,Temperance / Albert,52.124974,-106.648728,Saskatoon
3545,Temperance / 17th Street,52.125192,-106.648503,Saskatoon
3547,Temperance / 15th Street,52.122865,-106.650963,Saskatoon
3541,Temperance / Colony,52.123809,-106.65007,Saskatoon
3542,Temperance / Clarence,52.125827,-106.647088,Saskatoon
3543,Temperance / Clarence,52.125879,-106.647072,Saskatoon
3548,Taylor / Lansdowne,52.107405,-106.6509,Saskatoon
3549,Richardson / Catherwood,52.147227,-106.714128,Saskatoon
5379,Quebec / 41st Street,52.156948,-106.663237,Saskatoon
5378,Bishop Murray High School,52.11974,-106.639301,Saskatoon
5374,Edmonton / Co-op,52.145374,-106.696251,Saskatoon
5371,Lowe / Ludlow,52.147218,-106.575208,Saskatoon
5370,Pendygrasse / Peeling,52.119847,-106.733101,Saskatoon
5373,33rd Street / Quebec,52.143783,-106.662844,Saskatoon
5372,33rd / Quebec Avenue,52.143963,-106.663785,Saskatoon
4338,Caen / Haida Street,52.113061,-106.737172,Saskatoon
4336,Arlington / Louise Street,52.101033,-106.610857,Saskatoon
4337,Ruth  / Victoria Ave,52.100324,-106.662534,Saskatoon
4334,Caen / Rockingham Ave,52.113033,-106.73079,Saskatoon
4335,Caen / Currie Avenue,52.11302,-106.726196,Saskatoon
4332,Jamieson / Avenue B,52.131743,-106.671254,Saskatoon
4333,Jamieson / Idylwyld,52.131871,-106.670982,Saskatoon
3135,22nd Street / Avenue X,52.129147,-106.706808,Saskatoon
3134,36th Street / Alberta,52.148597,-106.668486,Saskatoon
3137,Zary / Roy Crescent,52.169374,-106.580492,Saskatoon
3136,22nd Street / Avenue X,52.129423,-106.70704,Saskatoon
3131,22nd Street / Avenue T,52.129429,-106.701348,Saskatoon
3130,Taylor / Slimmon,52.10122,-106.557389,Saskatoon
3133,Rusholme / Avenue K,52.133458,-106.686248,Saskatoon
3132,22nd Street / Avenue T,52.129176,-106.700433,Saskatoon
3139,22nd Street / Pacific,52.12936,-106.668697,Saskatoon
3138,22nd Street / 1st Avenue,52.129364,-106.6667,Saskatoon
4208,Diefenbaker / Steeves,52.136822,-106.748774,Saskatoon
5768,George / Kirkpatrick,52.148322,-106.722307,Saskatoon
5769,George / Makaroff,52.146474,-106.724024,Saskatoon
4202,Diefenbaker / Fairlight,52.127122,-106.728019,Saskatoon
5767,33rd Street / Junor,52.14394,-106.71847,Saskatoon
5764,33rd / Avenue W,52.143954,-106.706384,Saskatoon
5765,33rd Street / Avenue Y,52.143909,-106.710691,Saskatoon
5762,Avenue M / Wellington,52.109309,-106.689432,Saskatoon
5763,Central / Reid,52.147773,-106.599041,Saskatoon
5760,19th Street / Avenue F,52.124681,-106.678606,Saskatoon
4205,Diefenbaker / Mowat,52.136821,-106.735484,Saskatoon
5568,Lancaster / Caen,52.1133,-106.724221,Saskatoon
5569,Preston / 108th,52.135584,-106.622547,Saskatoon
5564,Ortona / Lancaster,52.111305,-106.72517,Saskatoon
5565,Lancaster / 11th Street,52.114989,-106.724157,Saskatoon
5567,Fairlight / 11th Street,52.115191,-106.741395,Saskatoon
5560,Avenue C / 41st Street,52.156702,-106.67308,Saskatoon
5561,Haida Avenue / Caen Street,52.112892,-106.737665,Saskatoon
5562,Haida / Ortona,52.110273,-106.736259,Saskatoon
5563,Ortona / Crerar,52.110875,-106.72923,Saskatoon
3952,J A MacDonald / McCully,52.142203,-106.743423,Saskatoon
3951,J A MacDonald / Dominion,52.142227,-106.737807,Saskatoon
3957,30th Street / Avenue T,52.138633,-106.701387,Saskatoon
3955,J A MacDonald / Tilley,52.14219,-106.733808,Saskatoon
4116,29th Sreet / Avenue M,52.136963,-106.68847,Saskatoon
4117,Clancy / Pendygrasse,52.121587,-106.723984,Saskatoon
4114,Jasper Avenue,52.095723,-106.666798,Saskatoon
4118,Clarence / 10th Street,52.117627,-106.646597,Saskatoon
4119,Clarence / 10th Street,52.118065,-106.646382,Saskatoon
4449,Cumberland / 14th Street,52.122129,-106.634576,Saskatoon
4062,Broadway / Main,52.117172,-106.656597,Saskatoon
4063,Broadway / Ruth,52.100329,-106.656894,Saskatoon
4060,Broadway / Isabella,52.105542,-106.656635,Saskatoon
4061,Broadway / Main,52.116349,-106.656947,Saskatoon
4066,Broadway / Taylor,52.107731,-106.656609,Saskatoon
4064,Broadway / Ruth,52.100116,-106.656625,Saskatoon
4065,Broadway / Taylor,52.106985,-106.656956,Saskatoon
4069,Fairlight / McCormack,52.119857,-106.741832,Saskatoon
5785,George / Wedge,52.145448,-106.725524,Saskatoon
5786,Latham Park,52.116656,-106.629253,Saskatoon
5787,Main / Copland,52.116873,-106.629994,Saskatoon
5781,Nelson / Attridge,52.14689,-106.582642,Saskatoon
5782,33rd Street / Avenue Y,52.143809,-106.709743,Saskatoon
5788,Witney / Rusholme,52.133586,-106.710186,Saskatoon
5789,Briarwood / Briarvale,52.10993,-106.569602,Saskatoon
3603,Schuyler / Avenue P,52.110826,-106.693391,Saskatoon
3602,Silverwood / A E Adams,52.178784,-106.614236,Saskatoon
3601,Silverwood / Adilman,52.18724,-106.619462,Saskatoon
3607,Schuyler / Avenue L,52.110831,-106.687346,Saskatoon
3606,Schuyler / Avenue N,52.110954,-106.691337,Saskatoon
3605,8th Street / Chaben,52.114844,-106.594091,Saskatoon
3604,Schuyler / Avenue P,52.11096,-106.693965,Saskatoon
3609,Schuyler / Avenue K,52.110951,-106.686883,Saskatoon
3608,Schuyler / Avenue L,52.110943,-106.688662,Saskatoon
4453,Kenderdine / Wright Cr 100 Block,52.130431,-106.569931,Saskatoon
4452,Kenderdine / Wright Manor,52.13155,-106.567897,Saskatoon
4451,Kenderdine / Horlick,52.133472,-106.563923,Saskatoon
4450,Cumberland / 14th Street,52.121509,-106.634812,Saskatoon
4457,Berini / Kerr,52.135719,-106.581713,Saskatoon
3968,22nd Street / Avenue M,52.129137,-106.688227,Saskatoon
4455,Kenderdine / 600-Block,52.131239,-106.576833,Saskatoon
4454,Kenderdine / Wright Cr 1200 Block,52.129699,-106.573592,Saskatoon
3737,Primrose / 105 Primrose,52.167249,-106.641932,Saskatoon
3736,Primrose / Coppermine East,52.167263,-106.638196,Saskatoon
3735,Primrose / Coppermine,52.167474,-106.64277,Saskatoon
4458,Berini / 400-Block,52.13757,-106.579739,Saskatoon
3733,Primrose / Civic Center,52.16879,-106.634839,Saskatoon
3732,Primrose / Ravine,52.168054,-106.635814,Saskatoon
3731,Primrose / Pinehouse,52.170056,-106.633991,Saskatoon
3730,Primrose / Pinehouse Drive,52.169478,-106.634679,Saskatoon
3429,Arlington / Taylor,52.104747,-106.60996,Saskatoon
3428,Arlington / Preston,52.094245,-106.622183,Saskatoon
3423,Arlington / Clark,52.111173,-106.609171,Saskatoon
3422,Louise / 3100-Block,52.10304,-106.608968,Saskatoon
3420,Arlington / James Anderson Park,52.09426,-106.617987,Saskatoon
3427,Arlington / Porter,52.102609,-106.610689,Saskatoon
3426,Arlington / Louise,52.100141,-106.610204,Saskatoon
3425,Arlington / Hardy,52.120222,-106.609148,Saskatoon
3424,Arlington / Hardy,52.119834,-106.608877,Saskatoon
3557,Taylor / Munroe,52.107413,-106.641653,Saskatoon
3556,Taylor / Preston,52.107426,-106.623143,Saskatoon
3554,Taylor / Salisbury,52.107119,-106.619659,Saskatoon
3553,Taylor / Cairns,52.107262,-106.639253,Saskatoon
3552,Taylor / Wiggins,52.107351,-106.63895,Saskatoon
3551,37th Street / Avenue W,52.150488,-106.705674,Saskatoon
3550,Taylor / Clarence,52.107406,-106.647095,Saskatoon
3559,Taylor / Morgan,52.107435,-106.629279,Saskatoon
3558,Taylor / Ewart,52.107238,-106.636465,Saskatoon
4329,Innovation / Perimeter,52.139384,-106.629795,Saskatoon
4328,Innovation / Perimeter Road,52.139424,-106.629427,Saskatoon
4321,Wedge / Manning,52.146136,-106.733771,Saskatoon
4320,37th / 3500 Block,52.150867,-106.734661,Saskatoon
4323,Ironwood Crossing,52.084583,-106.62248,Saskatoon
4325,Idylwyld / 29th Street,52.1375,-106.670062,Saskatoon
4324,Idylwyld / 27th Street,52.13562,-106.670049,Saskatoon
4327,Konihowski / Pobran,52.165934,-106.592165,Saskatoon
4326,Idylwyld / 31st Street,52.140546,-106.67007,Saskatoon
3140,22nd Street / Auditorium,52.129128,-106.668339,Saskatoon
3141,22nd Street / Witney,52.129493,-106.711314,Saskatoon
3142,22nd Street / Witney,52.129165,-106.709624,Saskatoon
3143,23rd / 1st Avenue,52.130849,-106.665262,Saskatoon
3144,23rd Street / Avenue C,52.130916,-106.673947,Saskatoon
3145,23rd Street / Avenue C,52.13078,-106.673048,Saskatoon
3146,23rd /  D,52.130908,-106.675554,Saskatoon
3147,23rd Street / Avenue D,52.130812,-106.675218,Saskatoon
3148,Konihowski / Beerling,52.162705,-106.593736,Saskatoon
3149,Somers / Konihowski,52.164409,-106.594603,Saskatoon
5414,Downtown Terminal East 2,52.129996,-106.661611,Saskatoon
5415,Downtown Terminal West 2,52.130391,-106.662837,Saskatoon
5416,Faithfull / 45th Street,52.163571,-106.665022,Saskatoon
3382,Acadia / Harrington,52.118548,-106.598807,Saskatoon
3383,Acadia / Highbury,52.109683,-106.598952,Saskatoon
5412,Downtown Terminal East 1,52.130112,-106.662096,Saskatoon
5413,Downtown Terminal West 1,52.130254,-106.662047,Saskatoon
3388,Acadia / Parkdale,52.111421,-106.598797,Saskatoon
3389,Acadia / Summers,52.121639,-106.598798,Saskatoon
5792,Bedford Road Collegiate,52.13319,-106.681219,Saskatoon
4215,7th / Preston Ave,52.113224,-106.622384,Saskatoon
4217,Arlington / Teachers Credit Union,52.101096,-106.610609,Saskatoon
4216,64th Street / Millar,52.191763,-106.645408,Saskatoon
4211,Diefenbaker / Devonshire,52.136828,-106.752606,Saskatoon
3960,Kenderdine / Cowley,52.141414,-106.565761,Saskatoon
4213,Idylwyld Service / Marquis Drive,52.193841,-106.670163,Saskatoon
4212,Dieppe / Haida,52.108801,-106.736142,Saskatoon
4219,Dudley / Avenue U,52.113235,-106.701555,Saskatoon
4218,Preston / 8th Street,52.114276,-106.622874,Saskatoon
5771,33rd Street / Confederation,52.143747,-106.725133,Saskatoon
5770,Snowberry Downs,52.144586,-106.726144,Saskatoon
5773,Kerr / Kellough,52.137483,-106.585208,Saskatoon
5772,33rd Street / Junor Avenue,52.143795,-106.718149,Saskatoon
5775,Centennial Collegiate,52.149815,-106.578499,Saskatoon
5774,Nelson / Heath,52.149938,-106.571966,Saskatoon
Confederation,Confederation Hub,52.1339,-106.7215,Saskatoon
5579,Idylwyld Service / 60th Street,52.186755,-106.670141,Saskatoon
5577,Idylwyld Service / 3300-Block,52.182864,-106.669802,Saskatoon
5575,Idylwyld Service / 3000-Block,52.175962,-106.669784,Saskatoon
5573,Idylwyld Service / 52nd Street,52.174272,-106.669856,Saskatoon
5571,11th / Crescent Boulevard,52.114838,-106.736609,Saskatoon
5570,11th Street / Crescent Boulevard,52.114662,-106.736133,Saskatoon
3092,20th Street / Avenue F,52.126092,-106.677873,Saskatoon
3093,20th Street / Avenue G,52.126259,-106.680224,Saskatoon
3091,20th Street / Avenue F,52.126248,-106.678675,Saskatoon
3096,20th Street / Avenue I,52.12628,-106.683449,Saskatoon
3097,20th Street / Avenue J,52.126275,-106.684801,Saskatoon
3094,20th Street / Avenue G,52.126089,-106.679411,Saskatoon
3095,20th Street / Avenue H,52.126102,-106.680763,Saskatoon
3098,20th Street / Avenue J,52.126099,-106.683947,Saskatoon
3099,20th Street / Avenue K,52.126099,-106.685363,Saskatoon
4101,Central / 108th Street,52.136247,-106.599114,Saskatoon
4100,Central / 108th Street,52.137047,-106.598849,Saskatoon
4103,Central / 111th Street,52.139257,-106.599058,Saskatoon
4102,Central / 110th Street,52.139114,-106.598781,Saskatoon
4105,Central / 112th Street,52.140295,-106.599052,Saskatoon
4104,Central / 112th Street,52.141126,-106.598808,Saskatoon
4107,Assiniboine / Churchill Drive,52.163516,-106.629927,Saskatoon
4106,Central / Central Place,52.132072,-106.598816,Saskatoon
4109,Briarvale / Briarvale Bay,52.107026,-106.568228,Saskatoon
4108,Assiniboine / Ravine Drive,52.16243,-106.634262,Saskatoon
3898,Lorne / 2nd Street,52.109392,-106.670351,Saskatoon
3892,Lorne / 6th Street,52.11294,-106.670348,Saskatoon
3893,Lorne / 6th Street,52.112502,-106.670588,Saskatoon
3890,Lorne / 8th Street,52.114034,-106.670599,Saskatoon
3891,Lorne / 7th Street,52.113861,-106.670365,Saskatoon
3896,Lorne / 4th Street,52.110777,-106.670496,Saskatoon
3897,Lorne / 2nd Street,52.108978,-106.670498,Saskatoon
3895,Lorne / 4th Street,52.111254,-106.670348,Saskatoon
5951,Berini Drive / Overholt,52.13416,-106.584588,Saskatoon
5950,Berini Drive / 115th Street,52.143343,-106.581713,Saskatoon
5953,Taylor / Cosmo Court,52.106961,-106.619845,Saskatoon
5952,84 Gray / Gray Avenue,52.13578,-106.588135,Saskatoon
4078,Campus / N.R.C. Place,52.130432,-106.628835,Saskatoon
5956,Melville / Actionwear,52.08824,-106.665006,Saskatoon
4074,Fairmont / Fairlight,52.127297,-106.723233,Saskatoon
4077,Campus / Agriculture Building,52.132841,-106.630442,Saskatoon
4076,Campus / Commerce Court,52.133732,-106.638059,Saskatoon
4071,37th Street / Peterson,52.150581,-106.714012,Saskatoon
4072,Caen / Elevator,52.113058,-106.740859,Saskatoon
5797,29th Street / Witney,52.137012,-106.709609,Saskatoon
3967,Dudley / Avenue R,52.113239,-106.697468,Saskatoon
5795,Witney / Bedford,52.132027,-106.710191,Saskatoon
5794,Witney / 22nd Street,52.13008,-106.710173,Saskatoon
5793,Rusholme / Avenue I,52.133451,-106.68337,Saskatoon
3963,Kenderdine / Bonli,52.143712,-106.570627,Saskatoon
5791,8th Street / Boychuk,52.114873,-106.576114,Saskatoon
5790,Briarwood / Braeside,52.110104,-106.572331,Saskatoon
5799,29th Street / Avenue W,52.13701,-106.706112,Saskatoon
3969,Broadway / 9th Street,52.115989,-106.656613,Saskatoon
3638,Ruth / Clarence,52.100146,-106.645343,Saskatoon
3639,Ruth / Cairns,52.100316,-106.640418,Saskatoon
3636,Ruth / Cumberland,52.100155,-106.634657,Saskatoon
3634,Ruth / Ewart,52.100163,-106.636494,Saskatoon
3632,Ruth / Haultain,52.100154,-106.642649,Saskatoon
3630,Ruth / Herman,52.100479,-106.676676,Saskatoon
3631,Ruth / Haultain,52.100299,-106.643368,Saskatoon
3708,Redberry / Tobin,52.171421,-106.61385,Saskatoon
3709,Redberry / Reindeer,52.170461,-106.620629,Saskatoon
4466,Kerr / Kaplan Green,52.138272,-106.563577,Saskatoon
3703,Reid / Greig,52.147982,-106.601366,Saskatoon
3700,Reindeer / Pinehouse,52.168448,-106.621536,Saskatoon
4465,Kerr / Chotem,52.136393,-106.567041,Saskatoon
3706,Redberry / Wathaman,52.1702,-106.617288,Saskatoon
3707,Fairmont / Clancy,52.121995,-106.721765,Saskatoon
4460,Berini / Rogers,52.139456,-106.579702,Saskatoon
3705,Reid / Adolph,52.149053,-106.606177,Saskatoon
5755,19th Street / Avenue B,52.124478,-106.671473,Saskatoon
3416,Wilson / Ferguson,52.095385,-106.645053,Saskatoon
3417,Arlington / 14th Street,52.121538,-106.608889,Saskatoon
3415,Appleby / Wardlow,52.118665,-106.710865,Saskatoon
3413,Appleby / Avenue W,52.11867,-106.70643,Saskatoon
3410,Windsor / Alexandra,52.148967,-106.64558,Saskatoon
4371,Broadway / 9th Street,52.115331,-106.656948,Saskatoon
4235,Egbert / 109th Street,52.137884,-106.603883,Saskatoon
3418,Arlington / 14th Street,52.121548,-106.609141,Saskatoon
3419,East Heights / 1500-Block,52.09876,-106.609943,Saskatoon
4234,Egbert / 108th Street,52.136208,-106.604095,Saskatoon
3562,Taylor / McKinnon,52.107405,-106.644378,Saskatoon
3563,Taylor / Haultain,52.107256,-106.642539,Saskatoon
3560,Wilson / Albert,52.09549,-106.648427,Saskatoon
3561,Taylor / Morgan,52.107271,-106.628998,Saskatoon
3567,Taylor / Lansdowne,52.107251,-106.651461,Saskatoon
3568,Taylor / Jackson,52.107415,-106.634351,Saskatoon
3569,Taylor / Jackson,52.107257,-106.633677,Saskatoon
4484,Brand / Clarence,52.08678,-106.647538,Saskatoon
4485,Brand / Brand Place,52.08764,-106.652082,Saskatoon
4486,Brand / Mitsubishi,52.08717,-106.654711,Saskatoon
4487,Preston Avenue / Main Street,52.116444,-106.622869,Saskatoon
4480,Windsor / Edward,52.148846,-106.64604,Saskatoon
4489,Rosewood / Rosewood Gate North,52.094471,-106.552001,Saskatoon
3153,Somers / Kristjanson,52.163656,-106.597315,Saskatoon
3152,Kristjanson / 800-Block,52.161591,-106.597462,Saskatoon
3151,23rd Street / Avenue F,52.130805,-106.679035,Saskatoon
3150,23rd Street / Avenue F,52.130927,-106.678099,Saskatoon
3157,Ruth Street / Wilson,52.100155,-106.661549,Saskatoon
3156,Zary Road / Sauer,52.169178,-106.580664,Saskatoon
3155,Konihowski / Carr,52.16952,-106.586458,Saskatoon
3154,23rd Street / Avenue H,52.130921,-106.681146,Saskatoon
3159,23rd Street / 1st Avenue,52.13043,-106.664198,Saskatoon
3158,23rd Street / Avenue B,52.130926,-106.67226,Saskatoon
3390,Acadia / Taylor,52.105088,-106.598777,Saskatoon
3393,Adilman / Benesh,52.187469,-106.623287,Saskatoon
3392,Adelaide / Preston,52.10266,-106.622165,Saskatoon
3395,Adilman / Rowles,52.186597,-106.633075,Saskatoon
5401,Airport Drive / 45th Street,52.164108,-106.687537,Saskatoon
3396,Adilman/ /Russell,52.187442,-106.62721,Saskatoon
3399,Edward / Balmoral Street,52.147449,-106.646267,Saskatoon
4263,1st Avenue / 43rd Street,52.159979,-106.660684,Saskatoon
4265,Richardson / Walker,52.147021,-106.710885,Saskatoon
4266,Millar / 43rd Street,52.160335,-106.649076,Saskatoon
3702,Reid Road / Adolph,52.147426,-106.605379,Saskatoon
4464,Kerr / Chotem,52.134767,-106.571343,Saskatoon
City Centre,City Centre Hub,52.13003,-106.6618,Saskatoon
3701,Reid / Reid,52.14935,-106.602299,Saskatoon
5546,Fletcher/ Jonathan,52.108401,-106.708845,Saskatoon
4463,Kerr / Kenderdine,52.134684,-106.575152,Saskatoon
3089,20th / Avenue E,52.126225,-106.677148,Saskatoon
3088,20th Street / Avenue D,52.126055,-106.674545,Saskatoon
3085,McLeod Avenue / Fletcher,52.109135,-106.711967,Saskatoon
3084,20th Street / Avenue B,52.126048,-106.671221,Saskatoon
3087,20th Street / Avenue D,52.126241,-106.675786,Saskatoon
3086,Rosewood / Ledingham Drive,52.090707,-106.566779,Saskatoon
3083,20th Street / Avenue B,52.126186,-106.672515,Saskatoon
5890,Lowe / Ludlow,52.147673,-106.57496,Saskatoon
5891,Marion Graham High School,52.176474,-106.618465,Saskatoon
5892,Lenore / Charlebois,52.175045,-106.623044,Saskatoon
5893,Lenore / Roborecki,52.173484,-106.628094,Saskatoon
5894,Kenderdine / Kerr,52.138726,-106.561953,Saskatoon
5895,Kenderdine / Kenderdine,52.144172,-106.574981,Saskatoon
5896,Taylor / Victoria,52.107254,-106.661832,Saskatoon
5897,3rd Avenue / 23rd Street,52.130212,-106.661458,Saskatoon
5898,Pharmasave,52.130445,-106.662852,Saskatoon
5899,Downtown Terminal North,52.130397,-106.661017,Saskatoon
3885,Lorne / Ruth,52.100939,-106.67033,Saskatoon
3884,Lorne / Taylor,52.107694,-106.670347,Saskatoon
3886,Lorne / Isabella,52.105482,-106.670308,Saskatoon
3883,Wilson / Cairns,52.094762,-106.64147,Saskatoon
3889,Lorne / Adelaide,52.102176,-106.670344,Saskatoon
3888,Lorne / Hilliard,52.103851,-106.670325,Saskatoon
4008,Millar / 48th Street,52.169103,-106.64668,Saskatoon
4009,Millar / 50th Street,52.171043,-106.646173,Saskatoon
4000,19th Street / 2nd Avenue,52.124263,-106.666571,Saskatoon
4001,Avenue P / Dudley,52.112732,-106.694213,Saskatoon
4002,7th Street / Preston,52.113079,-106.621831,Saskatoon
4003,Avenue W / 17th Street,52.120122,-106.7059,Saskatoon
4004,Avenue W / 18th Street,52.121491,-106.705962,Saskatoon
4005,Avenue W / 33rd Street,52.144255,-106.705609,Saskatoon
4006,Millar / 46th Street,52.164452,-106.647929,Saskatoon
4007,Millar / 47th Street,52.166411,-106.647403,Saskatoon
3970,Louise / Woodward,52.10016,-106.62393,Saskatoon
3973,Appleby / Dundurn,52.118662,-106.708909,Saskatoon
3972,Gordon / Martin,52.083033,-106.627663,Saskatoon
3975,8th Street / Sobey's,52.114847,-106.589686,Saskatoon
3977,Gordon / Stonebridge Common,52.08288,-106.625444,Saskatoon
3976,Taylor / Clarence,52.107263,-106.646064,Saskatoon
3979,Cumberland / 7th Street,52.114236,-106.635163,Saskatoon
3978,3rd Avenue / 26th Street,52.135088,-106.659087,Saskatoon
3629,McKercher / Tait Crescent,52.111832,-106.58676,Saskatoon
3621,Ruth / Saint Henry,52.10048,-106.681599,Saskatoon
3620,Witney / Rylston,52.13496,-106.710412,Saskatoon
3623,Central / 115th Street,52.144078,-106.598793,Saskatoon
3622,33rd Street / Valens,52.143939,-106.689253,Saskatoon
3627,Ruth / St Patrick,52.100476,-106.674025,Saskatoon
3626,Ruth / Wiggins,52.100162,-106.637901,Saskatoon
3715,Hunter / Rempel,52.086159,-106.615678,Saskatoon
3714,Hunter / Hartley,52.085775,-106.612456,Saskatoon
3717,Assiniboine / Red River,52.162253,-106.635792,Saskatoon
3716,Hunter / Preston,52.085644,-106.621031,Saskatoon
3710,66th Street / Mitchelmore,52.196463,-106.64376,Saskatoon
3713,Redberry / Candle,52.173803,-106.614437,Saskatoon
3719,Stonebridge Mall,52.085644,-106.624352,Saskatoon
4479,McKercher Dr / Boychuk Dr,52.123838,-106.586067,Saskatoon
4472,Laurentian / Laurentian,52.116371,-106.572047,Saskatoon
3401,Alexandra / Eddy,52.154329,-106.64215,Saskatoon
3400,Alexandra / Eddy Place,52.15415,-106.642394,Saskatoon
3403,Alexandra / Hazen Street,52.152396,-106.643742,Saskatoon
3402,Alexandra / Hazen,52.151909,-106.644547,Saskatoon
3405,Alexandra / 1600-Block NB,52.151217,-106.644935,Saskatoon
3407,Alexandra / Rupert Drive,52.155862,-106.642342,Saskatoon
3406,Alexandra / 1600-Block,52.151223,-106.645114,Saskatoon
3409,Alexandra / Windsor,52.149106,-106.644928,Saskatoon
5427,East / Preston,52.13494,-106.623957,Saskatoon
5426,Lancaster / Caen,52.112887,-106.724337,Saskatoon
3579,Taylor / Acadia,52.104898,-106.599583,Saskatoon
3578,Taylor / Arlington,52.10488,-106.609247,Saskatoon
3575,Taylor / Cumberland,52.107424,-106.636004,Saskatoon
3574,Taylor / Dufferin,52.107254,-106.654226,Saskatoon
3577,Taylor / Broadway,52.107238,-106.656217,Saskatoon
3571,Taylor / Grosvenor,52.107425,-106.626426,Saskatoon
3573,Taylor / Dufferin,52.107409,-106.65447,Saskatoon
3572,Taylor / Grosvenor,52.107256,-106.625681,Saskatoon
4492,Fletcher/ Maple Leaf,52.10863,-106.709617,Saskatoon
3168,24th Street / 6th Avenue,52.130545,-106.655175,Saskatoon
3169,23rd Street / Spadina,52.129233,-106.656844,Saskatoon
3166,Eastview / 2500-Block,52.092069,-106.613824,Saskatoon
3167,Easthill / Arlington,52.094539,-106.611713,Saskatoon
3164,23rd Street / 2nd Avenue,52.130585,-106.663829,Saskatoon
3165,Eastview / Easthill,52.092316,-106.610854,Saskatoon
3162,23rd Street / Wall Street,52.131592,-106.669345,Saskatoon
3163,23rd Street / Wall,52.131404,-106.669551,Saskatoon
3160,23rd / Pacific Avenue,52.131325,-106.667896,Saskatoon
3161,23rd Street / Pacific,52.13092,-106.666853,Saskatoon
5432,Louise / Arlington,52.10296,-106.609327,Saskatoon
5433,Louise / Louise,52.102551,-106.606772,Saskatoon
5431,Cumberland / Elliott,52.12764,-106.63481,Saskatoon
3368,Acadia / Avondale,52.107268,-106.598793,Saskatoon
3369,Acadia / Avondale,52.106893,-106.599049,Saskatoon
5434,Louise / Louise,52.100964,-106.607119,Saskatoon
5435,Louise / Arlington,52.100774,-106.610029,Saskatoon
3364,8th Street / McKercher,52.114584,-106.58597,Saskatoon
3365,Acadia / 14th Street,52.121485,-106.599061,Saskatoon
3366,Acadia / 100-Block,52.123091,-106.589531,Saskatoon
3367,Acadia / 200-Block,52.123397,-106.590477,Saskatoon
3360,8th Street / Wiggins,52.114874,-106.639327,Saskatoon
3361,8th Street / 3700-Block,52.114585,-106.590006,Saskatoon
3362,8th Street / Broadway,52.114502,-106.656129,Saskatoon
3363,8th Street / Clarence,52.114579,-106.645906,Saskatoon
Market Mall,Market Mall Hub,52.100329,-106.621176,Saskatoon
5554,Vic / Assaly,52.079034,-106.615137,Saskatoon
5557,8th Street / Indigo Books,52.114558,-106.600367,Saskatoon
5556,8th Street / JYSK Store,52.114823,-106.602115,Saskatoon
5551,Avenue W / Rylston,52.135455,-106.705661,Saskatoon
5552,McClocklin / McKague,52.151451,-106.724368,Saskatoon
5558,Queen / 2nd Avenue,52.136543,-106.659599,Saskatoon
5883,Slimmon / Herold,52.098362,-106.567161,Saskatoon
5882,Slimmon / Boychuk,52.098388,-106.570263,Saskatoon
5881,Briarwood / Banyan,52.105033,-106.570752,Saskatoon
5880,Heritage / Heritage Green,52.104465,-106.574789,Saskatoon
5887,Briarwood / Blackburn,52.105141,-106.571872,Saskatoon
5886,Briarwood / Briarvale,52.105187,-106.568062,Saskatoon
5885,Herold / Pawlychenko,52.102065,-106.56719,Saskatoon
5884,Herold / 300-Block,52.100227,-106.566832,Saskatoon
5889,Kenderdine / Brunst,52.137539,-106.575673,Saskatoon
5888,Kenderdine / Kerr,52.13507,-106.575646,Saskatoon
3186,25th Street / Spadina,52.131703,-106.652241,Saskatoon
3187,25th Street / Spadina,52.131868,-106.652278,Saskatoon
3182,Taylor Street / Kilburn,52.107532,-106.673764,Saskatoon
3183,Briarvale / Briarwood,52.10487,-106.567535,Saskatoon
3188,Eastview / 2700-Block,52.092359,-106.617338,Saskatoon
3189,Avenue H / 28th Street,52.13634,-106.681249,Saskatoon
4019,Avenue W / Richardson,52.146746,-106.705878,Saskatoon
4018,Avenue W / Byers,52.144475,-106.705884,Saskatoon
4013,Ruth / Dufferin Avenue,52.100309,-106.654632,Saskatoon
4011,Ruth  / York Avenue,52.100285,-106.650315,Saskatoon
4010,Ruth / Clarence Avenue,52.100315,-106.64688,Saskatoon
4016,Wilson / Dufferin,52.095653,-106.653721,Saskatoon
4015,Avenue W / Davidson,52.145597,-106.705622,Saskatoon
4014,Avenue W / 20th Street,52.125761,-106.705957,Saskatoon
3988,20th Street / Ottawa,52.126081,-106.712828,Saskatoon
3984,Melville / Portage,52.086832,-106.659786,Saskatoon
3985,Assiniboine / Athabasca,52.162278,-106.638295,Saskatoon
3986,Ruth / Melrose,52.100147,-106.665363,Saskatoon
3983,Taylor Street / Lorne,52.107246,-106.669569,Saskatoon
5796,Witney / Rylston,52.135396,-106.710273,Saskatoon
3762,Pendygrasse / Fairlight,52.120057,-106.740709,Saskatoon
3765,Pendygrasse / Barber,52.119838,-106.736397,Saskatoon
3766,Parkdale / Moss,52.111375,-106.594561,Saskatoon
3768,Parkdale / Beurling,52.111208,-106.594741,Saskatoon
3769,Parkdale / Acadia,52.111078,-106.598515,Saskatoon
3508,Wilson / MacEachern,52.095439,-106.654005,Saskatoon
3509,Wilson / Harrison,52.094725,-106.656738,Saskatoon
3500,Witney / 29th Street,52.136778,-106.7104,Saskatoon
3501,20th Street / Winnipeg,52.126083,-106.714362,Saskatoon
3503,37th Street / Peterson,52.150447,-106.712973,Saskatoon
3504,Wilson / Ruth,52.099967,-106.662341,Saskatoon
3505,Wilson / Niderost,52.097905,-106.661521,Saskatoon
3506,Wilson / MacKenzie,52.093478,-106.635792,Saskatoon
3507,Wilson / MacLean,52.094161,-106.639256,Saskatoon
5333,Hunter / Senick,52.082966,-106.607792,Saskatoon
5332,14th Street / Carleton,52.122013,-106.602718,Saskatoon
5339,Taylor /Victoria,52.107396,-106.662861,Saskatoon
3213,Dawes Avenue / Dudley,52.11341,-106.709462,Saskatoon
3219,Dudley / Avenue W,52.113226,-106.703385,Saskatoon
3179,Taylor Street / Lorne,52.107512,-106.670945,Saskatoon
3178,Heritage / Heritage Way,52.103656,-106.585205,Saskatoon
3171,3rd Avenue / 25th Street,52.133498,-106.659646,Saskatoon
3170,25th Street / 3rd Avenue,52.132934,-106.659132,Saskatoon
3173,25th Street / 5th Avenue,52.132378,-106.65606,Saskatoon
3172,25th Street / 4th Avenue,52.132656,-106.657627,Saskatoon
3175,25th Street / 6th Avenue,52.132043,-106.654185,Saskatoon
3174,25th / 5th Avenue,52.13273,-106.656809,Saskatoon
3176,25th / 6th Avenue,52.132463,-106.655311,Saskatoon
5429,Acadia / 300-Block,52.123443,-106.598817,Saskatoon
5428,Melilcke / David Knight,52.178847,-106.629446,Saskatoon
3379,Acadia / Dalhousie,52.123786,-106.592999,Saskatoon
3378,Acadia / Cronkite,52.120745,-106.598797,Saskatoon
3377,Acadia / Cronkite,52.119925,-106.599074,Saskatoon
3376,Acadia / Carleton,52.124273,-106.597404,Saskatoon
3375,Acadia / Dalhousie,52.124045,-106.596,Saskatoon
3374,Acadia / Campion,52.123293,-106.590881,Saskatoon
3373,Taylor / Madden,52.106452,-106.616309,Saskatoon
3372,Acadia / Balfour,52.116415,-106.598798,Saskatoon
3371,Acadia / Ramsay,52.115789,-106.599045,Saskatoon
3370,Clarence / Ruth,52.099987,-106.646668,Saskatoon
4248,Pawlychenko / 135 Pawlychenko,52.101663,-106.563066,Saskatoon
4249,Fairlight / Olmstead,52.125702,-106.732739,Saskatoon
4246,Pawlychenko / Herold,52.101664,-106.566858,Saskatoon
4247,Fairlight / Diefenbaker,52.126803,-106.72958,Saskatoon
4244,Elevator / Ortona,52.109859,-106.741591,Saskatoon
4242,Elevator / Arnhem,52.111867,-106.741583,Saskatoon
4243,Elevator / Dieppe,52.108487,-106.741591,Saskatoon
4240,Egbert / 113th Street,52.14128,-106.604082,Saskatoon
4241,115th Street / Egbert,52.143924,-106.603806,Saskatoon
5520,Vic Blvd / Langlois Way,52.079068,-106.619449,Saskatoon
5524,Melville / Lorne,52.089051,-106.667884,Saskatoon
5525,Dawes / Dudley,52.11411,-106.709182,Saskatoon
5526,Nelson / Heal,52.149959,-106.56946,Saskatoon
5497,Baltzan / Payne Bend,52.169657,-106.555439,Saskatoon
5490,Lorne / WDM,52.096025,-106.670223,Saskatoon
3303,7th / Duchess Street,52.142746,-106.651967,Saskatoon
5798,29th Street / Avenue X,52.136995,-106.707756,Saskatoon
5493,Evergreen / Fedoruk,52.172986,-106.560797,Saskatoon
Wildwood-Centre Mall,Wildwood-Centre Mall Hub,52.11223,-106.598778,Saskatoon
4398,38th Street / Avenue G,52.151543,-106.678693,Saskatoon
4399,38th Street / Avenue E,52.151543,-106.675757,Saskatoon
4390,Fletcher / Schuyler,52.111218,-106.703777,Saskatoon
4391,Fletcher / 1300-Block,52.108624,-106.705381,Saskatoon
4392,Olmstead / Forrester,52.124148,-106.731038,Saskatoon
4393,20th Street / Avenue W,52.126254,-106.706316,Saskatoon
4394,38th Street / Avenue C,52.151686,-106.673553,Saskatoon
4395,38th Street / Avenue E,52.151687,-106.676829,Saskatoon
4396,Avenue C / 38th Street,52.151849,-106.673103,Saskatoon
5633,West Hampton / Geary,52.155212,-106.725368,Saskatoon
3197,11th Street / Elevator,52.114656,-106.740931,Saskatoon
3196,McKercher / 8th Street,52.114281,-106.587209,Saskatoon
3195,McCormack / Sherry,52.120557,-106.749407,Saskatoon
3194,29th Street / Avenue X,52.137173,-106.707771,Saskatoon
3193,Avenue W / 29th Street,52.137127,-106.706381,Saskatoon
3190,29th Street / Avenue L,52.137226,-106.687177,Saskatoon
4444,College / Bottomley,52.128776,-106.635731,Saskatoon
3199,2nd / 25th Street,52.133764,-106.661244,Saskatoon
3198,Broadway / Cascade,52.096979,-106.656914,Saskatoon
2,Courtney St @ Dewdney Ave (NB),50.45593,-104.68684,Regina
3,Courtney St @ 8th Ave (NB),50.45756,-104.68684,Regina
4,Courtney St @ 7th Ave (NB),50.45862,-104.68684,Regina
5,Courtney St @ 6th Ave (NB),50.45954,-104.68685,Regina
6,Courtney St @ Kelly Ave (NB),50.46084,-104.68684,Regina
7,5th Ave @ Duncan Cr (EB),50.46146,-104.685749,Regina
8,Dorothy St @ 5th Ave (SB),50.46121,-104.68259,Regina
9,Dorothy St @ Kelly Ave (SB),50.46,-104.68233,Regina
10,Dorothy St @ 6th Ave (SB),50.4592,-104.682039,Regina
11,Dorothy St @ 7th Ave (SB),50.45843,-104.68128,Regina
12,Dorothy St @ 8th Ave (SB),50.4571,-104.6799,Regina
13,Dorothy St @ Bowman Ave (SB),50.45578,-104.6797,Regina
14,Dewdney Ave @ Dorothy St (EB),50.4551,-104.67884,Regina
15,Dewdney Ave @ Southam St (EB),50.4551,-104.676651,Regina
16,Dewdney Ave @ Kent St (EB),50.4551,-104.67375,Regina
17,Dewdney Ave @ Carlton St (EB),50.4551,-104.67161,Regina
18,Dewdney Ave @ Donald St (EB),50.45509,-104.669061,Regina
19,Dewdney Ave @ Bonner Dr (EB),50.45509,-104.66553,Regina
20,Dewdney Ave @ Horace St (EB),50.45509,-104.66039,Regina
21,Dewdney Ave @ Minto St (EB),50.4551,-104.65623,Regina
22,Dewdney Ave @ Empress St (EB),50.45511,-104.653261,Regina
23,Dewdney Ave @ Royal St (EB),50.45511,-104.65039,Regina
24,Dewdney Ave @ Hewitt Pl (EB),50.45511,-104.64848,Regina
25,Dewdney Ave @ York St (EB),50.45509,-104.6457,Regina
27,Dewdney Ave @ Wascana St (EB),50.455,-104.639129,Regina
28,Dewdney Ave @ Princess St (EB),50.45499,-104.635011,Regina
29,Dewdney Ave @ Argyle St (EB),50.45501,-104.63217,Regina
30,Dewdney Ave @ Elphinstone St (EB),50.455,-104.63061,Regina
31,Dewdney Ave @ Montague St (EB),50.45502,-104.62925,Regina
32,Dewdney Ave @ Garnet St (EB),50.45502,-104.62612,Regina
33,Dewdney Ave @ Robinson St (EB),50.45502,-104.62349,Regina
34,Dewdney Ave @ Rae St (EB),50.45503,-104.62066,Regina
35,Albert St @ Dewdney Ave (SB),50.45461,-104.61818,Regina
37,Albert St @ 11th Ave (SB),50.44976,-104.618191,Regina
38,12th Ave @ Smith St (EB),50.44877,-104.61533,Regina
41,Broad St @ 12th Ave (NB),50.44849,-104.60631,Regina
42,Broad St @ Dewdney Ave (NB),50.4555,-104.6063,Regina
44,Broad St @ 7th Ave (NB),50.4586,-104.60628,Regina
46,Broad St @ 5th Ave (NB),50.46187,-104.60632,Regina
47,Broad St @ 4th Ave (NB),50.46338,-104.60629,Regina
49,Broad St @ 1st Ave (NB),50.46799,-104.606289,Regina
50,Broad St @ 1st Ave N (NB),50.46985,-104.60628,Regina
51,Broad St @ 1st Ave N (NB),50.47126,-104.606281,Regina
52,2nd Ave N @ Broad St (WB),50.47247,-104.607101,Regina
53,Hamilton St @ 2nd Ave N (NB),50.47268,-104.609349,Regina
54,Hamilton St @ 3rd Ave N (NB),50.474353,-104.60913,Regina
55,Hamilton St @ 5th Ave N (NB),50.476725,-104.609195,Regina
56,5th Ave N @ Cornwall St (WB),50.4771,-104.61274,Regina
57,5th Ave N @ Smith St (WB),50.47709,-104.615661,Regina
58,Albert St @ 5th Ave N (NB),50.47767,-104.61798,Regina
59,Albert St @ 6th Ave N (NB),50.47932,-104.61792,Regina
60,7th Ave N @ Smith St (EB),50.48066,-104.615501,Regina
61,Lorne St @ 8th Ave N (NB),50.48235,-104.61367,Regina
62,9th Ave N @ Lorne St (EB),50.48436,-104.61322,Regina
63,9th Ave N @ Kleisinger Cr (EB),50.484301,-104.609551,Regina
64,Broad St @ 9th Ave N (NB),50.48472,-104.60628,Regina
65,Broad St @ Elmview Rd (NB),50.49008,-104.606159,Regina
66,Fairview Rd @ Broad St (EB),50.492295,-104.605588,Regina
67,Fairview Rd @ Lloyd Cr (EB),50.49233,-104.60318,Regina
68,Bothwell Cr @ Aitken Cr (EB),50.49197,-104.59856,Regina
69,Sturdy St @ 12th Ave N (NB),50.49386,-104.597099,Regina
70,Rodenbush Dr @ Andrews Cr (NB),50.49665,-104.5978,Regina
71,Rodenbush Dr @ Cullum Pl (WB),50.49791,-104.60071,Regina
72,Rodenbush Dr @ Fairview Rd (WB),50.4979,-104.60328,Regina
73,Rodenbush Dr @ Kowalchuck Cr (WB),50.49738,-104.60567,Regina
74,Rodenbush Dr @ Broad St (WB),50.49706,-104.60782,Regina
75,Rodenbush Dr @ Brandon Cr (WB),50.49712,-104.611211,Regina
76,Rodenbush Dr @ Basin Cr (SB),50.49665,-104.613121,Regina
77,Rodenbush Dr @ 12th Ave N (SB),50.49452,-104.614649,Regina
78,Upland Dr @ Carmichael Rd (SB),50.49285,-104.6155,Regina
79,Upland Dr @ Fairview Rd (SB),50.49118,-104.615539,Regina
80,Upland Dr @ Spruceview Rd (EB),50.48906,-104.614279,Regina
81,Upland Dr @ Willowview Rd (EB),50.48852,-104.61103,Regina
82,Upland Dr @ Oakview Rd (EB),50.48853,-104.60834,Regina
83,Elmview Rd @ Broad St (EB),50.48929,-104.606759,Regina
84,9th Ave N @ Broad St (WB),50.48439,-104.60725,Regina
85,9th Ave N @ Kleisinger Cr (WB),50.48438,-104.610889,Regina
86,Lorne St @ 9th Ave N (SB),50.484,-104.61383,Regina
87,Lorne St @ 8th Ave N (SB),50.48152,-104.613799,Regina
88,7th Ave N @ Smith St (WB),50.48075,-104.61599,Regina
89,7th Ave N @ Cornwall St (EB),50.48066,-104.61185,Regina
90,7th Ave N @ Hamilton St (EB),50.48067,-104.60868,Regina
91,7th Ave N @ Broad St (EB),50.48065,-104.60589,Regina
92,7th Ave N @ Halifax St (EB),50.48066,-104.60309,Regina
93,7th Ave N @ Ottawa St (EB),50.48067,-104.600121,Regina
94,7th Ave N @ Montreal St (EB),50.48066,-104.597059,Regina
96,6th Ave N @ Winnipeg St (WB),50.478892,-104.59607,Regina
97,Toronto St @ 6th Ave N (SB),50.47864,-104.599201,Regina
98,Toronto St @ 5th Ave N (SB),50.47682,-104.5992,Regina
99,Toronto St @ 4th Ave N (SB),50.47528,-104.599189,Regina
101,2nd Ave N @ Toronto St (WB),50.47245,-104.59974,Regina
102,2nd Ave N @ Saint John St (WB),50.47245,-104.60175,Regina
103,2nd Ave N @ Halifax St (WB),50.47243,-104.60396,Regina
104,Broad St @ 2nd Ave N (SB),50.47204,-104.60664,Regina
105,Broad St @ 1st Ave N (SB),50.47042,-104.60661,Regina
106,Broad St @ 1st Ave (SB),50.46798,-104.606609,Regina
109,Broad St @ 4th Ave (SB),50.46171,-104.60654,Regina
110,Broad St @ 6th Ave (SB),50.45927,-104.60658,Regina
111,Broad St @ 8th Ave (SB),50.45635,-104.606571,Regina
112,Broad St @ Saskatchewan Dr (SB),50.45119,-104.60656,Regina
114,11th Ave @ Hamilton St (WB),50.45038,-104.60923,Regina
118,Albert St @ 9th Ave (NB),50.45376,-104.61798,Regina
119,Dewdney Ave @ Albert St (WB),50.45516,-104.619421,Regina
120,Dewdney Ave @ Rae St (WB),50.45515,-104.6215,Regina
121,Dewdney Ave @ Robinson St (WB),50.45518,-104.62453,Regina
122,Dewdney Ave @ Garnet St (WB),50.45515,-104.62726,Regina
123,Dewdney Ave @ Montague St (WB),50.45514,-104.63014,Regina
124,Dewdney Ave @ Elphinstone St (WB),50.45513,-104.63175,Regina
125,Dewdney Ave @ McTavish St (WB),50.45514,-104.63447,Regina
126,Dewdney Ave @ Queen St (WB),50.45513,-104.63739,Regina
127,Dewdney Ave @ Wascana St (WB),50.45513,-104.64026,Regina
130,Dewdney Ave @ York St (WB),50.45525,-104.64586,Regina
131,Dewdney Ave @ Connaught St (WB),50.45526,-104.64728,Regina
132,Dewdney Ave @ Forget St (WB),50.45526,-104.65019,Regina
133,Dewdney Ave @ McIntosh St (WB),50.45523,-104.652891,Regina
134,Dewdney Ave @ Grey St (WB),50.45524,-104.65578,Regina
135,Dewdney Ave @ Aberdeen St (WB),50.45523,-104.65879,Regina
136,Dewdney Ave @ Grace St (WB),50.45526,-104.661669,Regina
137,Dewdney Ave @ Bonner St (WB),50.45528,-104.6661,Regina
138,Dewdney Ave @ Ellice St (WB),50.45528,-104.66881,Regina
139,Dewdney Ave @ Carlton St (WB),50.45527,-104.67202,Regina
140,Dewdney Ave @ Kent St (WB),50.45528,-104.67448,Regina
141,Dewdney Ave @ Southam St (WB),50.45526,-104.6773,Regina
142,Dewdney Ave @ Dorothy St (WB),50.45527,-104.68008,Regina
143,Dewdney Ave @ 7100 Dewdney Ave (WB),50.45525,-104.68471,Regina
144,Sangster Blvd @ Stern Bay (EB),50.48791,-104.63007,Regina
145,Sangster Blvd @ Semple Bay (EB),50.48832,-104.6264,Regina
146,Sangster Blvd @ Vernon Cr (NB),50.48988,-104.62363,Regina
147,Sangster Blvd @ Hyland St (WB),50.49155,-104.62622,Regina
148,Sangster Blvd @ Carnegie St (WB),50.49153,-104.62994,Regina
149,Sangster Blvd @ Hicke Bay (WB),50.49153,-104.63307,Regina
150,Sangster Blvd @ Shore Bay (WB),50.49151,-104.63556,Regina
151,Sangster Blvd @ Garuik Cr (SB),50.49091,-104.63864,Regina
153,Rochdale Blvd @ Pasqua St (WB),50.4968,-104.64227,Regina
155,Sangster Blvd @ McGee Cr (SB),50.48894,-104.63859,Regina
156,Sangster Blvd @ Brockelbank Cr (EB),50.48791,-104.63802,Regina
157,Sangster Blvd @ Brockelbank Cr (EB),50.48787,-104.63425,Regina
158,Argyle St N @ Sangster Blvd (SB),50.4875,-104.63273,Regina
159,Argyle St N @ McCaul Cr (SB),50.4833,-104.63273,Regina
160,McMurchy Ave @ Argyle St N (EB),50.48207,-104.6322,Regina
161,McMurchy Ave @ McInnis Cr (EB),50.482044,-104.629025,Regina
162,McMurchy Ave @ Garnet St (EB),50.482054,-104.62642,Regina
163,McMurchy Ave @ Lawson St (EB),50.482048,-104.624571,Regina
164,Angus Rd @ McMurchy Ave (SB),50.48184,-104.62041,Regina
165,Angus Rd @ Reilly Ave (SB),50.47965,-104.62039,Regina
166,Smith St @ 7th Ave N (SB),50.48033,-104.615171,Regina
167,Albert St @ 6th Ave N (SB),50.47846,-104.61837,Regina
168,Albert St @ 5th Ave N (SB),50.4767,-104.61824,Regina
170,Albert St @ 3rd Ave N (SB),50.47366,-104.61825,Regina
172,Albert St @ Avonhurst Dr (SB),50.47031,-104.618251,Regina
173,Albert St @ 1st Ave (SB),50.46734,-104.618251,Regina
174,Albert St @ 3rd Ave (SB),50.46427,-104.61823,Regina
175,Albert St @ 4th Ave (SB),50.4627,-104.61823,Regina
176,Albert St @ 5th Ave (SB),50.46103,-104.61817,Regina
178,Albert St @ 7th Ave (SB),50.45785,-104.61824,Regina
180,11th Ave @ Cornwall St (WB),50.45038,-104.61238,Regina
181,Albert St @ Dewdney Ave (NB),50.45542,-104.61793,Regina
183,Albert St @ 7th Ave (NB),50.45869,-104.617969,Regina
185,Albert St @ 5th Ave (NB),50.46168,-104.61801,Regina
186,Albert St @ 4th Ave (NB),50.46351,-104.61798,Regina
187,Albert St @ 2nd Ave (NB),50.46718,-104.618,Regina
189,Albert St @ Avonhurst Dr (NB),50.47136,-104.61802,Regina
191,Albert St @ 3rd Ave N (NB),50.47429,-104.61792,Regina
193,6th Ave N @ Albert St (WB),50.4789,-104.619069,Regina
194,Angus Rd @ 6th Ave N (NB),50.47923,-104.62029,Regina
195,McMurchy Ave @ Angus Rd (WB),50.48216,-104.620821,Regina
196,McMurchy Ave @ Patton St (WB),50.48216,-104.623229,Regina
197,McMurchy Ave @ Lawson St (WB),50.48217,-104.625649,Regina
198,McMurchy Ave @ Garnet St (WB),50.48215,-104.62813,Regina
199,McMurchy Ave @ McInnis Cres (WB),50.48215,-104.630541,Regina
200,Argyle St N @ McMurchy Ave (NB),50.48238,-104.63256,Regina
201,Sangster Blvd @ Argyle St N (EB),50.487835,-104.632138,Regina
202,Rochdale Blvd @ Sherwood Mall (EB),50.4956,-104.66611,Regina
203,Rochdale Blvd @ Riffel High (EB),50.49565,-104.66305,Regina
204,Rochdale Blvd @ Lakeridge Rd (EB),50.49609,-104.65604,Regina
205,McIntosh St @ Rochdale Blvd (SB),50.49603,-104.65206,Regina
206,McIntosh St @ Donnelly Cr (SB),50.49351,-104.65266,Regina
207,McIntosh St @ Tremaine Ave (SB),50.49215,-104.652899,Regina
208,Dalgliesh Dr @ Kyle St (EB),50.491166,-104.649271,Regina
209,Dalgliesh Dr @ Pasqua Gate (SB),50.4898,-104.643829,Regina
210,Dalgliesh Dr @ Rink Ave (SB),50.48716,-104.64378,Regina
211,Dalgliesh Dr @ Wells St S (WB),50.48584,-104.64722,Regina
212,Dalgliesh Dr @ Cooper Cr (WB),50.48582,-104.650019,Regina
213,McIntosh St @ Dalgliesh Dr (SB),50.48551,-104.652651,Regina
214,McIntosh St @ Rupert Pl (SB),50.48202,-104.652661,Regina
215,McIntosh St @ 7th Ave N (SB),50.48063,-104.65266,Regina
216,Sherwood Dr @ McIntosh St (EB),50.47696,-104.65171,Regina
217,Sherwood Dr @ Edward St (EB),50.47552,-104.642821,Regina
218,Sherwood Dr @ King St (EB),50.47552,-104.63893,Regina
219,Sherwood Dr @ Queen St (EB),50.47553,-104.63635,Regina
220,Argyle St @ Sherwood Dr (SB),50.47474,-104.63274,Regina
221,Elphinstone St @ Avonhurst Dr (SB),50.47368,-104.631241,Regina
222,Elphinstone St @ Patricia Ave (SB),50.4717,-104.631241,Regina
223,Elphinstone St @ McKinley Ave (SB),50.47028,-104.63124,Regina
224,Elphinstone St @ 1st Ave (SB),50.46735,-104.631242,Regina
225,Elphinstone St @ 2nd Ave (SB),50.46574,-104.6312,Regina
226,Elphinstone St @ 3rd Ave (SB),50.46417,-104.63121,Regina
227,Elphinstone St @ 4th Ave (SB),50.46269,-104.63123,Regina
228,Elphinstone St @ 5th Ave (SB),50.46097,-104.63123,Regina
229,Elphinstone St @ 6th Ave (SB),50.45954,-104.63119,Regina
230,7th Ave @ Elphinstone St (EB),50.45825,-104.63062,Regina
231,7th Ave @ Athol St (EB),50.45824,-104.62784,Regina
232,7th Ave @ Cameron St (EB),50.458243,-104.624839,Regina
233,7th Ave @ Rae St (EB),50.458244,-104.62063,Regina
236,Broad St @ Victoria Ave (SB),50.4466,-104.60647,Regina
237,Broad St @ 13th Ave (SB),50.44512,-104.6065,Regina
238,Broad St @ 14th Ave (SB),50.44342,-104.606569,Regina
240,Broad St @ College Ave (SB),50.44009,-104.60655,Regina
241,Broad St @ Broadway Ave (SB),50.43836,-104.60649,Regina
242,Broad St @ Quinn Dr (SB),50.43327,-104.60505,Regina
245,23rd Ave @ Hillsdale St (EB),50.42339,-104.60089,Regina
246,23rd Ave @ Quincy Dr (EB),50.42362,-104.59757,Regina
247,Wascana Pkwy @ 23rd Ave (SB),50.4236,-104.5951,Regina
248,University Dr W @ Classroom Bldg (SB),50.41909,-104.593149,Regina
249,University Dr W @ Riddell Centre (SB),50.41594,-104.59242,Regina
250,Kramer Blvd @ Wascana Pkwy (WB),50.41566,-104.59597,Regina
251,Kramer Blvd @ Darke St (WB),50.41566,-104.59837,Regina
252,Hillsdale St @ Latta St (NB),50.41642,-104.60155,Regina
253,Macpherson Ave @ Hillsdale St (WB),50.41681,-104.604531,Regina
254,Macpherson Ave @ Cowan Cr (WB),50.41677,-104.60747,Regina
255,Parliament Ave @ Massey Rd (WB),50.41554,-104.6096,Regina
256,Parliament Ave @ Bell St (WB),50.41554,-104.61262,Regina
257,Parliament Ave @ Procter Pl (WB),50.41553,-104.61475,Regina
258,Parliament Ave @ Albert St (WB),50.41552,-104.61688,Regina
259,Parliament Ave @ Albert St (WB),50.41548,-104.618919,Regina
260,Parliament Ave @ Rae St (WB),50.41548,-104.62071,Regina
261,Rae St @ Golden Mile (NB),50.41775,-104.62102,Regina
262,Albert St @ 25th Ave (SB),50.41839,-104.61815,Regina
263,Parliament Ave @ Albert St (EB),50.41536,-104.61707,Regina
265,Parliament Ave @ Bell St (EB),50.41535,-104.61201,Regina
266,Massey Rd @ Parliament Ave (NB),50.41586,-104.608969,Regina
267,Macpherson Ave @ Knowles St (EB),50.41672,-104.60499,Regina
268,Kramer Blvd @ Hillsdale St (EB),50.41556,-104.60098,Regina
269,Kramer Blvd @ Centennial St (EB),50.41556,-104.59686,Regina
270,University Dr W @ Riddell Centre (NB),50.41628,-104.59226,Regina
271,University Dr W @ Classroom Bldg (NB),50.41954,-104.59303,Regina
272,23rd Ave @ Wascana Pkwy (WB),50.42419,-104.596451,Regina
273,23rd Ave @ Hillsdale St (WB),50.42352,-104.600389,Regina
277,Broad St @ Lakeshore Dr (NB),50.42909,-104.60238,Regina
279,Broad St @ Quinn Dr (NB),50.43435,-104.605029,Regina
280,Broad St @ Broadway Ave (NB),50.43833,-104.60624,Regina
281,Broad St @ College Ave (NB),50.44131,-104.60635,Regina
283,Broad St @ 14th Ave (NB),50.44446,-104.60631,Regina
284,Broad St @ 13th Ave (NB),50.44577,-104.60636,Regina
286,5th Ave @ Albert St (WB),50.46145,-104.618721,Regina
287,5th Ave @ Rae St (WB),50.46144,-104.62152,Regina
288,5th Ave @ Robinson St (WB),50.46144,-104.62442,Regina
289,5th Ave @ Garnet St (WB),50.46146,-104.627389,Regina
290,5th Ave @ Montague St (WB),50.46144,-104.630181,Regina
291,5th Ave @ Elphinstone St (WB),50.46144,-104.63172,Regina
292,5th Ave @ McTavish St (WB),50.46142,-104.634581,Regina
293,5th Ave @ Queen St (WB),50.46147,-104.63746,Regina
294,5th Ave @ King St (WB),50.46146,-104.638961,Regina
295,Pasqua St @ 5th Ave (NB),50.46184,-104.640881,Regina
296,4th Ave @ Pasqua St (WB),50.46301,-104.641581,Regina
297,1st Ave N @ Alexandra St (WB),50.47103,-104.6443,Regina
298,1st Ave N @ York St (WB),50.47098,-104.64582,Regina
299,1st Ave N @ Arthur St (WB),50.47104,-104.64864,Regina
300,1st Ave N @ Royal St (WB),50.47107,-104.65154,Regina
301,McIntosh St @ 2nd Ave N (NB),50.47273,-104.652481,Regina
302,McIntosh St @ Royal St (NB),50.47457,-104.65248,Regina
303,Sherwood Dr @ McIntosh St (WB),50.47713,-104.65317,Regina
304,Sherwood Dr @ Milne St (WB),50.47712,-104.65716,Regina
305,Sherwood Dr @ Atchison Cr (WB),50.47712,-104.66062,Regina
306,McCarthy Blvd @ Sherwood Dr (NB),50.47734,-104.66385,Regina
307,McCarthy Blvd @ Krivel Cr (NB),50.47954,-104.66382,Regina
308,McCarthy Blvd @ 7th Ave N (NB),50.48122,-104.663829,Regina
309,Rink Ave @ McCarthy Blvd (WB),50.4882,-104.66455,Regina
310,Rink Ave @ Burgess St (WB),50.48803,-104.66845,Regina
311,Rink Ave @ Fyfe St (WB),50.48777,-104.67128,Regina
312,Rink Ave @ Markwell Dr (WB),50.48775,-104.674389,Regina
313,Rink Ave @ Kelsey St (WB),50.48774,-104.679609,Regina
314,Rink Ave @ Nelles St (WB),50.48816,-104.683659,Regina
315,Rink Ave @ Courtney St (WB),50.48841,-104.68731,Regina
316,Dalgliesh Dr @ Courtney St (EB),50.49146,-104.68662,Regina
317,Dalgliesh Dr @ Vanier Dr (EB),50.49148,-104.682409,Regina
318,Dalgliesh Dr @ Battel St (EB),50.491935,-104.67934,Regina
319,Dalgliesh Dr @ Landsdowne Dr (EB),50.49197,-104.67354,Regina
320,Devonshire Dr @ Hopkins Cr (NB),50.49399,-104.67169,Regina
321,Rochdale Blvd @ Devonshire Dr (EB),50.49513,-104.67164,Regina
322,Rochdale Blvd @ Radway St (EB),50.49568,-104.6688,Regina
323,Rochdale Blvd @ Lakewood Crt (WB),50.49574,-104.66633,Regina
324,Rochdale Blvd @ Radway St (WB),50.49575,-104.66914,Regina
325,Rochdale Blvd @ Engle Dr (WB),50.49542,-104.67085,Regina
326,Devonshire Dr @ Rochdale Blvd (SB),50.49463,-104.67201,Regina
327,Dalgliesh Dr @ Devonshire Dr (WB),50.492,-104.672291,Regina
328,Dalgliesh Dr @ Heffernan Dr (WB),50.492034,-104.67553,Regina
329,Dalgliesh Dr @ Arnason St (WB),50.49198,-104.68115,Regina
330,Dalgliesh Dr @ Courtney St (WB),50.4915,-104.68608,Regina
331,Rink Ave @ Courtney St (EB),50.48838,-104.68714,Regina
332,Rink Ave @ Nelles St (EB),50.48791,-104.6826,Regina
333,Rink Ave @ Church Dr (EB),50.4877,-104.677621,Regina
334,Rink Ave @ Markwell Dr (EB),50.4877,-104.673681,Regina
335,Rink Ave @ Burgess St (EB),50.487902,-104.668361,Regina
336,McCarthy Blvd @ Rink Ave (SB),50.48777,-104.66399,Regina
337,McCarthy Blvd @ 7th Ave N (SB),50.48126,-104.66407,Regina
338,McCarthy Blvd @ Krivel Cr (SB),50.47884,-104.66403,Regina
339,Sherwood Dr @ McCarthy Blvd (EB),50.47697,-104.663261,Regina
340,Sherwood Dr @ Hanbidge Cr (EB),50.47701,-104.660089,Regina
341,Sherwood Dr @ Hanbidge Cr (EB),50.477,-104.65542,Regina
342,McIntosh St @ Sherwood Dr (SB),50.47632,-104.652631,Regina
343,McIntosh St @ 3rd Ave N (SB),50.47371,-104.652581,Regina
344,McIntosh St @ 2nd Ave N (SB),50.47221,-104.652539,Regina
345,1st Ave N @ McIntosh St (EB),50.47092,-104.65176,Regina
346,1st Ave N @ Forget St (EB),50.470912,-104.64904,Regina
347,1st Ave N @ Connaught St (EB),50.470913,-104.646211,Regina
348,1st Ave N @ Alexandra St (EB),50.47074,-104.643971,Regina
350,Pasqua St @ 4th Ave (SB),50.462589,-104.641039,Regina
351,5th Ave @ Pasqua St (EB),50.46134,-104.64048,Regina
352,5th Ave @ King St (EB),50.461346,-104.637929,Regina
353,5th Ave @ Princess St (EB),50.461343,-104.635121,Regina
354,5th Ave @ Argyle St (EB),50.461337,-104.63214,Regina
356,5th Ave @ Montague St (EB),50.461337,-104.629168,Regina
357,5th Ave @ Garnet St (EB),50.46137,-104.62628,Regina
358,5th Ave @ Robinson St (EB),50.461308,-104.623616,Regina
359,5th Ave @ Rae St (EB),50.461302,-104.620646,Regina
360,Albert St @ 12th Ave (SB),50.4484,-104.618171,Regina
361,Albert St @ Victoria Ave (SB),50.446739,-104.618171,Regina
362,Albert St @ 13th Ave (SB),50.44517,-104.61819,Regina
363,Albert St @ 14th Ave (SB),50.44366,-104.61813,Regina
364,Albert St @ 15th Ave (SB),50.44202,-104.61815,Regina
365,Albert St @ College Ave (SB),50.44098,-104.61812,Regina
366,Albert St @ 19th Ave (SB),50.4375,-104.61817,Regina
368,Albert St @ 20th Ave (SB),50.43287,-104.618151,Regina
369,Albert St @ McCallum Ave (SB),50.43133,-104.61815,Regina
370,Albert St @ 21st Ave (SB),50.42961,-104.61813,Regina
372,Albert St @ 22nd Ave (SB),50.42636,-104.618149,Regina
374,23rd Ave @ Albert St (EB),50.42339,-104.61733,Regina
375,Memorial Way @ Wascana Rehab (EB),50.42396,-104.61083,Regina
376,Scott St @ Lamont Cr (SB),50.42267,-104.608446,Regina
377,Jubilee Ave @ Scott St (EB),50.42095,-104.60773,Regina
378,Jubilee Ave @ Turgeon Cr (EB),50.42135,-104.604741,Regina
382,University Dr E @ First Nations Way (NB),50.418369,-104.583718,Regina
383,Wascana Pkwy @ Kramer Blvd (SB),50.41508,-104.59571,Regina
384,Saskatchewan Polytechnic @ Main Campus (NB),50.40753,-104.58188,Regina
385,Saskatchewan Polytechnic @ Parkway Building (NB),50.40698,-104.5756,Regina
387,Jubilee Ave @ Hillsdale St (WB),50.42179,-104.60253,Regina
388,Jubilee Ave @ Turgeon Cr (WB),50.42112,-104.60567,Regina
389,Jubilee Ave @ Scott St (WB),50.42103,-104.60796,Regina
390,Memorial Way @ Wascana Rehab (WB),50.42401,-104.61035,Regina
391,Albert St @ 23rd Ave (NB),50.42438,-104.61795,Regina
392,Albert St @ 22nd Ave (NB),50.42715,-104.61797,Regina
394,Albert St @ 21st Ave (NB),50.43041,-104.618,Regina
395,Albert St @ McCallum Ave (NB),50.43197,-104.618049,Regina
396,Albert St @ 20th Ave (NB),50.43288,-104.618029,Regina
398,Albert St @ 19th Ave (NB),50.43795,-104.61798,Regina
400,Albert St @ College Ave (NB),50.44125,-104.61807,Regina
401,Albert St @ 15th Ave (NB),50.44277,-104.618079,Regina
402,Albert St @ 14th Ave (NB),50.44429,-104.61809,Regina
403,Albert St @ 13th Ave (NB),50.44611,-104.618069,Regina
404,Albert St @ Victoria Ave (NB),50.44819,-104.617991,Regina
405,7th Ave @ Albert St (WB),50.45835,-104.61881,Regina
406,7th Ave @ Rae St (WB),50.45833,-104.621539,Regina
407,7th Ave @ Robinson St (WB),50.45832,-104.62444,Regina
408,7th Ave @ Garnet St (WB),50.45829,-104.62729,Regina
410,Elphinstone St @ 7th Ave (NB),50.45894,-104.63112,Regina
411,Elphinstone St @ 5th Ave (NB),50.46183,-104.63114,Regina
412,Elphinstone St @ 4th Ave (NB),50.46327,-104.63114,Regina
413,Elphinstone St @ 3rd Ave (NB),50.46489,-104.63113,Regina
414,Elphinstone St @ 2nd Ave (NB),50.4665,-104.63112,Regina
415,Elphinstone St @ 1st Ave (NB),50.46807,-104.631129,Regina
416,Elphinstone St @ McKinley Ave (NB),50.47002,-104.63113,Regina
417,Elphinstone St @ Patricia Ave (NB),50.47277,-104.63112,Regina
419,Sherwood Dr @ Argyle St N (WB),50.47563,-104.63343,Regina
420,Sherwood Dr @ Queen St (WB),50.4756,-104.63674,Regina
421,Sherwood Dr @ Carey St (WB),50.47562,-104.638901,Regina
423,Sherwood Dr @ Ellison Cr (WB),50.47594,-104.64409,Regina
425,Sherwood Dr @ Stapleford Cr (WB),50.4769,-104.649049,Regina
426,McIntosh St @ Sherwood Dr (NB),50.47761,-104.652451,Regina
427,McIntosh St @ Alcove Pl (NB),50.47925,-104.652491,Regina
428,McIntosh St @ Rupert Pl (NB),50.48256,-104.652471,Regina
429,McIntosh St @ Dalgliesh Dr (NB),50.48542,-104.6525,Regina
430,Dalgliesh Dr @ Cooper Cr (EB),50.48578,-104.64778,Regina
431,Dalgliesh Dr @ Kennedy Cr (EB),50.4861,-104.644,Regina
432,Dalgliesh Dr @ Rink Ave (NB),50.48786,-104.6437,Regina
433,Dalgliesh Dr @ Wheeler Cr (NB),50.49064,-104.643691,Regina
434,Dalgliesh Dr @ Wells St (WB),50.49126,-104.64764,Regina
435,Dalgliesh Dr @ Kyle St (WB),50.49124,-104.65028,Regina
436,McIntosh St @ Tremaine Ave (NB),50.49291,-104.652601,Regina
437,McIntosh St @ Juniper Dr (NB),50.49453,-104.652331,Regina
438,McIntosh St @ Marigold Dr (NB),50.49601,-104.65189,Regina
439,Rochdale Blvd @ McIntosh St (WB),50.49653,-104.65302,Regina
440,Rochdale Blvd @ Lakeridge Rd (WB),50.49603,-104.658,Regina
441,Rochdale Blvd @ McCarthy Blvd (WB),50.4958,-104.66263,Regina
442,Rochdale Blvd @ McCarthy Blvd (WB),50.49574,-104.66496,Regina
443,Sherwood Dr @ Herman Crescent (WB),50.48112,-104.70596,Regina
444,Sherwood Dr @ Fairway Rd (EB),50.481307,-104.700784,Regina
445,Sherwood Dr @ Warwick Dr (EB),50.481685,-104.697599,Regina
446,Sherwood Dr @ Doiron Rd (EB),50.4815,-104.69486,Regina
447,Sherwood Dr @ Venture Rd (EB),50.48091,-104.689909,Regina
448,Sherwood Dr @ Goldie St (EB),50.48095,-104.68439,Regina
449,Sherwood Dr @ Dorothy St (EB),50.48059,-104.681849,Regina
450,Dorothy St @ Sherwood Dr (SB),50.48004,-104.68167,Regina
452,1060 Dorothy St (SB),50.47669,-104.682771,Regina
453,Dorothy St @ 1st Ave N (SB),50.47522,-104.68273,Regina
454,1st Ave N @ Greenwood St (EB),50.47505,-104.67904,Regina
455,1st Ave N @ Greenwood Cr (EB),50.47504,-104.67598,Regina
458,7th Ave N @ Sherwood Dr (NB),50.47944,-104.66865,Regina
459,7th Ave N @ McCarthy Blvd (EB),50.480689,-104.664634,Regina
460,7th Ave N @ Champ Cr (EB),50.48088,-104.658761,Regina
461,7th Ave N @ Milne St (EB),50.48087,-104.65553,Regina
462,Stapleford Cr @ Sherwood Dr (NB),50.47703,-104.648361,Regina
463,Stapleford Cr @ Eddy St (NB),50.479432,-104.645828,Regina
464,Stapleford Cr @ Drope St (EB),50.480437,-104.64326,Regina
465,Donahue Ave @ Pasqua St (EB),50.480582,-104.640491,Regina
466,Donahue Ave @ Derby St (EB),50.48062,-104.63674,Regina
467,Argyle St N @ Donahue Ave (SB),50.48028,-104.63271,Regina
468,6th Ave N @ Argyle St N (EB),50.47923,-104.63203,Regina
470,Garnet St @ 6th Ave N (SB),50.478997,-104.627029,Regina
471,Garnet St @ Woodward Ave (SB),50.47775,-104.62693,Regina
472,Garnet St @ 4th Ave N (SB),50.47542,-104.626901,Regina
473,Garnet St @ 3rd Ave N (SB),50.47419,-104.62691,Regina
474,Avonhurst Dr @ Patricia Ave (EB),50.47203,-104.62662,Regina
475,Avonhurst Dr @ Retallack St (EB),50.47068,-104.621871,Regina
480,Avonhurst Dr @ Albert St (WB),50.47094,-104.61899,Regina
481,Avonhurst Dr @ Retallack St (WB),50.47082,-104.6229,Regina
482,Avonhurst Dr @ Patricia Ave (WB),50.4721,-104.626419,Regina
483,Garnet St @ Avonhurst Dr (NB),50.47316,-104.6268,Regina
484,Garnet St @ 3rd Ave N (NB),50.47423,-104.62681,Regina
485,Garnet St @ 4th Ave N (NB),50.47598,-104.6268,Regina
486,Garnet St @ Woodward Ave (NB),50.47875,-104.626819,Regina
487,6th Ave N @ Garnet St (WB),50.47937,-104.62934,Regina
488,Argyle St N @ 6th Ave N (NB),50.48008,-104.632559,Regina
490,Donahue Ave @ Derby St (WB),50.48068,-104.636861,Regina
491,Stapleford Cr @ Pasqua St (WB),50.48068,-104.641579,Regina
492,Stapleford Cr @ Drope St (WB),50.48029,-104.64415,Regina
493,Stapleford Cr @ Eddy St (WB),50.47911,-104.64655,Regina
494,7th Ave N @ McIntosh St (WB),50.48098,-104.65304,Regina
495,7th Ave N @ Pickard St (WB),50.48094,-104.65801,Regina
496,7th Ave N @ Hanley Cr (WB),50.48092,-104.66187,Regina
497,7th Ave N @ McCarthy Blvd (WB),50.481085,-104.66474,Regina
504,Dorothy St @ 1st Ave N (NB),50.475281,-104.682562,Regina
505,Dorothy St @ Murphy Cr (NB),50.477766,-104.68252,Regina
506,Dorothy St @ Westbrook Ct (NB),50.480008,-104.68146,Regina
507,Sherwood Dr @ Dorothy St (WB),50.48071,-104.68175,Regina
508,Sherwood Dr @ Goldie St (WB),50.48106,-104.68596,Regina
509,Sherwood Dr @ Courtney St (WB),50.48107,-104.68929,Regina
510,Sherwood Dr @ Discovery Rd (WB),50.48119,-104.69118,Regina
511,Sherwood Dr @ Doiron Rd (WB),50.48183,-104.696431,Regina
512,Sherwood Dr @ Fairway Rd (WB),50.48126,-104.702181,Regina
513,Dewdney Ave @ Cavendish St (EB),50.45517,-104.55885,Regina
514,9th Ave @ Cavendish St (WB),50.4535,-104.55844,Regina
515,Oxford St @ 10th Ave (SB),50.4516,-104.56067,Regina
516,Cambridge Ave @ Oxford St (EB),50.450263,-104.560188,Regina
517,Cambridge Ave @ Cavendish St (EB),50.45032,-104.55732,Regina
518,Cambridge Ave @ Glencairn Rd (EB),50.45034,-104.55448,Regina
519,Fleet St @ Cambridge Ave (SB),50.44996,-104.549181,Regina
520,University Park Dr @ Vic Sq Mall (SB),50.44485,-104.549331,Regina
521,Quance St @ University Park Dr (EB),50.44356,-104.54826,Regina
522,Quance St @ Heseltine Gate (EB),50.44414,-104.545609,Regina
523,Quance St @ Coleman St (EB),50.44605,-104.542021,Regina
524,Quance St @ Westfair Rd (EB),50.445096,-104.537568,Regina
525,Quance St @ Tregarva Dr (EB),50.44353,-104.53433,Regina
526,Quance St @ Prince Of Wales Dr (EB),50.443527,-104.531827,Regina
528,Westfair Rd @ Superstore (WB),50.44552,-104.52936,Regina
529,Prince Of Wales Dr @ Westfair Rd (NB),50.44515,-104.532771,Regina
530,Prince Of Wales Dr @ Westfair Rd (SB),50.44431,-104.533151,Regina
531,Quance St @ Prince Of Wales Dr (WB),50.44358,-104.53393,Regina
532,Quance St @ Westfair Rd (WB),50.44524,-104.5376,Regina
533,Coleman Cr @ Eastgate Dr (NB),50.448771,-104.540473,Regina
534,Fines Dr @ Fines Dr (NB),50.44987,-104.53932,Regina
535,Brown St @ Thomson Ave (NB),50.452249,-104.540478,Regina
536,Brown St @ Dewdney Ave (NB),50.45556,-104.54052,Regina
537,Brown St @ Mackenzie Cr (NB),50.457739,-104.54063,Regina
538,7th Ave E @ Brown St (EB),50.459293,-104.540732,Regina
539,7th Ave E @ McVeety Dr (EB),50.45945,-104.537451,Regina
540,McVeety Dr @ Barton Pl (EB),50.45654,-104.536,Regina
541,McVeety Dr @ Swan Pl (EB),50.45657,-104.532359,Regina
542,McVeety Dr @ Creekside Rd (NB),50.4588,-104.529649,Regina
543,McVeety Dr @ Degelman Dr (NB),50.46024,-104.53054,Regina
544,Wadey Dr @ Deutsch Dr (NB),50.46327,-104.53086,Regina
545,Jenkins Dr @ Cormorant Dr (WB),50.46462,-104.53149,Regina
546,Jenkins Dr @ Cherry Dr (WB),50.46443,-104.53588,Regina
547,Graham Rd @ Jenkins Dr (WB),50.463293,-104.539084,Regina
548,Graham Rd @ Hartman Cr (WB),50.46336,-104.542481,Regina
549,Graham Rd @ Hall Ave (SB),50.46092,-104.54627,Regina
550,Bentley Dr @ 7th Ave E (SB),50.45833,-104.545403,Regina
551,Dewdney Ave @ Bentley Dr (WB),50.45517,-104.545411,Regina
552,Dewdney Ave @ Fleet St (WB),50.45522,-104.54938,Regina
553,Cannon St @ Nagel Cr (NB),50.45638,-104.55256,Regina
554,Cannon St @ Scrivener Cr (NB),50.45976,-104.552531,Regina
555,Cannon St @ Young Cr (NB),50.46126,-104.55254,Regina
556,Cavendish St @ Armstrong Bay (WB),50.46088,-104.55664,Regina
557,Cavendish St @ 7th Ave E (SB),50.45806,-104.55821,Regina
558,Dewdney Ave @ Cavendish St (WB),50.4552,-104.55841,Regina
559,Dewdney Ave @ Oxford St (WB),50.45523,-104.5611,Regina
560,Dewdney Ave @ Rupert St (WB),50.45523,-104.56695,Regina
561,Dewdney Ave @ Lacon St (WB),50.45522,-104.56991,Regina
562,Park St @ Dewdney Ave (SB),50.45461,-104.57247,Regina
563,Park St @ 9th Ave (SB),50.45332,-104.57237,Regina
564,Park St @ 10th Ave (SB),50.45156,-104.572339,Regina
565,Park St @ 11th Ave (SB),50.44987,-104.57238,Regina
566,Victoria Ave @ Park St (WB),50.44725,-104.57315,Regina
568,Victoria Ave @ Fleury St (WB),50.44728,-104.57774,Regina
570,Victoria Ave @ McAra St (WB),50.44724,-104.581909,Regina
571,Victoria Ave @ Lindsay St (WB),50.447222,-104.584815,Regina
572,Victoria Ave @ Edgar St (WB),50.44722,-104.58855,Regina
574,Victoria Ave @ Atkinson St (WB),50.44724,-104.59279,Regina
575,Victoria Ave @ Winnipeg St (WB),50.44726,-104.595699,Regina
576,Victoria Ave @ Montreal St (WB),50.44727,-104.59823,Regina
577,Victoria Ave @ Ottawa St (WB),50.44729,-104.60106,Regina
579,Victoria Ave @ Osler St (WB),50.44736,-104.60568,Regina
580,Albert St @ 23rd Ave (SB),50.42293,-104.618121,Regina
583,25th Ave @ Albert St (WB),50.41874,-104.61883,Regina
584,Rae St @ Golden Mile (SB),50.41731,-104.62108,Regina
585,Parliament Ave @ Rae St (EB),50.4154,-104.62043,Regina
586,Massey Rd @ Parliament Ave (SB),50.41493,-104.60905,Regina
587,Massey Rd @ Parker Ave (SB),50.41284,-104.609051,Regina
588,Massey Rd @ Balfour Dr (SB),50.40973,-104.609059,Regina
589,Grant Dr @ Durham Dr (EB),50.407884,-104.607731,Regina
590,Grant Dr @ Castle Rd (EB),50.407904,-104.60235,Regina
591,Grant Dr @ Grant Rd (EB),50.40743,-104.598339,Regina
592,Grant Rd @ Capitol Rd (SB),50.40463,-104.60037,Regina
593,Grant Rd @ Castle Rd (SB),50.40211,-104.60241,Regina
594,Grant Rd @ Orchard Rd (WB),50.401389,-104.60637,Regina
595,Grant Rd @ Shannon Rd (WB),50.40169,-104.6119,Regina
596,Gordon Rd @ Grant Rd (WB),50.40465,-104.613819,Regina
597,Gordon Rd @ Richardson Cr (WB),50.40459,-104.61646,Regina
598,Gordon Rd @ Rae St (WB),50.4046,-104.6207,Regina
599,Lockwood Rd @ Gordon Rd (SB),50.40447,-104.62572,Regina
600,Lockwood Rd @ Lincoln Dr (SB),50.40256,-104.625704,Regina
601,Plainsview Dr @ Lockwood Rd (EB),50.40129,-104.6248,Regina
602,Southland Mall @ Plainsview Rd (WB),50.40198,-104.62468,Regina
603,Lockwood Rd @ Lincoln Dr (NB),50.40265,-104.62557,Regina
604,Lockwood Rd @ Gordon Rd (NB),50.40421,-104.62556,Regina
605,Gordon Rd @ Montague St (WB),50.40553,-104.63017,Regina
606,Gordon Rd @ Argyle St (WB),50.40547,-104.63327,Regina
607,Queen St @ Gordon Rd (NB),50.40601,-104.636841,Regina
608,Sunset Dr @ Queen St (EB),50.40876,-104.6362,Regina
609,Sunset Dr @ McTavish St (EB),50.408734,-104.633361,Regina
610,Montague St @ Sunset Dr (NB),50.40912,-104.6296,Regina
611,Montague St @ 29th Ave (NB),50.41252,-104.62962,Regina
612,Parliament Ave @ Montague St (EB),50.415388,-104.629189,Regina
613,Parliament Ave @ Garnet St (EB),50.415387,-104.62636,Regina
614,Parliament Ave @ Robinson St (EB),50.415385,-104.623451,Regina
615,Albert St @ 25th Ave (NB),50.41913,-104.617911,Regina
618,Victoria Ave @ Broad St (EB),50.447123,-104.605639,Regina
620,Victoria Ave @ Ottawa St (EB),50.44716,-104.60004,Regina
621,Victoria Ave @ Montreal St (EB),50.44712,-104.598289,Regina
622,Victoria Ave @ Winnipeg St (EB),50.44712,-104.59465,Regina
623,Victoria Ave @ Atkinson St (EB),50.44712,-104.59186,Regina
624,Victoria Ave @ Reynolds St (EB),50.44717,-104.58878,Regina
625,Victoria Ave @ Lindsay St (EB),50.44712,-104.58454,Regina
626,Victoria Ave @ McAra St (EB),50.44711,-104.582001,Regina
628,Victoria Ave @ Harvey St (EB),50.44716,-104.577559,Regina
629,Victoria Ave @ Abbott St (EB),50.44717,-104.574761,Regina
630,Park St @ Service Rd (NB),50.44795,-104.57212,Regina
631,Park St @ 11th Ave (NB),50.45099,-104.57216,Regina
632,Park St @ 10th Ave (NB),50.45229,-104.572179,Regina
633,Park St @ 9th Ave (NB),50.45385,-104.572191,Regina
634,Dewdney Ave @ Park St (EB),50.455114,-104.57142,Regina
635,Dewdney Ave @ Lacon St (EB),50.455117,-104.568931,Regina
636,Dewdney Ave @ Rupert St (EB),50.455117,-104.566011,Regina
637,Dewdney Ave @ Grosvenor St (EB),50.455121,-104.5616,Regina
638,Garrett Ave @ Shaw St (WB),50.44959,-104.66282,Regina
640,11th Ave @ Empress St (EB),50.450512,-104.653021,Regina
641,11th Ave @ Royal St (EB),50.450508,-104.650211,Regina
642,11th Ave @ Forget St (EB),50.450502,-104.648311,Regina
643,11th Ave @ Connaught St (EB),50.450504,-104.64595,Regina
644,11th Ave @ Alexandra St (EB),50.450504,-104.644568,Regina
646,13th Ave @ Pasqua St (EB),50.445392,-104.640488,Regina
647,13th Ave @ King St (EB),50.445445,-104.637929,Regina
648,13th Ave @ Princess St (EB),50.445454,-104.63507,Regina
649,13th Ave @ Argyle St (EB),50.44546,-104.632121,Regina
650,13th Ave @ Montague St (EB),50.445455,-104.629149,Regina
651,13th Ave @ Garnet St (EB),50.44546,-104.626391,Regina
652,13th Ave @ Robinson St (EB),50.445474,-104.62335,Regina
653,13th Ave @ Rae St (EB),50.445468,-104.620601,Regina
654,13th Ave @ Angus St (EB),50.445466,-104.619118,Regina
656,11th Ave @ Halifax St (EB),50.450323,-104.602917,Regina
657,11th Ave @ Ottawa St (EB),50.45036,-104.60003,Regina
658,11th Ave @ Montreal St (EB),50.45028,-104.59722,Regina
659,Winnipeg St @ 11th Ave (NB),50.45072,-104.595099,Regina
660,Winnipeg St @ Saskatchewan Dr (NB),50.45232,-104.59512,Regina
662,Winnipeg St @ Dewdney Ave (NB),50.45467,-104.595122,Regina
663,Winnipeg St @ 8th Ave (NB),50.45708,-104.595111,Regina
664,Winnipeg St @ 7th Ave (NB),50.458519,-104.59512,Regina
665,6th Ave @ Winnipeg St (EB),50.45973,-104.59458,Regina
666,6th Ave @ Atkinson St (EB),50.459781,-104.591699,Regina
667,6th Ave @ Broder St (EB),50.45982,-104.59048,Regina
668,6th Ave @ Edgar St (EB),50.45982,-104.5874,Regina
669,6th Ave @ Lindsay St (EB),50.45983,-104.58453,Regina
673,4th Ave @ Park St (WB),50.462999,-104.573349,Regina
674,4th Ave @ Fleury St (WB),50.462998,-104.577439,Regina
675,4th Ave @ McDonald St (WB),50.462997,-104.583199,Regina
676,4th Ave @ Lindsay St (WB),50.46297,-104.58563,Regina
677,4th Ave @ Edgar St (WB),50.46295,-104.5887,Regina
678,4th Ave @ Broder St (WB),50.46297,-104.591499,Regina
679,4th Ave @ Winnipeg St (WB),50.46296,-104.59487,Regina
680,Winnipeg St @ 5th Ave (SB),50.46128,-104.59528,Regina
681,Winnipeg St @ 6th Ave (SB),50.45956,-104.595249,Regina
682,Winnipeg St @ 7th Ave (SB),50.45802,-104.595201,Regina
683,Winnipeg St @ 8th Ave (SB),50.45692,-104.59521,Regina
684,Winnipeg St @ Dewdney Ave (SB),50.45445,-104.59522,Regina
685,Winnipeg St @ Saskatchewan Dr (SB),50.45159,-104.595191,Regina
686,11th Ave @ Winnipeg St (WB),50.450416,-104.595642,Regina
687,11th Ave @ Montreal St (WB),50.45038,-104.59841,Regina
688,11th Ave @ Ottawa St (WB),50.450424,-104.601739,Regina
689,11th Ave @ Halifax St (WB),50.450425,-104.603939,Regina
690,11th Ave @ Broad St (WB),50.450427,-104.60577,Regina
691,13th Ave @ Albert St (WB),50.44556,-104.61873,Regina
692,13th Ave @ Rae St (WB),50.44552,-104.62154,Regina
693,13th Ave @ Robinson St (WB),50.44552,-104.62445,Regina
694,13th Ave @ Garnet St (WB),50.44553,-104.62736,Regina
695,13th Ave @ Montague St (WB),50.44555,-104.63024,Regina
696,13th Ave @ Elphinstone St (WB),50.44557,-104.63149,Regina
697,13th Ave @ McTavish St (WB),50.44555,-104.63453,Regina
698,13th Ave @ Queen St (WB),50.44553,-104.63742,Regina
699,13th Ave @ King St (WB),50.44555,-104.63883,Regina
700,13th Ave @ Pasqua St (WB),50.44555,-104.64148,Regina
702,Alexandra St @ 11th Ave (NB),50.45092,-104.64374,Regina
703,10th Ave @ York St (WB),50.45216,-104.645209,Regina
704,10th Ave @ Connaught St (WB),50.45215,-104.64649,Regina
705,10th Ave @ Arthur St (WB),50.45217,-104.64871,Regina
706,10th Ave @ Royal St (WB),50.45215,-104.65139,Regina
707,Empress St @ 10th Ave (SB),50.45182,-104.65361,Regina
708,Empress St @ 11th Ave (SB),50.45084,-104.65359,Regina
710,Cavendish St @ Bradley Ave (NB),50.45676,-104.558112,Regina
711,Cavendish St @ 7th Ave E (NB),50.45867,-104.558128,Regina
712,Cavendish St @ Rootman Ave (NB),50.46035,-104.558129,Regina
713,Cavendish St @ Cooksley Bay (EB),50.461024,-104.555255,Regina
714,Cannon St @ Cavendish St (SB),50.461307,-104.55272,Regina
715,Cannon St @ Rosen Cr (SB),50.45974,-104.55258,Regina
716,Cannon St @ 7th Ave E (SB),50.45788,-104.552658,Regina
717,Dewdney Ave @ Cannon St (EB),50.45514,-104.551999,Regina
718,Dewdney Ave @ Fleet St (EB),50.455115,-104.54932,Regina
719,Bentley Dr @ Dewdney Ave (NB),50.45546,-104.54483,Regina
720,Graham Rd @ 7th Ave E (NB),50.459036,-104.545337,Regina
721,Graham Rd @ Hall Ave (NB),50.461419,-104.546353,Regina
722,Graham Rd @ Pawson St (EB),50.463102,-104.543407,Regina
723,Graham Rd @ Brown St (EB),50.463442,-104.541509,Regina
724,Jenkins Dr @ Graham Rd (NB),50.46346,-104.53816,Regina
725,Jenkins Dr @ Middleton Cr (EB),50.464481,-104.534854,Regina
726,Wadey Dr @ Jenkins Dr (SB),50.46428,-104.53087,Regina
727,Wadey Dr @ Bercovich Cr (SB),50.4627,-104.530829,Regina
728,Wadey Dr @ 7th Ave E (SB),50.46117,-104.53058,Regina
729,McVeety Dr @ Hammstrom Way (SB),50.45837,-104.529893,Regina
730,McVeety Dr @ Swan Pl (WB),50.45636,-104.53462,Regina
731,McVeety Dr @ Gould Bay (NB),50.45914,-104.537109,Regina
732,Brown St @ 7th Ave E (SB),50.45884,-104.54121,Regina
733,Brown St @ Mackenzie Way (SB),50.45733,-104.54063,Regina
734,Brown St @ Dewdney Ave (SB),50.454728,-104.540614,Regina
735,Brown St @ Peart Cres (SB),50.45298,-104.540625,Regina
736,Fines Dr @ Thomson Ave (SB),50.4515,-104.53941,Regina
737,Fines Dr @ Fines Dr (WB),50.449278,-104.539946,Regina
738,Quance St @ Starlite St (EB),50.44534,-104.544489,Regina
739,Quance St @ Coleman St (EB),50.44607,-104.53989,Regina
740,Quance St @ Coleman St (WB),50.44612,-104.541662,Regina
741,Quance St @ Starlite St (SB),50.44476,-104.54517,Regina
742,University Park Dr @ Quance St (NB),50.44416,-104.54913,Regina
743,University Park Dr @ Vic Square (NB),50.44592,-104.54915,Regina
744,Fleet St @ North Service Rd (NB),50.448609,-104.549126,Regina
745,Fleet St @ Fines Dr (NB),50.449614,-104.549111,Regina
746,Cambridge Ave @ Milford Cres (WB),50.45041,-104.5513,Regina
747,Cambridge Ave @ Glencairn Rd (WB),50.450435,-104.555519,Regina
748,Cambridge Ave @ Cavendish St (WB),50.45041,-104.558621,Regina
749,Oxford St @ 10th Ave (NB),50.45226,-104.560568,Regina
750,Oxford St @ Cambridge Ave (NB),50.450769,-104.560586,Regina
751,9th Ave @ Oxford St (EB),50.453429,-104.56007,Regina
752,Cavendish St @ 9th Ave (NB),50.45396,-104.55782,Regina
753,Parliament Ave @ Rae St (WB),50.4155,-104.621511,Regina
754,Parliament Ave @ Robinson St (WB),50.41548,-104.62433,Regina
755,Parliament Ave @ Garnet St (WB),50.41549,-104.62681,Regina
756,Montague St @ Parliament Ave (SB),50.41518,-104.62976,Regina
757,Montague St @ 28th Ave (SB),50.41352,-104.629721,Regina
758,Montague St @ 29th Ave (SB),50.41145,-104.62972,Regina
759,Montague St @ Simpson Rd (SB),50.41017,-104.62973,Regina
760,Sunset Dr @ Montague St (WB),50.4088,-104.63022,Regina
761,Sunset Dr @ Argyle St (WB),50.40886,-104.63305,Regina
762,Sunset Dr @ Queen St (WB),50.40884,-104.63663,Regina
763,Queen St @ Prospect Pl (SB),50.40687,-104.63699,Regina
764,Gordon Rd @ Queen St (WB),50.40551,-104.63788,Regina
765,Pasqua St @ Gordon Rd (SB),50.40507,-104.640991,Regina
766,Pasqua St @ Lincoln Dr (SB),50.40384,-104.640951,Regina
767,Ryan Rd @ Pasqua St (EB),50.40205,-104.64028,Regina
768,Ryan Rd @ Queen St (EB),50.402018,-104.637221,Regina
769,Gordon Rd @ Queen St (EB),50.40539,-104.63654,Regina
770,Gordon Rd @ McTavish St (EB),50.40538,-104.63343,Regina
771,Gordon Rd @ Montague St (EB),50.4054,-104.630269,Regina
772,Gordon Rd @ Lockwood Rd (EB),50.40497,-104.62509,Regina
773,Gordon Rd @ Rae St (EB),50.40478,-104.62294,Regina
774,Gordon Rd @ Albert St (EB),50.40453,-104.61693,Regina
775,Grant Rd @ Gordon Rd (SB),50.40424,-104.61334,Regina
776,Grant Rd @ Marsh Cres (SB),50.4029,-104.61335,Regina
777,Grant Rd @ Shannon Rd (EB),50.40183,-104.61228,Regina
778,Grant Rd @ Wesley Rd (EB),50.401287,-104.609101,Regina
779,Grant Rd @ Chisholm Rd (EB),50.40129,-104.606561,Regina
780,Grant Rd @ Birchwood Rd (EB),50.40134,-104.60416,Regina
781,Grant Rd @ Norris Rd (NB),50.401847,-104.602588,Regina
782,Grant Rd @ McDougall Cres (NB),50.40393,-104.6002,Regina
783,Grant Rd @ Shannon Rd (NB),50.40624,-104.59908,Regina
784,Grant Dr @ Grant Rd (WB),50.407615,-104.598515,Regina
785,Grant Dr @ Cowburn Cres (WB),50.408008,-104.601661,Regina
786,Grant Dr @ Castle Rd (WB),50.40796,-104.60405,Regina
787,Massey Rd @ Grant Dr (NB),50.40867,-104.60891,Regina
788,Massey Rd @ Balfour Dr (NB),50.41084,-104.60898,Regina
789,Massey Rd @ Parker Ave (NB),50.41223,-104.60898,Regina
790,Massey Rd @ Davis Pl (NB),50.41463,-104.608989,Regina
791,14th Ave @ Broad St (EB),50.44392,-104.60575,Regina
792,Halifax St @ 14th Ave (SB),50.44371,-104.60348,Regina
793,Halifax St @ 15th Ave (SB),50.44221,-104.60348,Regina
794,Halifax St @ College Ave (SB),50.44104,-104.603511,Regina
795,College Ave @ Saint John St (EB),50.44071,-104.601609,Regina
796,College Ave @ Ottawa St (EB),50.44072,-104.599941,Regina
797,College Ave @ Montreal St (EB),50.44072,-104.59722,Regina
798,College Ave @ Wallace St (EB),50.44085,-104.59324,Regina
799,College Ave @ Broder St (EB),50.44086,-104.59049,Regina
800,College Ave @ Edgar St (EB),50.44086,-104.58744,Regina
801,College Ave @ Lindsay St (EB),50.44086,-104.58453,Regina
802,College Ave @ McAra St (EB),50.44086,-104.581821,Regina
803,College Ave @ Francis St (EB),50.44085,-104.57887,Regina
804,College Ave @ Abbott Rd (EB),50.44086,-104.57703,Regina
805,Park St @ Arcola Ave (NB),50.4421,-104.572099,Regina
806,14th Ave @ Park St (EB),50.44403,-104.57173,Regina
807,14th Ave @ Campus Regina (EB),50.44402,-104.567089,Regina
808,Froom Cres @ 14th Ave (SB),50.44364,-104.56481,Regina
809,Dixon Cres @ Froom Cres (WB),50.44179,-104.566139,Regina
810,Dixon Cres @ Arcola Ave (SB),50.44012,-104.56857,Regina
811,University Park Dr @ Cunning Cr (NB),50.43489,-104.55458,Regina
812,Truesdale Dr @ University Pk Dr (WB),50.43586,-104.55476,Regina
813,Truesdale Dr @ Ehman Bay (WB),50.43643,-104.557281,Regina
814,Truesdale Dr @ Blair Bay (NB),50.4379,-104.558391,Regina
815,Truesdale Dr @ Wagman Dr (NB),50.43939,-104.55837,Regina
816,Truesdale Dr @ Laurier Cr (NB),50.44096,-104.558349,Regina
817,Truesdale Dr @ Mahony Cres (NB),50.442413,-104.558129,Regina
818,Truesdale Dr @ Boyd St (NB),50.44399,-104.55673,Regina
819,Quance St @ Vic Square Mall (EB),50.44387,-104.55073,Regina
820,Arens Rd @ Prince Of Wales Dr (WB),50.43646,-104.53631,Regina
821,Arens Rd @ Parkland Dr (WB),50.43858,-104.53994,Regina
822,Arens Rd @ Heseltine Rd (WB),50.43988,-104.543141,Regina
823,Arens Rd @ Crocus Cres (WB),50.44061,-104.54712,Regina
824,University Park Dr @ Elderkin Dr (SB),50.43708,-104.55338,Regina
825,Truesdale Dr @ Cunning Cr (EB),50.43498,-104.550449,Regina
827,Truesdale Dr @ Fowler St (EB),50.433895,-104.543319,Regina
828,Truesdale Dr @ Harding St (EB),50.432698,-104.538974,Regina
829,Woodhams Rd @ Prince Of Wales Dr (EB),50.429,-104.53658,Regina
830,Woodhams Rd @ SS Leisure Centre (EB),50.428881,-104.535271,Regina
831,Assiniboine Ave @ Prince Of Wales (WB),50.42159,-104.54485,Regina
832,Assiniboine Ave @ Philip Rd (WB),50.42164,-104.5468,Regina
833,Assiniboine Ave @ Balmoral Gate (WB),50.42308,-104.55067,Regina
834,Assiniboine Ave @ Banberry Dr (WB),50.42571,-104.55615,Regina
835,Assiniboine Ave @ University Pk Dr (WB),50.42609,-104.56223,Regina
836,Assiniboine Ave @ Windfield Rd (WB),50.42608,-104.57044,Regina
837,Park St @ Assiniboine Ave (NB),50.42689,-104.57209,Regina
838,Assiniboine Ave @ Park St (EB),50.42598,-104.5716,Regina
839,Windfield Rd @ Assiniboine Ave (NB),50.4264,-104.5681,Regina
840,Windfield Rd @ Windfield Gate (NB),50.42892,-104.56694,Regina
841,Windfield Rd @ Mayfield Rd (NB),50.43055,-104.56534,Regina
842,Windfield Rd @ Metcalfe Rd (NB),50.43186,-104.56393,Regina
843,Michener Dr @ Windfield Rd (EB),50.4331,-104.56203,Regina
844,Michener Dr @ Houston Rd (EB),50.43187,-104.559651,Regina
845,University Park Dr @ Laval Dr (NB),50.4318,-104.55796,Regina
846,Park St @ Broadway Ave (SB),50.43996,-104.572469,Regina
847,Park St @ 18th Ave (SB),50.43776,-104.5725,Regina
848,Park St @ 19th Ave (SB),50.43544,-104.57249,Regina
849,Douglas Ave @ Park St (WB),50.43326,-104.573229,Regina
850,Douglas Ave @ Fleury St (WB),50.43327,-104.576961,Regina
851,Douglas Ave @ Francis St (WB),50.43328,-104.579701,Regina
852,McDonald St @ Douglas Ave (NB),50.43357,-104.5836,Regina
853,McDonald St @ 18th Ave (NB),50.43639,-104.583591,Regina
854,Broadway Ave @ McDonald St (WB),50.43779,-104.584189,Regina
855,Broadway Ave @ Elliott St (WB),50.43778,-104.58701,Regina
856,Broadway Ave @ Reynolds St (WB),50.43778,-104.5898,Regina
857,Broadway Ave @ Atkinson St (WB),50.43778,-104.59273,Regina
858,Broadway Ave @ Winnipeg St (WB),50.43776,-104.59574,Regina
859,Broadway Ave @ Montreal Cres (WB),50.43776,-104.59937,Regina
860,Broadway Ave @ Ottawa St (WB),50.43778,-104.601961,Regina
861,Broadway Ave @ St Chads Cres (WB),50.43781,-104.60358,Regina
862,Sherwood Dr @ 7th Ave N (WB),50.47942,-104.66949,Regina
863,Sherwood Dr @ Hastings Cres (WB),50.48003,-104.67283,Regina
864,Sherwood Dr @ Hastings Cres (WB),50.48003,-104.675289,Regina
865,Sherwood Dr @ Williston Dr (WB),50.48005,-104.677909,Regina
866,Dorothy St @ Rendek Cres (SB),50.47229,-104.6827,Regina
867,Dorothy St @ Hansen Dr (SB),50.46976,-104.68273,Regina
868,Mikkelson Dr @ Dorothy St (EB),50.46719,-104.68199,Regina
869,Mikkelson Dr @ Sweeney St (EB),50.467196,-104.67725,Regina
870,Mikkelson Dr @ Straub St (EB),50.46724,-104.67525,Regina
871,McCarthy Blvd @ Mikkelson Dr (SB),50.46632,-104.67183,Regina
872,McCarthy Blvd @ Oriole Pl (SB),50.4642,-104.67271,Regina
873,4th Ave @ Krauss St (EB),50.46252,-104.671519,Regina
874,4th Ave @ Fort St (EB),50.46254,-104.66638,Regina
875,4th Ave @ Campbell St (EB),50.46291,-104.66347,Regina
876,Horace St @ 4th Ave (SB),50.46256,-104.65971,Regina
877,North West Blvd @ Horace St (EB),50.46073,-104.65913,Regina
878,North West Blvd @ Minto St (EB),50.46075,-104.65626,Regina
879,North West Blvd @ McIntosh St (EB),50.46049,-104.65272,Regina
880,McIntosh St @ 7th Ave (SB),50.45799,-104.65251,Regina
881,Elphinstone St @ Dewdney Ave (SB),50.454608,-104.631235,Regina
882,Elphinstone St @ 10th Ave (SB),50.4512,-104.63119,Regina
883,Saskatchewan Dr @ Athol St (EB),50.44936,-104.62757,Regina
884,Saskatchewan Dr @ Cameron St (EB),50.44981,-104.62502,Regina
885,Grant Rd @ Grant Dr (NB),50.4076,-104.59766,Regina
886,Hamilton St @ Victoria Ave (SB),50.446512,-104.60937,Regina
887,Hamilton St @ 13th Ave (SB),50.44512,-104.609375,Regina
888,Hamilton St @ 14th Ave (SB),50.443115,-104.609362,Regina
889,Hamilton St @ 15th Ave (SB),50.44219,-104.609381,Regina
890,College Ave @ Hamilton St (WB),50.44087,-104.609929,Regina
891,College Ave @ Cornwall St (WB),50.4409,-104.61284,Regina
892,College Ave @ Smith St (WB),50.4409,-104.61562,Regina
893,McIntyre St @ College Ave (NB),50.441212,-104.616499,Regina
894,15th Ave @ McIntyre St (WB),50.44247,-104.617161,Regina
895,15th Ave @ Albert St (WB),50.44248,-104.61888,Regina
896,College Ave @ Angus St (WB),50.440912,-104.62009,Regina
897,College Ave @ Retallack St (WB),50.44087,-104.62298,Regina
898,College Ave @ Cameron St (WB),50.440919,-104.62502,Regina
899,College Ave @ Athol St (WB),50.44088,-104.62872,Regina
900,Elphinstone St @ College Ave (SB),50.44045,-104.63126,Regina
901,Elphinstone St @ 17th Ave (SB),50.43835,-104.63119,Regina
902,Qu'Appelle Dr @ Elphinstone St (WB),50.43708,-104.63196,Regina
903,Qu'Appelle Dr @ Qu'Appelle (WB),50.43855,-104.63753,Regina
904,Qu'Appelle Dr @ McTavish St (WB),50.43739,-104.634621,Regina
905,Qu'Appelle Dr @ Wascana St (WB),50.43875,-104.63909,Regina
906,Pasqua St @ 18th Ave (SB),50.43752,-104.641,Regina
907,Pasqua St @ 19th Ave (SB),50.43558,-104.64098,Regina
908,Regina Ave @ Pasqua St (EB),50.43483,-104.64047,Regina
909,Grant Rd @ Castle Rd (NB),50.409032,-104.596135,Regina
910,Regina Ave @ Queen St (EB),50.43489,-104.63738,Regina
911,Princess St @ Regina Ave (SB),50.43456,-104.635551,Regina
912,Princess St @ 20th Ave (SB),50.43271,-104.635561,Regina
913,Princess St @ McCallum Ave (SB),50.43128,-104.635529,Regina
914,Kings Rd @ McCallum Ave (SB),50.4295,-104.63753,Regina
915,Kings Rd @ 21st Ave (SB),50.42804,-104.63519,Regina
916,Hill Ave @ Kings Rd (WB),50.4266,-104.63464,Regina
917,Hill Ave @ Pasqua St (WB),50.42636,-104.63977,Regina
918,Pasqua St @ Lakeview Ave (SB),50.42129,-104.640969,Regina
919,25th Ave @ Pasqua St (EB),50.41866,-104.63979,Regina
920,25th Ave @ Queen St (EB),50.418665,-104.635801,Regina
921,25th Ave @ McTavish St (EB),50.418666,-104.63286,Regina
922,25th Ave @ Athol St (EB),50.418664,-104.627649,Regina
923,25th Ave @ Robinson St (EB),50.418663,-104.623231,Regina
924,25th Ave @ Retallack St (EB),50.418662,-104.622001,Regina
925,Rae St @ Parliament Ave (SB),50.414919,-104.6211,Regina
926,Rae St @ 28th Ave (SB),50.41349,-104.621093,Regina
927,Rae St @ 29th Ave (SB),50.4119,-104.621071,Regina
928,Rae St @ Compton Rd (SB),50.41079,-104.62107,Regina
929,Rae St @ Sommerville Rd (SB),50.40929,-104.62107,Regina
930,Rae St @ Extendicare (SB),50.40745,-104.62105,Regina
931,Rae St @ Westfield Dr (SB),50.40506,-104.62106,Regina
932,Albert St @ Gordon Rd (NB),50.40519,-104.61803,Regina
933,Albert St @ Albert St Srvrd E (NB),50.40793,-104.61793,Regina
934,Albert St @ 31st Ave (NB),50.4105,-104.6179,Regina
936,Albert St @ 28th Ave (NB),50.41419,-104.61785,Regina
937,Argyle Rd @ 25th Ave (NB),50.419302,-104.622809,Regina
938,Argyle Rd @ 24th Ave (NB),50.42065,-104.62377,Regina
939,Argyle Rd @ Lakeview Ave (NB),50.42249,-104.62499,Regina
940,Argyle Rd @ Assiniboine Ave (NB),50.42373,-104.6261,Regina
941,Argyle Rd @ Westgate Ave (NB),50.42526,-104.62804,Regina
942,Argyle Rd @ Garner Ave (NB),50.42628,-104.629271,Regina
943,Montague St @ Hill Ave (NB),50.42894,-104.62961,Regina
944,Montague St @ 21st Ave (NB),50.43039,-104.629613,Regina
945,Montague St @ McCallum Ave (NB),50.43222,-104.629616,Regina
946,Montague St @ 20th Ave (NB),50.43369,-104.629611,Regina
947,Montague St @ Regina Ave (NB),50.435332,-104.629567,Regina
948,Elphinstone St @ Qu'Appelle Dr (NB),50.43747,-104.63105,Regina
949,Elphinstone St @ 17th Ave (NB),50.43915,-104.63112,Regina
950,College Ave @ Elphinstone St (EB),50.440823,-104.630599,Regina
951,College Ave @ Athol St (EB),50.440822,-104.628481,Regina
952,College Ave @ Cameron St (EB),50.440829,-104.625709,Regina
953,College Ave @ Retallack St (EB),50.44085,-104.62201,Regina
954,Angus St @ College Ave (NB),50.44144,-104.6195,Regina
955,College Ave @ Smith St (EB),50.44071,-104.614589,Regina
956,Lorne St @ College Ave (NB),50.4413,-104.61364,Regina
957,Lorne St @ 15th Ave (NB),50.442693,-104.613599,Regina
958,Lorne St @ 14th Ave (NB),50.444741,-104.613605,Regina
959,Lorne St @ Victoria Ave (NB),50.446745,-104.613604,Regina
960,4th Ave @ Broad St (WB),50.46299,-104.607049,Regina
961,4th Ave @ Scarth St (WB),50.46299,-104.61102,Regina
962,4th Ave @ Albert St (WB),50.46297,-104.61695,Regina
963,3rd Ave @ Albert St (WB),50.46461,-104.61864,Regina
964,3rd Ave @ Angus St (WB),50.46463,-104.620229,Regina
965,3rd Ave @ Retallack St (WB),50.46462,-104.623119,Regina
966,3rd Ave @ Cameron St (WB),50.46461,-104.62613,Regina
967,3rd Ave @ Athol St (WB),50.46464,-104.628981,Regina
968,3rd Ave @ Elphinstone St (WB),50.4646,-104.63162,Regina
969,3rd Ave @ McTavish St (WB),50.4646,-104.6346,Regina
970,3rd Ave @ Queen St (WB),50.46459,-104.63738,Regina
971,3rd Ave @ Pasqua St (WB),50.46461,-104.64057,Regina
972,4th Ave @ Connaught St (WB),50.46297,-104.64637,Regina
974,4th Ave @ Arthur St (WB),50.46296,-104.64855,Regina
975,4th Ave @ Royal St (WB),50.46295,-104.65147,Regina
976,McIntosh St @ 4th Ave (NB),50.46342,-104.65246,Regina
977,2nd Ave @ McIntosh St (WB),50.46522,-104.653099,Regina
978,2nd Ave @ Grey St (WB),50.46569,-104.655121,Regina
979,2nd Ave @ Aberdeen St (WB),50.46567,-104.658609,Regina
980,2nd Ave @ Horace St (WB),50.46571,-104.660439,Regina
981,Mikkelson Dr @ Campbell St (WB),50.46569,-104.66465,Regina
982,Mikkelson Dr @ McManus St (WB),50.46568,-104.66691,Regina
983,Mikkelson Dr @ McCormick Cres (WB),50.46583,-104.669351,Regina
984,McCarthy Blvd @ Mikkelson Dr (NB),50.46687,-104.67113,Regina
986,McCarthy Blvd @ 611 McCarthy (NB),50.46901,-104.66928,Regina
987,McCarthy Blvd @ 1st Ave N (NB),50.472,-104.66646,Regina
988,McCarthy Blvd @ Eden Ave (NB),50.47393,-104.664739,Regina
989,McCarthy Blvd @ Ken Jenkins Pk (NB),50.47554,-104.663811,Regina
990,Broadway Ave @ Broad St (EB),50.43768,-104.60579,Regina
991,Broadway Ave @ St Chads Cres (EB),50.43766,-104.60377,Regina
992,Broadway Ave @ Ottawa St (EB),50.43768,-104.60017,Regina
993,Broadway Ave @ Montreal Cres (EB),50.43767,-104.59771,Regina
994,Broadway Ave @ Winnipeg St (EB),50.43765,-104.59467,Regina
995,Broadway Ave @ Wallace St (EB),50.43762,-104.59316,Regina
996,Broadway Ave @ Broder St (EB),50.43762,-104.590409,Regina
997,Broadway Ave @ Edgar St (EB),50.43764,-104.58749,Regina
998,Broadway Ave @ Lindsay St (EB),50.43766,-104.584569,Regina
999,McDonald St @ Broadway Ave (SB),50.43733,-104.58362,Regina
1000,McDonald St @ 18th Ave (SB),50.43598,-104.58366,Regina
1001,McDonald St @ 19th Ave (SB),50.43433,-104.58364,Regina
1002,Douglas Ave @ McDonald St (EB),50.43308,-104.583049,Regina
1003,Douglas Ave @ Kerr Pl (EB),50.43308,-104.58024,Regina
1004,Douglas Ave @ Harvey St (EB),50.43308,-104.57725,Regina
1005,Douglas Ave @ Borden St (EB),50.43311,-104.57316,Regina
1006,Park St @ Douglas Ave (NB),50.43366,-104.57213,Regina
1007,Park St @ 18th Ave (NB),50.4358,-104.57219,Regina
1008,Park St @ Broadway Ave (NB),50.43812,-104.57222,Regina
1009,Park St @ 17th Ave (NB),50.44027,-104.572191,Regina
1010,University Park Dr @ Laval Dr (SB),50.43253,-104.55729,Regina
1011,Michener Dr @ University Pk Dr (WB),50.43172,-104.558935,Regina
1012,Michener Dr @ Houston Rd (WB),50.432921,-104.561457,Regina
1013,Windfield Rd @ Michener Dr (SB),50.43312,-104.56272,Regina
1014,Windfield Rd @ Metcalfe Rd (SB),50.4313,-104.56472,Regina
1015,Windfield Rd @ Mayfield Rd (SB),50.43013,-104.565931,Regina
1016,Windfield Rd @ Windfield Gate (SB),50.42835,-104.567641,Regina
1017,Windfield Rd @ Assiniboine Ave (SB),50.426322,-104.568242,Regina
1018,Assiniboine Ave @ University Pk Dr (EB),50.425948,-104.56194,Regina
1019,Assiniboine Ave @ Edinburgh Dr (EB),50.424581,-104.553979,Regina
1020,Assiniboine Ave @ Boyle St (EB),50.42305,-104.550854,Regina
1021,Assiniboine Ave @ Philip Rd (EB),50.42151,-104.54558,Regina
1022,Prince Of Wales @ Assiniboine Ave (NB),50.422,-104.54387,Regina
1023,Truesdale Dr @ Prince Of Wales (WB),50.43281,-104.53811,Regina
1024,Truesdale Dr @ Helmsing St (WB),50.433473,-104.541548,Regina
1025,Truesdale Dr @ Fowler St (WB),50.43404,-104.543219,Regina
1026,Truesdale Dr @ Shooter Dr (WB),50.43478,-104.545681,Regina
1027,Truesdale Dr @ Harding St (WB),50.43514,-104.548479,Regina
1028,Truesdale Dr @ Cunning Cres (WB),50.43531,-104.552301,Regina
1031,University Park Dr @ Brodie Bay (NB),50.43861,-104.550621,Regina
1032,Arens Rd @ University Park Dr (EB),50.440529,-104.548645,Regina
1033,Arens Rd @ Heseltine Rd (EB),50.440462,-104.546257,Regina
1034,Arens Rd @ Crocus Dr (EB),50.440121,-104.544021,Regina
1035,Arens Rd @ Meadow Park Cres (EB),50.43914,-104.54141,Regina
1036,Arens Rd @ Parkland Dr (EB),50.43798,-104.539201,Regina
1037,Arens Rd @ 3211 Arens Rd (EB),50.43655,-104.53676,Regina
1038,Quance St @ Victoria Square Mall (WB),50.44394,-104.550531,Regina
1039,Truesdale Dr @ Sinclair St (SB),50.44385,-104.557049,Regina
1040,Truesdale Dr @ Longworthy Bay (SB),50.44099,-104.558441,Regina
1041,Truesdale Dr @ Lee Pl (SB),50.43782,-104.558429,Regina
1042,Truesdale Dr @ Kliman Cres (EB),50.43602,-104.55592,Regina
1043,University Pk Dr @ Truesdale Dr (SB),50.43546,-104.55442,Regina
1044,Dixon Cres @ Froom Cres (NB),50.440781,-104.567577,Regina
1045,Dixon Cres @ Froom Cres (NB),50.441565,-104.566371,Regina
1046,Froom Cres @ 14th Ave (NB),50.44405,-104.56491,Regina
1047,14th Ave @ Vaughn St (WB),50.44405,-104.56782,Regina
1048,14th Ave @ Rothwell St (WB),50.44405,-104.569971,Regina
1049,Park St @ 14th Ave (SB),50.44354,-104.57242,Regina
1050,College Ave @ Abbott Rd (WB),50.44107,-104.57629,Regina
1051,College Ave @ Harvey St (WB),50.44089,-104.57836,Regina
1052,College Ave @ Mackay St (WB),50.4409,-104.58125,Regina
1053,College Ave @ McDonald St (WB),50.440915,-104.58418,Regina
1054,College Ave @ Elliott St (WB),50.44087,-104.586971,Regina
1055,College Ave @ Reynolds St (WB),50.440917,-104.589932,Regina
1056,College Ave @ Wallace St (WB),50.440899,-104.594158,Regina
1057,College Ave @ Quebec St (WB),50.44085,-104.596781,Regina
1059,College Ave @ Toronto St (WB),50.44085,-104.599851,Regina
1060,College Ave @ Saint John St (WB),50.44084,-104.60261,Regina
1061,Halifax St @ College Ave (NB),50.44118,-104.603421,Regina
1062,Halifax St @ 15th Ave (NB),50.44275,-104.60342,Regina
1063,14th Ave @ Halifax St (WB),50.44398,-104.60399,Regina
1064,McCarthy Blvd @ Sherwood Dr (SB),50.47713,-104.66407,Regina
1065,McCarthy Blvd @ Button Park (SB),50.47432,-104.66468,Regina
1066,McCarthy Blvd @ 1st Ave N (SB),50.47132,-104.66733,Regina
1067,McCarthy Blvd @ Mikkelson Dr (SB),50.46788,-104.6705,Regina
1068,Mikkelson Dr @ McCarthy Blvd (EB),50.4663,-104.67083,Regina
1069,Mikkelson Dr @ Lyons St (EB),50.46561,-104.66826,Regina
1070,2nd Ave @ Campbell St (EB),50.465584,-104.66344,Regina
1071,2nd Ave @ Horace St (EB),50.465583,-104.6591,Regina
1072,2nd Ave @ Grey St (EB),50.465582,-104.654841,Regina
1073,2nd Ave @ Empress St (EB),50.46512,-104.65353,Regina
1074,McIntosh St @ 4th Ave (SB),50.4635,-104.65255,Regina
1075,4th Ave @ McIntosh St (EB),50.46287,-104.65184,Regina
1076,4th Ave @ Forget St (EB),50.46292,-104.64906,Regina
1077,4th Ave @ Connaught St (EB),50.462881,-104.64612,Regina
1078,4th Ave @ Lewvan Dr (EB),50.46288,-104.644181,Regina
1079,Pasqua St @ 4th Ave (NB),50.4633,-104.64092,Regina
1080,3rd Ave @ Pasqua St (EB),50.46444,-104.640469,Regina
1081,3rd Ave @ King St (EB),50.46448,-104.637691,Regina
1082,3rd Ave @ Princess St (EB),50.46451,-104.634989,Regina
1083,3rd Ave @ Argyle St (EB),50.464488,-104.63205,Regina
1084,3rd Ave @ Elphinstone St (EB),50.46451,-104.63061,Regina
1085,3rd Ave @ Montague St (EB),50.46452,-104.629151,Regina
1086,3rd Ave @ Garnet St (EB),50.46451,-104.62631,Regina
1087,3rd Ave @ Robinson St (EB),50.46452,-104.623501,Regina
1088,3rd Ave @ Rae St (EB),50.46452,-104.62055,Regina
1089,3rd Ave @ Albert St (EB),50.4645,-104.61849,Regina
1090,4th Ave @ Albert St (EB),50.4629,-104.61703,Regina
1091,4th Ave @ Scarth St (EB),50.4629,-104.611011,Regina
1092,4th Ave @ Broad St (EB),50.4629,-104.60686,Regina
1093,Elphinstone St @ 15th Ave (SB),50.4421,-104.63124,Regina
1094,Elphinstone St @ Qu'Appelle Dr (SB),50.436706,-104.63119,Regina
1095,Montague St @ Regina Ave (SB),50.43524,-104.62973,Regina
1096,Montague St @ 20th Ave (SB),50.43286,-104.62973,Regina
1097,Montague St @ McCallum Ave (SB),50.4312,-104.629709,Regina
1098,Montague St @ 21st Ave (SB),50.42954,-104.62971,Regina
1099,Montague St @ Hill Ave (SB),50.42763,-104.62973,Regina
1100,Argyle Rd @ Garner Ave (SB),50.426242,-104.629413,Regina
1101,Argyle Rd @ Westgate Ave (SB),50.424781,-104.627556,Regina
1102,Argyle Rd @ Assiniboine Ave (SB),50.42329,-104.625665,Regina
1103,Argyle Rd @ Lakeview Ave (SB),50.42171,-104.6245,Regina
1104,Argyle Rd @ L'Arche Cres (SB),50.42017,-104.623469,Regina
1105,Albert St @ Parliament Ave (SB),50.41477,-104.618169,Regina
1107,Albert St @ 29th Ave (SB),50.41183,-104.61827,Regina
1108,Albert St @ 31st Ave (SB),50.40972,-104.6183,Regina
1109,Albert St @ Albert St Service Rd (SB),50.40758,-104.6183,Regina
1110,Rae St @ Westfield Rd (NB),50.40567,-104.62096,Regina
1111,Rae St @ Extendicare (NB),50.40758,-104.62096,Regina
1112,Rae St @ Sunset Dr (NB),50.40882,-104.620999,Regina
1113,Rae St @ 31st Ave (NB),50.41051,-104.620947,Regina
1114,Rae St @ 29th Ave (NB),50.41262,-104.62098,Regina
1115,Rae St @ 28th Ave (NB),50.414091,-104.620938,Regina
1116,25th Ave @ Argyle Rd (WB),50.41874,-104.623279,Regina
1117,25th Ave @ Athol St (WB),50.41876,-104.627979,Regina
1118,25th Ave @ McTavish St (WB),50.4188,-104.63354,Regina
1119,25th Ave @ Queen St (WB),50.41878,-104.63658,Regina
1120,Pasqua St @ 25th Ave (NB),50.41926,-104.64088,Regina
1121,Pasqua St @ Lakeview Ave (NB),50.42104,-104.64087,Regina
1122,Pasqua St @ McPhail Ave (NB),50.42292,-104.64088,Regina
1123,Hill Ave @ Pasqua St (EB),50.42626,-104.64045,Regina
1125,Kings Rd @ Hill Ave (NB),50.42712,-104.634251,Regina
1126,Kings Rd @ 21st Ave (NB),50.4288,-104.636359,Regina
1127,McCallum Ave @ Kings Rd (EB),50.430109,-104.637239,Regina
1128,Princess St @ McCallum Ave (NB),50.43161,-104.635461,Regina
1129,Princess St @ 20th Ave (NB),50.43347,-104.63546,Regina
1130,Regina Ave @ Princess St (WB),50.43496,-104.63617,Regina
1131,Regina Ave @ Coronation St (WB),50.43494,-104.638401,Regina
1132,Pasqua St @ Regina Ave (NB),50.43529,-104.640807,Regina
1133,Pasqua St @ 18th Ave (NB),50.4376,-104.64088,Regina
1134,Qu'Appelle Dr @ Wascana St (EB),50.438639,-104.63884,Regina
1135,Qu'Appelle Dr @ Coronation St (EB),50.4377,-104.63549,Regina
1136,Qu'Appelle Dr @ Argyle St (EB),50.43704,-104.63348,Regina
1137,Elphinstone St @ College Ave (NB),50.44117,-104.631084,Regina
1138,Elphinstone St @ 14th Ave (NB),50.444319,-104.631073,Regina
1139,Saskatchewan Dr @ Cameron St (WB),50.44972,-104.62611,Regina
1140,Saskatchewan Dr @ Athol St (WB),50.44935,-104.62834,Regina
1141,Elphinstone St @ 10th Ave (NB),50.45126,-104.631068,Regina
1142,Elphinstone St @ 9th Ave (NB),50.45322,-104.631141,Regina
1143,McIntosh St @ 8th Ave (NB),50.4572,-104.652461,Regina
1144,McIntosh St @ 7th Ave (NB),50.45875,-104.652451,Regina
1145,North West Blvd @ McIntosh St (WB),50.46091,-104.6537,Regina
1146,North West Blvd @ Minto St (WB),50.460935,-104.657149,Regina
1147,Horace St @ North West Blvd (NB),50.46111,-104.659605,Regina
1148,4th Ave @ Horace St (WB),50.46299,-104.66035,Regina
1149,4th Ave @ Campbell St (WB),50.46259,-104.66437,Regina
1150,4th Ave @ Lyons St (WB),50.46263,-104.668311,Regina
1151,McCarthy Blvd @ 4th Ave (NB),50.46282,-104.67247,Regina
1152,McCarthy Blvd @ Oriole Pl (NB),50.46419,-104.67246,Regina
1153,Mikkelson Dr @ McCarthy Blvd (WB),50.46683,-104.672,Regina
1154,Mikkelson Dr @ Straub Cres (WB),50.46727,-104.67632,Regina
1155,Mikkelson Dr @ Sweeney St (WB),50.46728,-104.678811,Regina
1156,Mikkelson Dr @ Dorothy St (WB),50.46728,-104.68218,Regina
1157,Dorothy St @ Read Ave (NB),50.46989,-104.68265,Regina
1158,Dorothy St @ Rendek Ave (NB),50.47306,-104.68266,Regina
1159,Sherwood Dr @ Murphy Cres (EB),50.47993,-104.677339,Regina
1160,Sherwood Dr @ Hastings Cres (EB),50.47993,-104.67355,Regina
1161,Sherwood Dr @ Auld Bay (EB),50.47991,-104.672209,Regina
1163,Henderson Dr @ Sioux St (NB),50.4681,-104.56652,Regina
1164,Henderson Dr @ Maxwell Cres (NB),50.46974,-104.56783,Regina
1165,Henderson Dr @ Maxwell Cres (NB),50.47242,-104.57097,Regina
1166,Leonard St @ Henderson Dr (NB),50.47503,-104.5747,Regina
1167,Leonard St @ Pettigrew Ave (NB),50.47705,-104.5725,Regina
1168,Leonard St @ 199 Leonard St (NB),50.476069,-104.573529,Regina
1174,Cameron St @ 13th Ave (SB),50.44586,-104.625389,Regina
1180,Winnipeg St @ 12th Ave (SB),50.448551,-104.595259,Regina
1181,Winnipeg St @ Victoria Ave (SB),50.44671,-104.595255,Regina
1182,Winnipeg St @ 13th Ave (SB),50.44477,-104.59517,Regina
1183,Winnipeg St @ Broadway Ave (SB),50.43837,-104.59527,Regina
1188,Rose St @ 15th Ave (NB),50.442679,-104.607801,Regina
1189,Rose St @ 13th Ave (NB),50.445067,-104.607865,Regina
1195,Smith St @ 14th Ave (SB),50.4444,-104.61523,Regina
1196,McIntyre St @ 15th Ave (NB),50.443335,-104.616493,Regina
1197,McIntyre St @ 13th Ave (NB),50.444691,-104.616494,Regina
1199,Robinson St @ 13th Ave (NB),50.44593,-104.623871,Regina
1206,Lakeridge Rd @ Genereux Dr (NB),50.500966,-104.655199,Regina
1207,Lakeridge Rd @ Boswell Cres (NB),50.50338,-104.65601,Regina
1208,Lakeridge Rd @ Fenwick Cres (WB),50.50399,-104.65771,Regina
1209,Lakeridge Rd @ Rousseau Cres (WB),50.50367,-104.66102,Regina
1210,McCarthy Blvd @ Wadge Cres (SB),50.50237,-104.66395,Regina
1211,Whelan Dr @ McCarthy Blvd (WB),50.49913,-104.66464,Regina
1212,Radway St @ Whelan Dr (NB),50.49929,-104.66738,Regina
1213,Radway St @ Steele Cres (NB),50.50144,-104.66666,Regina
1214,Radway St @ Wadge St (NB),50.50288,-104.66779,Regina
1215,Devonshire Dr @ Ehrle Cres (WB),50.5037,-104.670821,Regina
1216,Devonshire Dr @ Hird Cres (SB),50.50306,-104.67304,Regina
1217,Devonshire Dr @ Gillmore Dr (SB),50.501606,-104.673875,Regina
1218,Devonshire Dr @ Lakewood Dr (SB),50.500234,-104.673895,Regina
1219,Whelan Dr @ Devonshire Dr (WB),50.498978,-104.673937,Regina
1222,Blackwood St @ Butterfield Cr (SB),50.497429,-104.685064,Regina
1223,Rochdale Blvd @ Blackwood St (EB),50.49527,-104.68449,Regina
1224,Rochdale Blvd @ Arnason St (EB),50.49475,-104.67993,Regina
1225,Rochdale Blvd @ Cedar Meadow Dr (EB),50.49476,-104.67539,Regina
1226,Rochdale Blvd @ Devonshire Dr (EB),50.49477,-104.673191,Regina
1227,1st Ave N @ Edward St (WB),50.47105,-104.642911,Regina
1228,University Dr S @ Kinesiology Bld (WB),50.41571,-104.58942,Regina
1229,Grant Rd @ Marsh Cres (NB),50.40329,-104.6133,Regina
1231,3rd Ave N @ Toronto St (EB),50.47392,-104.59876,Regina
1232,2nd Ave N @ Quebec St (WB),50.47244,-104.59678,Regina
1233,Quance St @ Windsor Park Rd (EB),50.44358,-104.528169,Regina
1234,McCarthy Blvd @ Irvin Cres (SB),50.48285,-104.66407,Regina
1235,McCarthy Blvd @ Irvin Cres (NB),50.48333,-104.66385,Regina
1255,Pasqua Gate E @ Sangster Blvd (WB),50.48983,-104.639141,Regina
1256,Pasqua Gate East @ Pasqua St (EB),50.48967,-104.640291,Regina
1262,Rochdale Blvd @ Lakeridge Rd (EB),50.49579,-104.65868,Regina
1263,Pasqua St @ Wascana St (NB),50.4248,-104.640891,Regina
1264,Gordon Rd @ Rae St (EB),50.40451,-104.61999,Regina
1265,Quance St @ Truesdale Dr (EB),50.44461,-104.55559,Regina
1266,Sherwood Dr @ McGillvery Cres (EB),50.47648,-104.647621,Regina
1267,Quance Gate @ Victoria Ave (SB),50.44666,-104.52763,Regina
1268,7th Ave N @ Milne St (WB),50.48093,-104.65612,Regina
1270,Rochdale Blvd @ Kenderdine Dr (EB),50.49493,-104.68232,Regina
1271,Broad St @ Saskatchewan Dr (NB),50.45153,-104.60636,Regina
1272,2nd Ave N @ Winnipeg St (WB),50.472706,-104.594289,Regina
1273,Albert St @ 9th Ave (SB),50.45302,-104.61817,Regina
1274,Park St @ McDonald St (EB),50.47285,-104.579721,Regina
1275,Pettigrew Ave @ Leonard St (EB),50.47618,-104.568421,Regina
1276,Pettigrew Ave @ Henderson Dr (EB),50.4753,-104.56279,Regina
1277,Henderson Dr @ Turvey Rd (NB),50.47758,-104.561511,Regina
1279,Henderson Dr @ Leonard St (WB),50.47969,-104.57112,Regina
1282,Park St @ Mcleod St (EB),50.47217,-104.57773,Regina
1283,Park St @ Vennels St (EB),50.47069,-104.574381,Regina
1284,Park St @ 1st Ave (SB),50.46784,-104.572329,Regina
1293,7th Ave @ Cavendish St (EB),50.458263,-104.557819,Regina
1295,7th Ave @ Cannon St (EB),50.45831,-104.552191,Regina
1296,7th Ave @ Fleet St (EB),50.4583,-104.54821,Regina
1297,7th Ave @ Bentley Dr (EB),50.45856,-104.54534,Regina
1298,Fines Dr @ Coleman Cres (WB),50.44926,-104.542831,Regina
1299,Fines Dr @ 2nd St (WB),50.44924,-104.5464,Regina
1312,Queen St @ Lincoln Dr (NB),50.4033,-104.636866,Regina
1318,Cavendish St @ Cambridge Ave (NB),50.4507,-104.557809,Regina
1326,Prince Of Wales Dr @ Truesdale Dr (SB),50.432606,-104.537431,Regina
1328,Assiniboine Ave @ Windfield Rd (EB),50.425965,-104.56769,Regina
1330,Henderson Dr @ Maxwell Cres (NB),50.47092,-104.56892,Regina
1331,Dalgliesh Dr @ Swainson St (WB),50.49199,-104.678389,Regina
1333,11th Ave @ Scarth St (WB),50.45038,-104.61153,Regina
1336,Henderson Dr @ Leonard St (WB),50.47361,-104.57335,Regina
1337,Pasqua St @ McPhail Ave (SB),50.42289,-104.64098,Regina
1355,11th Ave @ Hamilton St (EB),50.450363,-104.60851,Regina
1356,12th Ave @ McIntyre St (WB),50.44884,-104.61638,Regina
1360,Albert St @ 12th Ave (NB),50.44951,-104.61805,Regina
1361,11th Ave @ Broad St (EB),50.450327,-104.605937,Regina
1362,Broad St @ 12th Ave (SB),50.44894,-104.606509,Regina
1364,Dewdney Ave @ Rose St (WB),50.45517,-104.60775,Regina
1365,Dewdney Ave @ Scarth St (WB),50.45517,-104.610411,Regina
1366,Dewdney Ave @ Lorne St (WB),50.45513,-104.61423,Regina
1367,Dewdney Ave @ McIntyre St (EB),50.45501,-104.61685,Regina
1368,Dewdney Ave @ Lorne St (EB),50.455,-104.613129,Regina
1369,Dewdney Ave @ Rose St (EB),50.45502,-104.6085,Regina
1370,Gordon Rd @ Pasqua St (WB),50.40549,-104.64071,Regina
1371,Gordon Rd @ Pasqua St (EB),50.40538,-104.64042,Regina
1372,Prince Of Wales Dr @ Victoria Ave (NB),50.44847,-104.53286,Regina
1373,Eastgate Dr @ Prince Of Wales Dr (WB),50.45156,-104.5334,Regina
1374,Eastgate Dr @ Eastgate Bay (SB),50.45054,-104.535521,Regina
1375,Eastgate Dr @ Eastgate Bay (SB),50.44853,-104.53743,Regina
1379,4th Ave @ Mackay St (WB),50.462998,-104.579399,Regina
1380,Grant Dr @ Academy Park Rd (WB),50.40796,-104.607121,Regina
1384,Pasqua St @ Wascana St (SB),50.42477,-104.64098,Regina
1387,Gordon Rd @ Lewvan Dr (WB),50.40556,-104.647051,Regina
1388,Gordon Rd @ Lewvan Dr (EB),50.40535,-104.647061,Regina
1389,Park St @ Ross Ave (SB),50.46495,-104.5724,Regina
1390,Sioux St @ Ross Ave (NB),50.46603,-104.5648,Regina
1391,Powerhouse Dr @ Wascana Dr (NB),50.43303,-104.595219,Regina
1393,Parliament Ave @ Montague St (WB),50.41546,-104.630109,Regina
1394,Parliament Ave @ Argyle St (WB),50.41545,-104.633259,Regina
1395,Parliament Ave @ Queen St (WB),50.41583,-104.63653,Regina
1396,Parliament Ave @ Pasqua St (WB),50.41654,-104.6403,Regina
1397,Parliament Ave @ Harbour Landing Dr (WB),50.41749,-104.64926,Regina
1403,Grasslands Dr @ Harbour Landing Dr (WB),50.40766,-104.6513,Regina
1406,Harvard Way @ Harbour Landing Dr (NB),50.40271,-104.648841,Regina
1407,Harvard Way @ Gordon Rd (NB),50.40458,-104.648191,Regina
1409,Harbour Landing Dr @ Gordon Rd (NB),50.4057,-104.652321,Regina
1411,Harbour Landing Dr @ Malcolm Dr (NB),50.41063,-104.64881,Regina
1412,Harbour Landing Dr @ Jim Cairns Blvd (NB),50.412262,-104.648656,Regina
1413,Harbour Landing Dr @ Skinner Cr (NB),50.41441,-104.64874,Regina
1414,Parliament Ave @ Harbour Landing Dr (EB),50.41736,-104.648171,Regina
1415,Parliament Ave @ Pasqua St (EB),50.41635,-104.6402,Regina
1416,Parliament Ave @ Queen St (EB),50.415549,-104.635699,Regina
1417,Parliament Ave @ Argyle St (EB),50.41543,-104.632151,Regina
1418,Harbour Landing Dr @ Wright Rd (NB),50.40895,-104.65052,Regina
1419,Harbour Landing Dr @ Tutor Way (NB),50.41651,-104.64875,Regina
1420,Dewdney Ave @ Prince Of Wales Dr (EB),50.45442,-104.52907,Regina
1421,Sherwood Dr @ Shillington Rd (EB),50.48107,-104.7079,Regina
1422,Prince Of Wales Dr @ Eastgate Dr (NB),50.45023,-104.532821,Regina
1423,Stockton St @ Child Ave (NB),50.49776,-104.64538,Regina
1424,Child Ave @ Mazinke Cr (WB),50.49795,-104.6481,Regina
1425,McIntosh St @ Child Ave (SB),50.49761,-104.65245,Regina
1426,McCarthy Blvd @ Whelan Dr (NB),50.49852,-104.6639,Regina
1427,McCarthy Blvd @ Lakeridge Rd (NB),50.50244,-104.66392,Regina
1428,McCarthy Blvd @ Koep Ave (NB),50.50657,-104.66391,Regina
1429,Diefenbaker Dr @ Blake Rd (EB),50.50887,-104.659839,Regina
1430,Diefenbaker Dr @ Simes Blvd (EB),50.508837,-104.654791,Regina
1431,Stockton St @ Junor Dr (SB),50.50177,-104.645049,Regina
1432,Stockton St @ Child Ave (SB),50.49743,-104.645499,Regina
1433,Rochdale Blvd @ Stockton St (EB),50.49656,-104.64468,Regina
1434,Winnipeg St @ 6th Ave N (SB),50.47933,-104.595279,Regina
1435,Winnipeg St @ 2nd Ave N (NB),50.47308,-104.595159,Regina
1436,Neville Dr @ Dakota Dr (SB),50.45241,-104.528351,Regina
1440,Haughton Rd @ Prince Of Wales Dr (EB),50.44058,-104.53163,Regina
1441,Haughton Rd @ Willow Rd (EB),50.440426,-104.529687,Regina
1442,Windsor Park Rd @ Haughton Rd (NB),50.44093,-104.52754,Regina
1443,University Park Dr @ Arens Rd (NB),50.441,-104.54916,Regina
1444,Hillsdale St @ Jubilee Ave (NB),50.42238,-104.60149,Regina
1445,Radway St @ Rochdale Blvd (NB),50.49614,-104.668569,Regina
1446,Mapleridge Dr @ Whelan Dr (NB),50.499008,-104.677765,Regina
1447,Mapleridge Dr @ Gillmore Dr (NB),50.502357,-104.677703,Regina
1448,Mapleridge Dr @ Maple St (WB),50.503692,-104.681339,Regina
1449,Mapleridge Dr @ Maple Way (SB),50.50135,-104.684799,Regina
1450,Mapleridge Dr @ Mapleton Bay (SB),50.499242,-104.682346,Regina
1451,McIntosh St @ Rochdale Blvd (NB),50.49716,-104.652239,Regina
1452,Child Ave @ Mazinke Cr (EB),50.497855,-104.648145,Regina
1453,Quance Gate @ Quance St (NB),50.443906,-104.527303,Regina
1454,6th Ave N @ Angus Rd (EB),50.47908,-104.62166,Regina
1455,6th Ave N @ Shepherd St (WB),50.47937,-104.623111,Regina
1456,6th Ave N @ Smith St (EB),50.47885,-104.61464,Regina
1457,6th Ave N @ Cornwall St (EB),50.47886,-104.61191,Regina
1458,6th Ave N @ Hamilton St (EB),50.47884,-104.609,Regina
1459,6th Ave N @ Broad St (EB),50.478832,-104.60592,Regina
1460,6th Ave N @ Halifax St (EB),50.47886,-104.60295,Regina
1461,6th Ave N @ Ottawa St (EB),50.47885,-104.60012,Regina
1462,6th Ave N @ Montreal St (EB),50.47883,-104.597389,Regina
1463,Winnipeg St @ 6th Ave N (NB),50.47919,-104.59513,Regina
1467,9th Ave N @ Coop Refinery (WB),50.4826,-104.5787,Regina
1468,9th Ave N @ 119 9th Ave N (WB),50.48395,-104.58156,Regina
1469,9th Ave N @ 297 9th Ave N (WB),50.48433,-104.585731,Regina
1470,6th Ave N @ Toronto St (WB),50.47896,-104.59984,Regina
1471,6th Ave N @ Halifax St (WB),50.47893,-104.60391,Regina
1472,6th Ave N @ Broad St (WB),50.47895,-104.607069,Regina
1473,6th Ave N @ Hamilton St (WB),50.47896,-104.609889,Regina
1474,6th Ave N @ Cornwall St (WB),50.47894,-104.61282,Regina
1475,Eastgate Dr @ Neville Dr (EB),50.4505,-104.52827,Regina
1476,Eastgate Dr @ Argan Dr (SB),50.44876,-104.52787,Regina
1477,Turvey Rd @ Henderson Dr (EB),50.478149,-104.560878,Regina
1478,Solomon Dr @ Turvey Rd (SB),50.4776,-104.556816,Regina
1479,Solomon Dr @ Stock Rd (SB),50.47446,-104.55677,Regina
1480,Emmett Hall Rd @ Solomon Dr (EB),50.4727,-104.556079,Regina
1481,Emmett Hall Rd @ 2215 Emmett Hall (EB),50.47454,-104.552531,Regina
1482,Emmett Hall Rd @ Fleet St (EB),50.47548,-104.54971,Regina
1483,Fleet St @ SGI (SB),50.47317,-104.549302,Regina
1484,Ross Ave @ Macrae Bay (WB),50.46498,-104.5527,Regina
1485,Ross Ave @ Macrae Dr (WB),50.465,-104.55721,Regina
1486,Ross Ave @ Bower Cr (WB),50.46499,-104.56122,Regina
1487,Ross Ave @ Bower Cr (WB),50.46547,-104.56428,Regina
1488,Henderson Dr @ Leonard St (WB),50.47443,-104.575131,Regina
1490,McDonald St @ 6th Ave (NB),50.46019,-104.583551,Regina
1491,McDonald St @ 4th Ave (NB),50.46329,-104.583521,Regina
1492,McDonald St @ Ross Ave (NB),50.46535,-104.583529,Regina
1493,McDonald St @ 1st Ave (NB),50.46798,-104.58354,Regina
1494,McDonald St @ Hoffer Dr (NB),50.47215,-104.58208,Regina
1495,McDonald St @ Park St (NB),50.47355,-104.58048,Regina
1496,Sherwood Dr @ Krivel Cr (WB),50.4783,-104.667689,Regina
1500,1st Ave N @ McSherry Cr (EB),50.47434,-104.67179,Regina
1501,1st Ave N @ Bastedo Cr (EB),50.47264,-104.669049,Regina
1503,Windsor Park Rd @ Buckingham Dr (NB),50.429709,-104.526221,Regina
1505,Windsor Park Rd @ Haughton Rd (SB),50.44015,-104.52759,Regina
1506,Windsor Park Rd @ Cumberland Rd (SB),50.43693,-104.526611,Regina
1507,Windsor Park Rd @ Sunninghill Cr (SB),50.43328,-104.52631,Regina
1508,Windsor Park Rd @ Cranbourn Cr (SB),50.43221,-104.526339,Regina
1510,Woodhams Dr @ Woodland Grove Dr (EB),50.425197,-104.52674,Regina
1511,Green Ridge Gate @ Woodland Grove Dr (EB),50.422079,-104.525984,Regina
1512,Woodland Grove Dr @ Green Pine Gate (NB),50.423873,-104.52605,Regina
1516,Woodhams Dr @ Gloucester Bay (WB),50.42661,-104.532619,Regina
1517,Woodhams Dr @ Buckingham Dr (WB),50.42772,-104.53457,Regina
1518,Woodhams Dr @ Buckingham Dr (EB),50.42719,-104.53404,Regina
1523,Woodhams Dr @ Woodland Grove Dr (WB),50.425369,-104.526986,Regina
1525,Windsor Park Rd @ Cranbourn Cr (NB),50.43292,-104.52627,Regina
1526,Windsor Park Rd @ Sunninghill Cr (NB),50.43444,-104.52625,Regina
1527,Windsor Park Rd @ Cumberland Rd (NB),50.43769,-104.52653,Regina
1528,Windsor Park Rd @ Lepine Rd (NB),50.43914,-104.52728,Regina
1529,Winnipeg St @ 18th Ave (NB),50.43641,-104.595179,Regina
1530,Stockton St @ Nicurity Dr (NB),50.50023,-104.64564,Regina
1531,Junor Dr @ Stockton St (WB),50.5024,-104.6453,Regina
1532,Junor Dr @ Sherlock Dr (WB),50.50297,-104.648389,Regina
1533,McIntosh St @ Junor Dr (SB),50.50268,-104.650749,Regina
1534,McIntosh St @ Taylor Cr (SB),50.50045,-104.65156,Regina
1535,Radway St @ Baird St (SB),50.49736,-104.668449,Regina
1536,6th Ave N @ Garnet St (EB),50.47927,-104.626409,Regina
1537,11th Ave @ Scarth St (EB),50.450352,-104.610852,Regina
1538,11th Ave @ Cornwall St (EB),50.450335,-104.611521,Regina
1539,Winnipeg St @ Quinn Dr (SB),50.436341,-104.595304,Regina
1540,Wascana Dr @ Powerhouse Rd (SB),50.43384,-104.59304,Regina
1541,Stockton St @ Nicurity Dr (SB),50.49981,-104.645761,Regina
1542,Smith St @ 12th Ave (SB),50.44855,-104.61519,Regina
1544,11th Ave @ Cornwall St (EB),50.450325,-104.61239,Regina
1545,11th Ave @ Lorne St (WB),50.45038,-104.61347,Regina
1547,Victoria Ave @ Scarth St (WB),50.447218,-104.610621,Regina
1548,Willow Rd @ Quance St (SB),50.44318,-104.53033,Regina
1549,1st Ave N @ Dorothy St (EB),50.475028,-104.682331,Regina
1551,Wascana Pkwy @ Lakeshore Dr (NB),50.42437,-104.59515,Regina
1552,9th Ave N @ Hesse Bay (WB),50.48439,-104.615009,Regina
1554,5200 Block Parliament Ave (WB),50.41752,-104.65464,Regina
1555,James Hill Rd @ Parliament Ave (SB),50.41707,-104.65928,Regina
1556,James Hill Rd @ Tutor Way (SB),50.41505,-104.65958,Regina
1557,James Hill Rd @ Jim Cairns Blvd (SB),50.41134,-104.659638,Regina
1558,James Hill Rd @ Campling Ave (SB),50.408891,-104.659659,Regina
1559,James Hill Rd @ Gordon Rd (SB),50.40489,-104.66033,Regina
1560,James Hill Rd @ Pearsal Cr (SB),50.40107,-104.65999,Regina
1561,James Hill Rd @ Cornell Gate (EB),50.40078,-104.655771,Regina
1562,James Hill Rd @ Padwick Rd (EB),50.40096,-104.65069,Regina
1563,James Hill Rd @ Aerodrome Rd (SB),50.40717,-104.66018,Regina
1564,Diefenbaker Dr @ Armour Rd (EB),50.50633,-104.64346,Regina
1566,Harvard Way @ Grasslands Dr (NB),50.40727,-104.648192,Regina
1567,Gordon Rd @ Harbour Landing Dr (EB),50.40535,-104.65143,Regina
1568,Broad St @ Lakeshore Dr (SB),50.429077,-104.602725,Regina
1569,Rochdale Blvd @ Vanstone St (EB),50.49657,-104.63699,Regina
1570,Rochdale Blvd @ Argyle St N (EB),50.4966,-104.63039,Regina
1571,Rochdale Blvd @ Elgaard Dr (EB),50.496544,-104.627658,Regina
1572,Rochdale Blvd @ Poley St (EB),50.496627,-104.625119,Regina
1574,McEachern Dr @ Mazurak Cres (WB),50.49803,-104.62439,Regina
1575,Rochdale Blvd @ McEachern Dr (WB),50.49682,-104.62473,Regina
1576,Rochdale Blvd @ Galloway St (WB),50.49674,-104.62863,Regina
1577,Rochdale Blvd @ Argyle St (WB),50.49672,-104.63184,Regina
1578,Rochdale Blvd @ Vanstone St (WB),50.49666,-104.63692,Regina
1580,Dewdney Ave @ Dove Rd (EB),50.455075,-104.534051,Regina
1581,Dewdney Ave @ Bishop Cr (EB),50.45506,-104.531302,Regina
1582,Dewdney Ave @ Brown St (EB),50.45511,-104.54,Regina
1583,Fleet St @ Redbear Ave (SB),50.46871,-104.54928,Regina
1584,Parliament Ave @ 4545 Parliament Ave (EB),50.41726,-104.64569,Regina
1585,Parliament Ave @ 4546 Parliament Ave (WB),50.41745,-104.64616,Regina
1586,University Drive N @ Adhum Building (EB),50.41993,-104.586431,Regina
1588,Winnipeg St @ 17th Ave (NB),50.43958,-104.59519,Regina
1589,Vanstone St @ Big Bear Blvd (SB),50.49913,-104.636281,Regina
1591,University Park Dr @ Arens Rd (SB),50.44012,-104.54939,Regina
1592,Grant Rd @ Elgin Rd (SB),50.40731,-104.61065,Regina
1593,Woodhams Dr @ Olive Grove (EB),50.42612,-104.53097,Regina
1594,Green Apple Dr @ Green Bank Rd (EB),50.42096,-104.52357,Regina
1595,Chuka Blvd @ Green Apple Dr (SB),50.42026,-104.512575,Regina
1596,Chuka Blvd @ Green Jewel Blvd (SB),50.4185,-104.51356,Regina
1597,Chuka Blvd @ Green Falls Dr (SB),50.41667,-104.51686,Regina
1598,Chuka Blvd @ Goldfinch Way (SB),50.414342,-104.519915,Regina
1600,Wascana Gate @ Wascana View Dr (WB),50.415,-104.526731,Regina
1601,Wascana Gate @ Wascana Gardens Dr (WB),50.415,-104.529,Regina
1602,Wascana Circle @ Wascana Cove Dr (NB),50.41564,-104.5311,Regina
1603,Wascana Circle @ Wascana Ridge (NB),50.41852,-104.53126,Regina
1604,Wascana Circle @ Wascana Ridge Pl (WB),50.42034,-104.53269,Regina
1605,Wascana Circle @ Wascana Glen (WB),50.42175,-104.53564,Regina
1606,Wascana Circle @ Wascana Highlands (SB),50.42216,-104.540439,Regina
1607,Green Apple Dr @ Green Rose Cr (EB),50.420747,-104.520564,Regina
1608,Green Apple Dr @ Green Water Dr (EB),50.42066,-104.516079,Regina
1609,Argyle St @ Rochdale Blvd (SB),50.496153,-104.631645,Regina
1610,Argyle St @ Sangster Blvd (SB),50.491036,-104.631729,Regina
1611,Argyle St @ Davin Cr (NB),50.488396,-104.632099,Regina
1612,Argyle St @ Sangster Blvd (NB),50.491867,-104.630632,Regina
1613,Truesdale Dr @ Quance St (NB),50.444889,-104.555483,Regina
1614,Green Bank Rd @ Green Pine Gate (NB),50.423808,-104.524057,Regina
1615,Jim Cairns Blvd @ Aviator Cr (WB),50.411964,-104.654065,Regina
1616,Gordon Rd @ James Hill Rd (EB),50.405193,-104.659772,Regina
1617,Gordon Rd @ Universal Cr (EB),50.405187,-104.656363,Regina
1618,Grasslands Dr @ Harbour Landing Dr (EB),50.407561,-104.651547,Regina
1619,Harvard Way @ Grasslands Dr (SB),50.407265,-104.6483,Regina
1620,Buckingham Dr @ Woodhams Dr (EB),50.427591,-104.533819,Regina
1621,Buckingham Dr @ Essex Cr (EB),50.429003,-104.530467,Regina
1622,Buckingham Dr @ Windsor Park Rd (WB),50.429377,-104.526601,Regina
1623,Buckingham Dr @ Essex Cr (WB),50.429237,-104.530545,Regina
1624,Doiron Rd @ Sherwood Dr (SB),50.481412,-104.6957,Regina
1625,Doiron Rd @ Kestral Dr (SB),50.478105,-104.696223,Regina
1626,1st Ave N @ Courtney St (EB),50.474996,-104.687503,Regina
1627,Gordon Staseson Blvd @ Prairie View Dr (EB),50.475089,-104.694657,Regina
1628,Gordon Staseson Blvd @ Brookview Dr (EB),50.47501,-104.690672,Regina
1629,Primrose Green Dr @ Green Bank Rd (EB),50.425938,-104.523545,Regina
1630,Primrose Green Dr @ Green Brook Rd (EB),50.425941,-104.519871,Regina
1631,Primrose Green Dr @ Green Jade Lane (EB),50.425927,-104.513212,Regina
1633,Dewdney Ave @ Atkinson St (EB),50.454943,-104.592224,Regina
1634,Dewdney Ave @ Edgar St (EB),50.455049,-104.587787,Regina
1635,Dewdney Ave @ McDonald St (EB),50.455066,-104.583236,Regina
1636,Dewdney Ave @ Fleury St (EB),50.455071,-104.577669,Regina
1637,Dewdney Ave @ Park St (WB),50.455243,-104.572725,Regina
1638,Dewdney Ave @ Fleury St (WB),50.455244,-104.577937,Regina
1639,Dewdney Ave @ McAra St (WB),50.455242,-104.582429,Regina
1640,Dewdney Ave @ Edgar St (WB),50.455259,-104.588229,Regina
1641,Gordon Rd @ Lockwood Rd (WB),50.405114,-104.625315,Regina
1642,Primrose Green Dr @ Green Lily Rd (EB),50.425881,-104.507031,Regina
1643,Primrose Green Dr @ Green Turtle Rd (EB),50.425868,-104.503779,Regina
1644,Green Apple Dr @ Green Turtle Rd (WB),50.42142,-104.503773,Regina
1645,Green Apple Dr @ Green Lily Rd (WB),50.42122,-104.507274,Regina
1646,Canola Ave @ West Market St (WB),50.45259,-104.698593,Regina
1647,Canola Ave @ Alfalfa St (WB),50.452583,-104.701261,Regina
1648,Horizons Way @ Dewdney Ave (NB),50.454466,-104.703659,Regina
1649,Dewdney Ave @ Courtney St (EB),50.45509,-104.686583,Regina
1663,University Drive South @ Buffaloberry Way (WB),50.415735,-104.592141,Regina
1664,University Drive West @ Buffaloberry Way (NB),50.416819,-104.593787,Regina
PA1,CITY HALL,53.20356,-105.7542,Prince Albert
PA2,MCINTOSH MALL,53.20534,-105.75419,Prince Albert
PA3,3RD AVE WEST @ 13TH ST,53.20149,-105.76234,Prince Albert
PA4,15TH ST WEST @ BISHOP PASCAL PL,53.1994,-105.76683,Prince Albert
PA5,6TH AVE WEST @ 22ND ST,53.19288,-105.76993,Prince Albert
PA6,28TH ST @ 6TH AVE WEST,53.18765,-105.76918,Prince Albert
PA7,SOUTH HILL MALL,53.18607,-105.7644,Prince Albert
PA8,4TH AVE WEST @ 32ND ST,53.18373,-105.76528,Prince Albert
PA9,4TH AVE WEST @ MAHON DR,53.18218,-105.76528,Prince Albert
PA10,MARQUIS ROAD @ 2ND AVE WEST,53.17973,-105.76174,Prince Albert
PA11,MARQUIS ROAD EAST @ CENTRAL AVE,53.17944,-105.75379,Prince Albert
PA12,MARQUIS ROAD EAST @ 4TH AVE,53.18021,-105.74316,Prince Albert
PA13,MARQUIS ROAD EAST @ 5TH AVE,53.18029,-105.73893,Prince Albert
PA14,ART HAUSER CENTER,53.18451,-105.73747,Prince Albert
PA15,6TH AVE EAST @ 28TH ST,53.18816,-105.73746,Prince Albert
PA16,6TH AVE EAST @ BRANION DR,53.19118,-105.73743,Prince Albert
PA17,6TH AVE EAST @ 21ST ST,53.19395,-105.73744,Prince Albert
PA18,15TH ST EAST @ 6TH AVE,53.19956,-105.73861,Prince Albert
PA19,15TH ST EAST @ 3RD AVE,53.19954,-105.74609,Prince Albert
PA20,RIVER ST WEST @ 1ST AVE,53.20413,-105.75816,Prince Albert
PA21,RIVER ST WEST @ 3RD AVE,53.20284,-105.76301,Prince Albert
PA22,5TH AVE WEST @ 13TH ST,53.20118,-105.76723,Prince Albert
PA23,13TH ST WEST @ 6TH AVE,53.20102,-105.77032,Prince Albert
PA24,13TH ST WEST @ 8TH AVE,53.20106,-105.77581,Prince Albert
PA25,13TH ST WEST @ 11TH AVE,53.20105,-105.78162,Prince Albert
PA26,13TH ST WEST @ 12TH AVE,53.20105,-105.78639,Prince Albert
PA27,BERNICE SAYESE CENTER,53.20106,-105.79024,Prince Albert
PA28,1700 13TH ST WEST,53.20105,-105.79438,Prince Albert
PA29,13TH ST WEST @ 18TH AVE,53.20108,-105.79761,Prince Albert
PA30,19TH AVE WEST @ 14TH ST,53.20013,-105.80041,Prince Albert
PA31,MACARTHUR DR @ JOHNSON CR NORTH,53.19829,-105.80041,Prince Albert
PA32,MACARTHUR DR @ JOHNSON CR SOUTH,53.1968,-105.80245,Prince Albert
PA33,DONALDSON ST @ STULL PL,53.19547,-105.80147,Prince Albert
PA34,DONALDSON ST @ MACARTHUR DR,53.19549,-105.7978,Prince Albert
PA36,MACARTHUR DR @ 16TH ST WEST,53.19804,-105.7975,Prince Albert
PA37,15TH ST WEST @ 16TH AVE,53.19923,-105.79359,Prince Albert
PA39,15TH ST WEST @ 14TH AVE,53.19926,-105.78775,Prince Albert
PA41,15TH ST WEST @ 12TH AVE,53.19926,-105.78362,Prince Albert
PA42,15TH ST WEST @ 9TH AVE,53.1992,-105.77894,Prince Albert
PA43,15TH ST WEST @ 8TH AVE,53.19921,-105.77576,Prince Albert
PA44,680 15TH ST WEST,53.19922,-105.77289,Prince Albert
PA45,15TH ST WEST @ 6TH AVE,53.19921,-105.77003,Prince Albert
PA47,9TH AVE WEST @ 17TH ST,53.19697,-105.77854,Prince Albert
PA48,VICTORIA HOSPITAL NORTH PARKING LOT ENTRANCE,53.19263,-105.78051,Prince Albert
PA49,22ND ST WEST @ 5TH AVE,53.1931,-105.76559,Prince Albert
PA50,22ND ST WEST @ 3RD AVE,53.19311,-105.76251,Prince Albert
PA51,22ND ST WEST @ 2ND AVE,53.19311,-105.75939,Prince Albert
PA52,KINSMEN PARK 22ND ST,53.19313,-105.75567,Prince Albert
PA53,VICTORIA HOSPITAL,53.19119,-105.7842,Prince Albert
PA54,YWCA,53.19617,-105.75521,Prince Albert
PA55,ALFRED JENKINS FIELDHOUSE,53.18902,-105.78053,Prince Albert
PA56,2ND AVE WEST @ 32ND ST,53.18321,-105.75996,Prince Albert
PA57,KINSMEN WATER PARK,53.18822,-105.75719,Prince Albert
PA59,1ST AVE EAST @ 12TH ST,53.20186,-105.75154,Prince Albert
PA60,1ST AVE EAST @ 9TH ST,53.20513,-105.7516,Prince Albert
PA61,CARMENT COURT,53.2058,-105.74885,Prince Albert
PA62,RIVERSIDE SCHOOL,53.20779,-105.7433,Prince Albert
PA63,RIVER ST EAST @ 6TH AVE,53.20943,-105.73921,Prince Albert
PA64,4TH ST EAST @ 3RD ST,53.20936,-105.73411,Prince Albert
PA65,4TH ST EAST @ 9TH AVE,53.20845,-105.72675,Prince Albert
PA66,10TH AVE EAST 200 BLOCK,53.20911,-105.7223,Prince Albert
PA67,1ST ST EAST @ 10TH AVE,53.21066,-105.72026,Prince Albert
PA68,1ST ST EAST @ 12TH AVE,53.21001,-105.71509,Prince Albert
PA69,1ST ST EAST @ 13TH AVE,53.2096,-105.71182,Prince Albert
PA70,1400 1ST ST EAST,53.20909,-105.7078,Prince Albert
PA71,KINSMEN WORKSHOP,53.20637,-105.70538,Prince Albert
PA72,15TH AVE EAST @ 7TH ST,53.20336,-105.70641,Prince Albert
PA73,MCINTOSH DR @ BLACKWOOD DR,53.20177,-105.70315,Prince Albert
PA74,7TH ST EAST @ 14TH AVE,53.20322,-105.70978,Prince Albert
PA75,7TH ST EAST @ 13TH AVE,53.20371,-105.7138,Prince Albert
PA76,7TH ST EAST @ 12TH AVE,53.2041,-105.71686,Prince Albert
PA77,7TH ST EAST @ 11TH AVE,53.20443,-105.7198,Prince Albert
PA79,SASKPOLYTECHNIC WEST ENTRANCE,53.20101,-105.72439,Prince Albert
PA80,SASKPOLYTECHNIC NORTH ENTRANCE,53.2014,-105.7197,Prince Albert
PA81,15TH AVE EAST @ 15TH ST,53.2004,-105.70768,Prince Albert
PA82,MCINTOSH DR @ ALLBRIGHT CR,53.20037,-105.70664,Prince Albert
PA83,CORNERSTONE SOUTH EAST,53.1996,-105.72829,Prince Albert
PA84,CORNERSTONE SOUTH WEST,53.19946,-105.73289,Prince Albert
PA86,7TH ST EAST @ 15TH AVE,53.20285,-105.70572,Prince Albert
PA88,20TH ST @ 2ND AVE,53.19492,-105.75366,Prince Albert
PA89,20TH ST EAST @ 3RD AVE,53.19494,-105.74752,Prince Albert
PA92,6TH AVE EAST @ 23RD ST,53.19242,-105.73779,Prince Albert
PA94,22ND ST EAST @ 15TH AVE,53.193,-105.71062,Prince Albert
PA98,BRANION DR @ COSTER ROAD,53.19224,-105.71359,Prince Albert
PA99,BRANION DR @ LONGWORTH PL,53.19049,-105.7154,Prince Albert
PA100,BRANION DR @ 12TH AVE EAST,53.18946,-105.71993,Prince Albert
PA101,BRANION DR @ KNOX PL,53.18945,-105.72573,Prince Albert
PA102,BRANION DR @ JOHN DIEFENBAKER SCHOOL,53.18942,-105.72353,Prince Albert
PA104,BRANION DR @ MCLEOD AVE,53.19046,-105.73226,Prince Albert
PA105,25TH ST EAST @ 4TH AVE,53.19049,-105.74543,Prince Albert
PA106,25TH ST EAST @ 2ND AVE,53.19049,-105.74909,Prince Albert
PA107,25TH ST EAST @ 1ST AVE,53.19049,-105.75125,Prince Albert
PA108,4TH AVE EAST @ 28TH ST,53.18804,-105.74488,Prince Albert
PA109,28TH ST EAST @ 6TH AVE,53.1878,-105.73817,Prince Albert
PA110,28TH ST @ MCDONALD AVE,53.18781,-105.73101,Prince Albert
PA111,DUNN DR @ 28TH ST,53.18754,-105.72645,Prince Albert
PA112,DUNN DR @ WOODMAN CR,53.18473,-105.72509,Prince Albert
PA113,DUNN DR @ GREY OWL CR,53.18385,-105.72407,Prince Albert
PA114,DUNN DR @ 12TH AVE EAST,53.18273,-105.72017,Prince Albert
PA115,DUNN DR @ SHERMAN DR,53.18303,-105.71694,Prince Albert
PA116,SHERMAN DR @ LACROIX CR,53.18484,-105.7186,Prince Albert
PA117,SHERMAN DR @ WYLLIE ST,53.18645,-105.72039,Prince Albert
PA118,28TH ST EAST @ 12TH AVE,53.18781,-105.7193,Prince Albert
PA119,28TH ST EAST @ 15TH AVE,53.18759,-105.71247,Prince Albert
PA121,CENTRAL AVE @ 20TH ST,53.19476,-105.75426,Prince Albert
PA122,BRANION DR @ STEUART AVE,53.19126,-105.73633,Prince Albert
PA123,CORNERSTONE 13TH ST,53.2012,-105.73626,Prince Albert
PA124,17TH ST @ 6TH AVE WEST,53.19761,-105.77033,Prince Albert
PA125,13TH ST EAST @ 2ND AVE,53.20121,-105.74899,Prince Albert
PA126,13TH ST EAST @ 3RD AVE,53.2012,-105.74659,Prince Albert
PA127,13TH ST EAST @ 4TH AVE,53.2012,-105.7399,Prince Albert
PA130,15TH ST WEST @ 3RD AVE,53.19953,-105.76268,Prince Albert
PA131,PRINCE ALBERT PARKLAND HEALTH REGION,53.1988,-105.76984,Prince Albert
PA132,6TH AVE WEST @ 27TH ST,53.18871,-105.76996,Prince Albert
PA133,6TH AVE WEST @ 28TH ST,53.18734,-105.76997,Prince Albert
PA134,MARGO FOURNIER CENTER,53.20226,-105.75782,Prince Albert
PA135,28TH ST @ LAKEVIEW GATE,53.1876,-105.77287,Prince Albert
PA136,2ND AVE WEST @ 34TH ST,53.18138,-105.75996,Prince Albert
PA137,2ND AVE WEST @ 29TH ST,53.18665,-105.75995,Prince Albert
PA138,KINSMEN PARK 1ST AVE,53.19222,-105.75709,Prince Albert
PA139,10TH ST EAST @ 2ND AVE,53.20393,-105.7487,Prince Albert
PA140,5TH AVE @ 10TH ST EAST,53.20357,-105.74151,Prince Albert
PA141,10TH AVE EAST @ 8TH ST,53.20405,-105.72388,Prince Albert
PA142,3RD AVE EAST @ 8TH ST,53.20645,-105.74708,Prince Albert
PA144,20TH ST @ 5TH AVE EAST,53.19487,-105.74172,Prince Albert
PA148,SIIT,53.20193,-105.7071,Prince Albert
PA149,MUZZY DR @ PICKERING CR,53.1951,-105.70628,Prince Albert
PA150,SASKPOLYTECHNIC FRONT DOORS,53.19998,-105.7205,Prince Albert
PA151,CORNERSTONE NORTH EAST,53.19982,-105.72808,Prince Albert
PA152,CORNERSTONE NORTH WEST,53.19966,-105.73352,Prince Albert
PA153,COLUMBIAN CENTRE,53.20121,-105.76072,Prince Albert
PA154,MARQUIS RD @ 4TH AVE WEST,53.18042,-105.76532,Prince Albert
PA155,6TH AVE WEST @ JASPER PL,53.18071,-105.76997,Prince Albert
PA156,6TH AVE WEST @ AARON DR,53.18355,-105.76995,Prince Albert
PA157,MUZZY DRIVE @ KERNAGHAN CR,53.19444,-105.70129,Prince Albert
PA158,MUZZY DRIVE @ DAMOUR TERRACE,53.19172,-105.69934,Prince Albert
PA161,MUZZY DR @ LAMBS LANE,53.18936,-105.70433,Prince Albert
PA162,15TH AVE @ HELME CR,53.18836,-105.71154,Prince Albert
PA163,15TH AVE @ ATTREE BAY,53.19346,-105.71,Prince Albert
PA164,15TH AVE @ SPRUCE MEADOWS APTS,53.19662,-105.70883,Prince Albert
PA200,TRANSFER STATION,53.20013,-105.75245,Prince Albert
PA201,TRANSFER STATION,53.2,-105.75325,Prince Albert
