stop_id,stop_name,stop_lat,stop_lon,muni
1BAR,Downtown Barrie Terminal,44.38759814,-79.69113082,Barrie
144BAR,Barrie By the Bay Plaza,44.38419889,-79.69396387,Barrie
151BAR,Victoria Street,44.38145815,-79.69378391,Barrie
148BAR,John Street,44.37990156,-79.69372107,Barrie
146BAR,Brock Street,44.37720176,-79.69348116,Barrie
732BAR,Allandale Waterfront Station,44.37382969,-79.68970508,Barrie
168BAR,Granville Street,44.37171621,-79.69114256,Barrie
174BAR,William Street,44.37130339,-79.68839559,Barrie
165BAR,Burton at Bayview,44.3711314,-79.68436993,Barrie
173BAR,Robinson Street,44.37138819,-79.68121647,Barrie
170BAR,Melinda Crescent,44.37159264,-79.67856723,Barrie
166BAR,Garden Drive,44.37077229,-79.67420508,Barrie
716BAR,Yonge at Huronia,44.37023921,-79.67021818,Barrie
712BAR,Foster Drive,44.36896555,-79.66673841,Barrie
718BAR,Yonge at Little,44.36641123,-79.66270817,Barrie
719BAR,Barrington Residence,44.3639105,-79.65957671,Barrie
709BAR,D'Ambrosio Drive,44.36098314,-79.65592268,Barrie
707BAR,Cox Mill Road,44.35841154,-79.6513061,Barrie
705BAR,Yonge at Big Bay Point,44.35651809,-79.64697827,Barrie
723BAR,Heritage Square,44.35582833,-79.645051,Barrie
722BAR,Madelaine Drive,44.35464896,-79.64176327,Barrie
800BAR,Esther Drive,44.35279936,-79.63652178,Barrie
801BAR,Country Lane,44.35168136,-79.63343444,Barrie
725BAR,Barrie South GO Station,44.35185862,-79.62838858,Barrie
759BAR,Goodwin Drive,44.3500095,-79.63437346,Barrie
760BAR,Dean Avenue,44.34867834,-79.63777081,Barrie
517BAR,Seline Crescent,44.34385216,-79.64805831,Barrie
516BAR,430 Mapleview East,44.34349861,-79.64965678,Barrie
511BAR,Country Lane,44.34279639,-79.65277074,Barrie
512BAR,Mapleview at Huronia,44.34055384,-79.66309108,Barrie
520BAR,Welham Road,44.3390317,-79.66958204,Barrie
508BAR,Bayview Drive,44.33705738,-79.678095,Barrie
777BAR,Park Place,44.34022719,-79.68020069,Barrie
485BAR,Maple at Ross,44.39039984,-79.69250726,Barrie
484BAR,Sophia Street West,44.39184294,-79.69376706,Barrie
701BAR,Wellington at Bayfield,44.39346067,-79.69446369,Barrie
690BAR,Owen Street,44.39526863,-79.69028469,Barrie
683BAR,Berczy Street,44.3968854,-79.68661927,Barrie
689BAR,Oak Street,44.39851422,-79.68244071,Barrie
694BAR,Wellington at St Vincent,44.40002724,-79.67961143,Barrie
685BAR,Wellington at Duckworth,44.40286716,-79.67521105,Barrie
253BAR,Davies Cresent,44.40551596,-79.67443542,Barrie
254BAR,Duckworth at Grove,44.40759498,-79.67407238,Barrie
250BAR,Bernick  Drive,44.40969651,-79.67368687,Barrie
330BAR,Georgian College,44.41208657,-79.66913206,Barrie
216BAR,Cundles at J.C. Massie Way,44.41661353,-79.67614223,Barrie
222BAR,Lions Gate,44.41600796,-79.67899857,Barrie
950BAR,Livingstone Street East,44.41380659,-79.68398381,Barrie
928BAR,Osprey Ridge Road,44.41750463,-79.68727587,Barrie
929BAR,Marjoy Avenue,44.42018615,-79.68977918,Barrie
444BAR,Margaret Drive,44.41822043,-79.69612789,Barrie
446BAR,Michael Crescent,44.41611771,-79.70096226,Barrie
447BAR,East Bayfield Community Centre,44.41430522,-79.70283155,Barrie
440BAR,Georgian Mall,44.41066232,-79.70648719,Barrie
453BAR,Wal-Mart Plaza,44.40902611,-79.71030063,Barrie
462BAR,Kozlov Street,44.40835746,-79.7124228,Barrie
466BAR,McDougall Drive,44.40743543,-79.71601334,Barrie
460BAR,Ford Street,44.40596299,-79.71931928,Barrie
450BAR,Livingstone at Anne,44.40407683,-79.72361565,Barrie
452BAR,Balliston Crescent,44.40288702,-79.72786874,Barrie
469BAR,Livingstone at Sunnidale,44.40150078,-79.72920547,Barrie
465BAR,Leacock Drive,44.39947335,-79.73014671,Barrie
458BAR,Delaney Crescent,44.3982085,-79.73327138,Barrie
241BAR,Cundles at Livingstone,44.39653309,-79.73525923,Barrie
247BAR,Emma King Elementary School,44.39626026,-79.73291097,Barrie
243BAR,Longman Drive,44.39732265,-79.73039499,Barrie
231BAR,Burns Circle,44.39612658,-79.72634251,Barrie
915BAR,Leacock Drive,44.39607969,-79.72366027,Barrie
916BAR,Browning Trail,44.39397095,-79.722845,Barrie
419BAR,Lampman plaza,44.39150367,-79.72249002,Barrie
425BAR,Leacock at Letitia,44.39003276,-79.72121987,Barrie
421BAR,Browning Trail,44.3885896,-79.71995757,Barrie
920BAR,Fox Run,44.38768828,-79.71917526,Barrie
921BAR,Path to Browning Trail,44.38656933,-79.72086836,Barrie
922BAR,Lewis Lane,44.38558618,-79.72161823,Barrie
924BAR,Eden Drive,44.38312676,-79.71901445,Barrie
891BAR,Engel Crescent,44.38330295,-79.71526005,Barrie
422BAR,Edgehill Drive,44.38464894,-79.71221396,Barrie
177BAR,44 Cedar Point,44.38256363,-79.71219776,Barrie
175BAR,34 Cedar Point,44.38089632,-79.71281624,Barrie
179BAR,Cedar Point at Dunlop West,44.379696,-79.71397017,Barrie
274BAR,Hart Drive,44.38184822,-79.7067486,Barrie
266BAR,Dunlop at Anne,44.38274588,-79.70488457,Barrie
272BAR,Frances Street,44.38488824,-79.69991235,Barrie
270BAR,Eccles Street,44.38605848,-79.69723418,Barrie
275BAR,Toronto at Dunlop,44.38757788,-79.69370781,Barrie
278BAR,Toronto at Dunlop,44.38796949,-79.69339265,Barrie
276BAR,Eccles at Dunlop,44.38642319,-79.69691841,Barrie
269BAR,Eccles Street,44.38553734,-79.69882951,Barrie
268BAR,Boys Street,44.38455522,-79.70103279,Barrie
265BAR,Dunlop at Anne,44.3832618,-79.70394036,Barrie
273BAR,Hart Drive,44.38210236,-79.7065486,Barrie
180BAR,Cedar Point at Dunlop West,44.37947835,-79.71385158,Barrie
176BAR,35 Cedar Point,44.38083378,-79.71265332,Barrie
178BAR,65 Cedar Point,44.38261299,-79.71200525,Barrie
181BAR,Cedar Point at Edgehill,44.38429992,-79.71155682,Barrie
281BAR,Engel Crescent,44.38339257,-79.71534062,Barrie
324BAR,Eden Drive,44.38342827,-79.71933538,Barrie
322BAR,Lewis Lane,44.38611843,-79.72106688,Barrie
897BAR,Fox Run & Leacock Drive,44.38753486,-79.71917122,Barrie
898BAR,Letitia Street,44.38991961,-79.72088082,Barrie
899BAR,Leacock at Frost,44.39255316,-79.7226158,Barrie
53BAR,Austen Lane,44.39477935,-79.72275541,Barrie
947BAR,Cundles Road,44.39616283,-79.72350518,Barrie
230BAR,Burns Circle,44.39635486,-79.72676632,Barrie
242BAR,Longman Drive,44.39752466,-79.73016723,Barrie
246BAR,Emma King Elementary School,44.39649,-79.73277125,Barrie
240BAR,Cundles at Livingstone,44.3970684,-79.73543928,Barrie
457BAR,Delaney Crescent,44.39850887,-79.73220591,Barrie
464BAR,Leacock Drive,44.39949933,-79.72971203,Barrie
470BAR,Livingstone at Sunnidale,44.40124971,-79.72902032,Barrie
468BAR,Neelands Street,44.40302252,-79.72606062,Barrie
451BAR,Livingstone at Anne,44.40378993,-79.72389526,Barrie
461BAR,Ford Street,44.40570289,-79.71952208,Barrie
467BAR,Milne Court,44.40723445,-79.71581457,Barrie
463BAR,Kozlov Street,44.40809146,-79.71265922,Barrie
454BAR,Wal-Mart Plaza,44.40887955,-79.71010882,Barrie
455BAR,Livingstone at  Bayfield,44.40971361,-79.70817312,Barrie
441BAR,Georgian Mall,44.41109415,-79.70510317,Barrie
449BAR,Stanley Street,44.41288804,-79.70290207,Barrie
443BAR,Celeste Drive,44.41588126,-79.7010938,Barrie
445BAR,Meyer Avenue,44.41804245,-79.69606761,Barrie
926BAR,Marjoy Avenue,44.42020676,-79.6902143,Barrie
927BAR,Osprey Ridge Road,44.4172914,-79.68730671,Barrie
224BAR,Cundles at Livingstone,44.41380855,-79.68366293,Barrie
223BAR,Lions Gate,44.41577327,-79.67914207,Barrie
215BAR,Cundles at J.C. Massie Way,44.41633987,-79.67620116,Barrie
251BAR,Rose Street,44.40999837,-79.67387444,Barrie
255BAR,Duckworth at Grove,44.40816266,-79.67421265,Barrie
256BAR,Howard Cresent,44.40515709,-79.67474371,Barrie
686BAR,Marion Crescent,44.40244599,-79.67596138,Barrie
693BAR,Wellington at St Vincent,44.40073469,-79.67917016,Barrie
687BAR,Wellington near Oak,44.39802646,-79.68380941,Barrie
682BAR,Berczy Street,44.39710002,-79.68630001,Barrie
948BAR,Owen Street,44.395239,-79.690678,Barrie
949BAR,Wellington at Bayfield,44.39368125,-79.69413696,Barrie
486BAR,Maple at Ross,44.39018841,-79.69253335,Barrie
331BAR,Georgian College,44.41045445,-79.6684937,Barrie
345BAR,Maple Grove Public School,44.40556324,-79.67851469,Barrie
353BAR,Grove at St. Vincent,44.4035896,-79.68301249,Barrie
337BAR,Bothwell Crescent,44.40161247,-79.68602289,Barrie
339BAR,Barrie North Collegiate,44.40000377,-79.68909394,Barrie
349BAR,Owen Street,44.39829531,-79.6930308,Barrie
68BAR,Grove Street,44.39644259,-79.6963538,Barrie
74BAR,Wellington Street,44.39395278,-79.6942707,Barrie
75BAR,Worsley Street,44.39131549,-79.69200648,Barrie
651BAR,Innisfil Street,44.37388755,-79.69395617,Barrie
647BAR,Tiffin at Anne,44.37322039,-79.69695455,Barrie
641BAR,192 Tiffin Street,44.37220829,-79.70159464,Barrie
643BAR,236 Tiffin Street,44.37160704,-79.70415072,Barrie
645BAR,Dyment Road,44.37104459,-79.70670033,Barrie
581BAR,Patterson at Tiffin,44.36978945,-79.70888486,Barrie
580BAR,Phillips Street,44.36749753,-79.70832719,Barrie
574BAR,Alva Street,44.36420057,-79.70745891,Barrie
577BAR,Patterson Place,44.36191744,-79.70689989,Barrie
575BAR,Patterson at Ardagh,44.35720901,-79.70564801,Barrie
33BAR,Elizabeth Street,44.35658208,-79.70782268,Barrie
39BAR,Snowshoe Trail,44.3561345,-79.70982703,Barrie
34BAR,Ardagh at Ferndale,44.35508292,-79.7144091,Barrie
37BAR,Hawkins Drive,44.35342967,-79.72189311,Barrie
42BAR,Wright Drive,44.35231205,-79.72698487,Barrie
40BAR,Wildflower Court,44.35141836,-79.73092996,Barrie
490BAR,Saint Joan of Arc High School,44.34900391,-79.73426711,Barrie
491BAR,Batteaux Street,44.3479174,-79.7340536,Barrie
498BAR,Oakside Court,44.34083908,-79.72906609,Barrie
505BAR,White Elm Road,44.33952273,-79.72437457,Barrie
497BAR,Mapleton at Marsellus,44.33929434,-79.7204554,Barrie
488BAR,Holly Community Centre,44.33987811,-79.71668472,Barrie
493BAR,Emms Drive,44.34041427,-79.71421573,Barrie
495BAR,Mapleton at Essa,44.33954493,-79.71003526,Barrie
868BAR,Coughlin Road,44.33700717,-79.71018188,Barrie
870BAR,Essa at Mapleview,44.32873424,-79.71454455,Barrie
531BAR,Hollyholme Farm Road,44.32980473,-79.70927336,Barrie
534BAR,Reid Drive,44.33089332,-79.70430153,Barrie
539BAR,Mapleview at Veteran's,44.33201262,-79.69937219,Barrie
666BAR,King Street,44.32966122,-79.69842755,Barrie
201BAR,Norris Drive,44.32364713,-79.69352622,Barrie
198BAR,112 Commerce Park Drive,44.32453901,-79.68949655,Barrie
162BAR,Bryne Drive,44.32563066,-79.68724698,Barrie
161BAR,Mill Road,44.327047,-79.68785321,Barrie
871BAR,Commerce Park Drive,44.32968613,-79.68841173,Barrie
849BAR,505 Bryne Drive,44.33210072,-79.68939828,Barrie
525BAR,Barrie View Drive,44.33449674,-79.68796346,Barrie
188BAR,Clapperton Street,44.39030032,-79.69020332,Barrie
192BAR,Owen Street,44.39036202,-79.68751995,Barrie
189BAR,Collier at Mulcaster,44.39037224,-79.68509193,Barrie
194BAR,Poyntz Street,44.39042963,-79.68326777,Barrie
186BAR,Albert Street,44.39104266,-79.67958159,Barrie
128BAR,17 Blake Street,44.39170884,-79.67601842,Barrie
141BAR,St. Vincent Street,44.39260564,-79.67344728,Barrie
139BAR,Rodney Street,44.39346245,-79.67096589,Barrie
133BAR,Cook Street,44.39417028,-79.66891398,Barrie
136BAR,Parkview Center,44.39522877,-79.66530307,Barrie
143BAR,Vancouver Street,44.3950747,-79.66309055,Barrie
129BAR,Blake at Johnson,44.39702999,-79.65695215,Barrie
182BAR,Blake at Huron,44.3983094,-79.65342639,Barrie
183BAR,Steel Street,44.40074,-79.651694,Barrie
414BAR,Johnson at Steel,44.401289,-79.655784,Barrie
409BAR,Johnson at Grove,44.40542933,-79.65491367,Barrie
410BAR,Hickling Trail,44.40799619,-79.65451333,Barrie
401BAR,Cheltenham Road,44.41169531,-79.65379228,Barrie
406BAR,Johnson at Georgian,44.41529301,-79.65333888,Barrie
325BAR,314 Georgian Drive,44.41637423,-79.65657733,Barrie
332BAR,Gallie Court at Quarry Ridge,44.41577595,-79.65918375,Barrie
612BAR,RVH Main Entrance,44.415538,-79.661192,Barrie
569BAR,RVH Atrium Entrance,44.414484,-79.663549,Barrie
607BAR,Victoria Village,44.39089524,-79.69802649,Barrie
566BAR,Anne at Letitia,44.39183723,-79.71311627,Barrie
13BAR,Castle Drive,44.39285742,-79.71398784,Barrie
28BAR,Valley Drive,44.39465327,-79.71557114,Barrie
3BAR,Ecole Catholique,44.39596232,-79.71669424,Barrie
16BAR,Anne at Cundles,44.39814812,-79.71861332,Barrie
245BAR,Cundles at Sunnidale,44.3995707,-79.71715157,Barrie
239BAR,Coleman Health Care Centre,44.40060465,-79.71485951,Barrie
233BAR,Coulter Street,44.40304731,-79.70792202,Barrie
415BAR,Kozlov at Cundles,44.40499142,-79.70684254,Barrie
416BAR,Heather Street,44.40678734,-79.70875024,Barrie
901BAR,Gloria Street,44.40735307,-79.71133586,Barrie
635BAR,Rolston Drive,44.41537373,-79.69230844,Barrie
634BAR,Robin Court,44.41230464,-79.6897378,Barrie
106BAR,Alliance Boulevard,44.40756839,-79.68429057,Barrie
105BAR,Alliance Boulevard,44.40923713,-79.67933789,Barrie
108BAR,115 Bell Farm,44.4107726,-79.67581077,Barrie
109BAR,130 Bell Farm,44.41101637,-79.67525555,Barrie
104BAR,Alliance Boulevard,44.40946238,-79.6790649,Barrie
107BAR,Bell Farm at St Vincent,44.4074014,-79.68485661,Barrie
628BAR,St Vincent at Cundles,44.41205785,-79.68921308,Barrie
633BAR,Osprey Ridge Road,44.41519114,-79.69192287,Barrie
632BAR,St Vincent at Livingstone,44.41765012,-79.69403563,Barrie
912BAR,Gloria Street,44.40734596,-79.71163434,Barrie
913BAR,Heather Street,44.4066849,-79.70874205,Barrie
914BAR,Kozlov at Cundles,44.40489571,-79.70689529,Barrie
232BAR,Coulter Street,44.40347316,-79.70744886,Barrie
238BAR,Coleman Health Care Centre,44.40075877,-79.71489181,Barrie
244BAR,Cundles at Sunnidale,44.39987102,-79.71692684,Barrie
15BAR,Anne at Cundles,44.39832266,-79.71897992,Barrie
4BAR,Austen Lane,44.39621595,-79.71720756,Barrie
23BAR,Shelly Lane,44.3944009,-79.71562628,Barrie
12BAR,Portageview Public School,44.39290588,-79.71428337,Barrie
608BAR,Victoria Village,44.39075455,-79.69806293,Barrie
559BAR,RVH Atrium Entrance,44.414355,-79.663366,Barrie
333BAR,RVH Main Entrance,44.41525158,-79.65937016,Barrie
326BAR,322 Georgian Drive,44.41641432,-79.65860976,Barrie
405BAR,Johnson at Georgian,44.41534493,-79.65353099,Barrie
402BAR,Cheltenham Road,44.41152705,-79.65399405,Barrie
411BAR,Hickling Trail,44.40830721,-79.65458849,Barrie
407BAR,Johnson at Grove,44.40542054,-79.65513496,Barrie
413BAR,Steel Street,44.40119904,-79.65592549,Barrie
343BAR,Steel at Blake,44.40050613,-79.65192167,Barrie
911BAR,Lions Gate Centre,44.39860847,-79.65332178,Barrie
959BAR,Johnson at Indian Arrow Road,44.39634709,-79.65679556,Barrie
142BAR,Vancouver Street,44.39520833,-79.66276119,Barrie
135BAR,Parkview Center,44.39535416,-79.66558942,Barrie
132BAR,Cook Street,44.39437145,-79.66869622,Barrie
138BAR,Rodney Street,44.39368616,-79.67065032,Barrie
140BAR,St. Vincent Street,44.39282082,-79.67315153,Barrie
131BAR,Collier Street,44.3916347,-79.67656421,Barrie
185BAR,Albert Street,44.39129636,-79.67919255,Barrie
193BAR,Poyntz Street,44.39053749,-79.68288564,Barrie
190BAR,Collier at Mulcaster,44.39053858,-79.68510446,Barrie
191BAR,Owen Street,44.39048003,-79.68769966,Barrie
187BAR,Clapperton Street,44.39046905,-79.69033262,Barrie
558BAR,Codrington Street,44.39333734,-79.68554378,Barrie
585BAR,Dundonald Street,44.39663299,-79.68163124,Barrie
586BAR,Penetang at St. Vincent,44.3987596,-79.67817368,Barrie
936BAR,Cook Street,44.39894777,-79.66991125,Barrie
567BAR,Nelson at Napier,44.39884933,-79.66469301,Barrie
568BAR,Steel Street,44.40208864,-79.66402782,Barrie
408BAR,Nelson at Grove,44.405342,-79.663423,Barrie
60BAR,Kozlov Centre,44.40592201,-79.70474101,Barrie
58BAR,Bayfield Mall,44.40113899,-79.70051743,Barrie
737BAR,South Village Way,44.33917077,-79.67928743,Barrie
506BAR,Mapleview at Park Place,44.33638926,-79.68052609,Barrie
867BAR,Barrie View Drive,44.33498647,-79.68716992,Barrie
848BAR,506 Bryne Drive,44.33187138,-79.6894192,Barrie
850BAR,Commerce Park Drive,44.32991035,-79.68862443,Barrie
851BAR,Mills Road,44.32725928,-79.68813661,Barrie
852BAR,Commerce Park Drive,44.3253194,-79.6872821,Barrie
199BAR,121 Commerce Park Drive,44.32467468,-79.68975503,Barrie
200BAR,Norris Drive,44.32395013,-79.69301672,Barrie
665BAR,King Street,44.32942968,-79.69807287,Barrie
533BAR,Reid Drive,44.33128177,-79.70367789,Barrie
530BAR,Hollyholme Farm Road,44.33016375,-79.70874238,Barrie
853BAR,Essa Road,44.32921574,-79.71319544,Barrie
855BAR,Coughlin Road,44.33691527,-79.70991124,Barrie
494BAR,Mapleton at Essa,44.33965923,-79.70998171,Barrie
492BAR,Emms Drive,44.34062273,-79.71360782,Barrie
487BAR,Holly Community Centre,44.33993688,-79.7171497,Barrie
504BAR,White Elm Road,44.33976471,-79.72473666,Barrie
499BAR,Pinecliff Crescent,44.34123342,-79.72988353,Barrie
500BAR,Silvercreek Crescent,44.3477216,-79.73370491,Barrie
489BAR,Saint Joan of Arc High School,44.34901936,-79.73412737,Barrie
41BAR,Wildflower Court,44.35127803,-79.73086153,Barrie
36BAR,Grant's Way,44.3520781,-79.72746197,Barrie
32BAR,Eaglestone Lane,44.3532061,-79.72225259,Barrie
35BAR,Ardagh at Ferndale,44.35496088,-79.71401749,Barrie
38BAR,Snowshoe Trail,44.35598594,-79.70986103,Barrie
576BAR,Patterson at Ardagh,44.3571898,-79.70558597,Barrie
578BAR,Patterson Place,44.36170278,-79.70672568,Barrie
573BAR,Alva Street,44.36419828,-79.70730927,Barrie
579BAR,Phillips Street,44.36760738,-79.70815659,Barrie
582BAR,Patterson at Tiffin,44.36936283,-79.70862279,Barrie
646BAR,Dyment Road,44.37101971,-79.70622622,Barrie
644BAR,247 Tiffin Street,44.37141175,-79.70451547,Barrie
642BAR,207 Tiffin Street,44.37211017,-79.7014221,Barrie
648BAR,Tiffin at Anne,44.37299732,-79.69743144,Barrie
652BAR,Innisfil Street,44.37371258,-79.69418103,Barrie
147BAR,Brock Street,44.37692817,-79.69294874,Barrie
149BAR,John Street,44.37959209,-79.69351954,Barrie
152BAR,Victoria Street,44.38125324,-79.69361715,Barrie
150BAR,Simcoe Street,44.38510009,-79.69383166,Barrie
872BAR,Toronto Street,44.3862239,-79.69226406,Barrie
73BAR,Wellington Street,44.39329064,-79.69341391,Barrie
67BAR,Grove Street,44.39659223,-79.69624255,Barrie
348BAR,Owen Street,44.3984896,-79.69232901,Barrie
340BAR,Grove at Davidson,44.40018354,-79.68845319,Barrie
347BAR,Oak Street,44.40178296,-79.68568914,Barrie
354BAR,Grove at St. Vincent,44.40355178,-79.68287034,Barrie
937BAR,Grove at Lay,44.40525364,-79.67882825,Barrie
938BAR,Grove at Duckworth,44.406965,-79.67363,Barrie
939BAR,Grove at Cook Street,44.40651696,-79.66909317,Barrie
MESC0BAR,Way Point,44.3408766,-79.67861501,Barrie
521BAR,Welham Road,44.33861489,-79.67014003,Barrie
513BAR,Huronia Road,44.34023136,-79.66323561,Barrie
519BAR,Stunden Lane,44.34256241,-79.65314658,Barrie
518BAR,Seline Crescent,44.34367318,-79.64834135,Barrie
781BAR,Goodwin Drive,44.35002888,-79.63426262,Barrie
782BAR,Country Lane,44.35162742,-79.63273005,Barrie
783BAR,Esther Drive,44.35275154,-79.63584556,Barrie
784BAR,Ashford Drive,44.35467928,-79.64125159,Barrie
724BAR,Big Bay Plaza,44.35587356,-79.64462188,Barrie
704BAR,Yonge at Big Bay Point,44.35662146,-79.646705,Barrie
708BAR,Cox Mill Road,44.3583975,-79.65077689,Barrie
706BAR,Mill Creek,44.35967081,-79.65346446,Barrie
710BAR,D'Ambrosio Drive,44.3608334,-79.65540499,Barrie
721BAR,MacMillan Crescent,44.36288783,-79.65797763,Barrie
720BAR,Maclaren Avenue,44.364547,-79.660047,Barrie
717BAR,Yonge at Little,44.36649642,-79.66246134,Barrie
711BAR,Foster Drive,44.36889988,-79.66626824,Barrie
715BAR,Yonge at Huronia,44.37031143,-79.66970478,Barrie
171BAR,Peartree Court,44.37130103,-79.67549939,Barrie
169BAR,Melinda Crescent,44.371727,-79.6785403,Barrie
172BAR,Robinson Street,44.37155286,-79.68078785,Barrie
163BAR,Burton at Bayview,44.37112665,-79.68556396,Barrie
167BAR,Granville Street,44.3716525,-79.69052443,Barrie
77BAR,Georgian Mall North Entrance,44.41405703,-79.70988536,Barrie
357BAR,Hanmer at Bayfield,44.41690325,-79.7128153,Barrie
363BAR,Stanley Street,44.41839497,-79.70815081,Barrie
793BAR,Stanley Heights,44.41636905,-79.70671774,Barrie
794BAR,East Bayfield Community Centre,44.41432779,-79.70519653,Barrie
127BAR,Birchwood Drive,44.41291809,-79.70103455,Barrie
126BAR,Springdale Drive,44.41117477,-79.70001221,Barrie
623BAR,Deerpark Drive,44.41019058,-79.69866943,Barrie
622BAR,Springdale at Cundles,44.40817261,-79.69693756,Barrie
219BAR,Janine Street,44.4090004,-79.69464111,Barrie
319BAR,Ferris at Cundles,44.41063246,-79.68983818,Barrie
317BAR,155 Ferris Lane,44.40905148,-79.68960048,Barrie
316BAR,129 Ferris Lane,44.40774119,-79.69139469,Barrie
318BAR,Collete Crescent,44.40589431,-79.69422561,Barrie
320BAR,Heath Street,44.40454483,-79.69711304,Barrie
321BAR,Ferris at Bayfield,44.40299988,-79.70054626,Barrie
557BAR,Minets at Hurst,44.37281769,-79.66907976,Barrie
656BAR,Brennan Avenue,44.37250467,-79.66383119,Barrie
654BAR,Bay Lane,44.3706467,-79.66073281,Barrie
376BAR,Hurst at Little,44.36817967,-79.65565724,Barrie
371BAR,Hurst at Cox Mill,44.36730494,-79.65213682,Barrie
368BAR,Kingswood Plaza,44.36597526,-79.64986134,Barrie
378BAR,Manor Gate,44.36535846,-79.64881031,Barrie
374BAR,Golden Meadow Road,44.36362786,-79.64362872,Barrie
375BAR,Kell Place,44.36341351,-79.63644352,Barrie
372BAR,Edwards Drive,44.36152163,-79.63255951,Barrie
117BAR,Hurst Drive,44.36057206,-79.63237239,Barrie
802BAR,Grand Forest Drive,44.35978883,-79.63587599,Barrie
972BAR,Big Bay Point at Dodson,44.358631,-79.641179,Barrie
774BAR,Yonge and Big Bay Point,44.3569028,-79.64899136,Barrie
775BAR,Painswick Library,44.35405203,-79.64798013,Barrie
778BAR,Madelaine Drive,44.35238483,-79.6433459,Barrie
779BAR,Esther Drive,44.35022474,-79.63913789,Barrie
780BAR,Country Lane,44.34894871,-79.63827191,Barrie
524BAR,Barrie View Drive,44.33468606,-79.68872292,Barrie
526BAR,Canadian Tire Plaza,44.333674,-79.693041,Barrie
536BAR,120 Mapleview Drive West,44.33304124,-79.69588091,Barrie
538BAR,Mapleview at Veteran's,44.33243152,-79.69856992,Barrie
661BAR,Caplan Avenue,44.33678215,-79.69996043,Barrie
659BAR,Brookwood Drive,44.33963864,-79.70053342,Barrie
671BAR,Touchette Drive,44.34217782,-79.70118081,Barrie
664BAR,Veteran's at Harvie,44.34470155,-79.7018223,Barrie
662BAR,Veteran's at Essa,44.34682915,-79.70389522,Barrie
824BAR,Stroud Place,44.34752335,-79.70594399,Barrie
825BAR,Cumming Drive,44.34952889,-79.71017508,Barrie
826BAR,Hawthorne Crescent,44.35027506,-79.71156081,Barrie
827BAR,Wildwood Trail,44.35190209,-79.71363959,Barrie
828BAR,Ardagh Road,44.35477,-79.71462161,Barrie
829BAR,Cuthbert Street,44.35732942,-79.7152786,Barrie
830BAR,Bishop Drive,44.36103958,-79.71530502,Barrie
831BAR,Manhattan Homes,44.36565304,-79.71332563,Barrie
883BAR,33 Ferndale Drive,44.37103218,-79.71553525,Barrie
271BAR,Dunlop at Ferndale,44.37587879,-79.71979931,Barrie
277BAR,Sarjeant Drive,44.37736722,-79.71680265,Barrie
627BAR,Sproule at Kraus,44.37265817,-79.73537759,Barrie
604BAR,Pringle at Sproule,44.37479916,-79.7310793,Barrie
603BAR,Pringle at Edgehill,44.37803338,-79.73431069,Barrie
286BAR,Jagges Drive,44.38028246,-79.72892291,Barrie
283BAR,Edgehill at Ferndale,44.38118332,-79.7248207,Barrie
890BAR,Fox Run,44.38264272,-79.71871038,Barrie
925BAR,Edgehill at Anne,44.38637,-79.70931,Barrie
25BAR,Shirley Avenue,44.3907245,-79.71217627,Barrie
565BAR,Anne at Letitia,44.39156767,-79.71290572,Barrie
702BAR,Eccles Street,44.39025757,-79.70191933,Barrie
696BAR,Barrie Medical Arts,44.38932298,-79.70403389,Barrie
698BAR,135 Wellington Place,44.38852804,-79.70550858,Barrie
700BAR,Wellington Plaza,44.38667327,-79.70698462,Barrie
248BAR,Wellington at Donald,44.38555,-79.706483,Barrie
510BAR,Mapleview at Chef,44.349738,-79.621282,Barrie
515BAR,Royal Jubilee Drive,44.35106978,-79.61566371,Barrie
596BAR,Griffin Gate,44.35332785,-79.61089569,Barrie
602BAR,The Queensway,44.35490312,-79.611327,Barrie
598BAR,Pepin Court,44.35796069,-79.6121439,Barrie
595BAR,Prince William Way at Empire,44.35982026,-79.61288575,Barrie
600BAR,Sovereign's Gate,44.36201245,-79.61448897,Barrie
121BAR,Royal Park Side Drive,44.36280583,-79.62251539,Barrie
877BAR,Ward Drive,44.35514971,-79.6567862,Barrie
878BAR,Leggott Avenue,44.35468509,-79.65888611,Barrie
879BAR,Willow Landing School,44.35403734,-79.66165791,Barrie
9BAR,Huronia at Big Bay Point,44.352655,-79.665084,Barrie
752BAR,Huronia Medical Clinic,44.34749335,-79.66391904,Barrie
736BAR,North Village Way,44.34150661,-79.67819993,Barrie
90BAR,Churchill Drive,44.34321618,-79.67807608,Barrie
968BAR,Barrie Primary Care Centre,44.34727521,-79.67911743,Barrie
87BAR,Bayview at Big Bay Point,44.35096366,-79.6801484,Barrie
84BAR,279 Bayview Drive,44.35423568,-79.68106456,Barrie
100BAR,Mollard Court,44.35586045,-79.68165551,Barrie
83BAR,231 Bayview Drive,44.35864656,-79.68243333,Barrie
95BAR,Bayview at Little,44.36257539,-79.68353462,Barrie
80BAR,Allandale Heights School,44.36538192,-79.6842543,Barrie
102BAR,Springhome Road,44.3670153,-79.68467075,Barrie
54BAR,Brooks Street,44.36793473,-79.68716456,Barrie
56BAR,Marshall Street,44.36791498,-79.68976011,Barrie
55BAR,Innisfil Street,44.36789835,-79.69228549,Barrie
386BAR,Innisfil at Essa,44.36995142,-79.69299401,Barrie
388BAR,Jacobs Terrace,44.37223523,-79.69358288,Barrie
393BAR,Tiffin Street,44.37366167,-79.69395007,Barrie
385BAR,Brock Street,44.37543101,-79.69535773,Barrie
383BAR,Innisfil at Brock,44.37668271,-79.69635104,Barrie
389BAR,John Street,44.37955526,-79.6965848,Barrie
398BAR,Victoria at Innisfil,44.3814338,-79.69668465,Barrie
396BAR,Vespra Street,44.38276907,-79.69688132,Barrie
392BAR,Perry Street,44.38415534,-79.69788392,Barrie
308BAR,Essa at Mapleview,44.32785398,-79.71541508,Barrie
299BAR,Dyer Boulevard,44.32466096,-79.71724085,Barrie
46BAR,Athabaska at Essa,44.32183694,-79.71879183,Barrie
49BAR,Rundle Crescent,44.32269687,-79.72353994,Barrie
47BAR,Lougheed Road,44.32184739,-79.72805133,Barrie
473BAR,Lougheed at Mapleview,44.32504571,-79.72906455,Barrie
548BAR,Marsellus at Mapleview,44.32693573,-79.72470867,Barrie
552BAR,Sundew Drive,44.32879474,-79.72520113,Barrie
545BAR,Downing Crescent,44.33163557,-79.72400905,Barrie
542BAR,Churchland Drive,44.33349211,-79.72085917,Barrie
543BAR,Clute Cresent,44.33718263,-79.71954061,Barrie
547BAR,Marsellus at Mapleton,44.33921511,-79.72006099,Barrie
291BAR,Roberta Place,44.34205309,-79.70697499,Barrie
305BAR,Harvie Road,44.34390649,-79.70586621,Barrie
313BAR,Essa at Veteran's,44.34656133,-79.70433311,Barrie
295BAR,Beacon Road,44.35114001,-79.70005527,Barrie
983BAR,Loggers Run,44.35488175,-79.69921572,Barrie
296BAR,Bryne Drive,44.3576689,-79.69807715,Barrie
301BAR,Essa at Fairview,44.3642078,-79.69713969,Barrie
873BAR,Anne Street,44.3681091,-79.69473858,Barrie
817BAR,Burton Avenue,44.37131163,-79.69237609,Barrie
7320BAR,Allandale Go Plat10,44.37425803,-79.69049318,Barrie
8BAR,Brock Street,44.37535431,-79.69885335,Barrie
21BAR,John Street,44.37766696,-79.70087481,Barrie
29BAR,Vespra Street,44.37975077,-79.70266864,Barrie
5BAR,Anne at Dunlop,44.38220464,-79.70471715,Barrie
59BAR,Coulter Street,44.400654,-79.699795,Barrie
61BAR,Bayfield at Cundles,44.40466177,-79.70328888,Barrie
941BAR,Nelson Street,44.40602116,-79.66327608,Barrie
942BAR,Nelson at Steel,44.40208327,-79.66430677,Barrie
943BAR,Nelson at Napier,44.39876001,-79.66496391,Barrie
944BAR,Napier at Cook,44.39906506,-79.67025518,Barrie
583BAR,Penetang at St Vincent,44.39885657,-79.67835618,Barrie
584BAR,Penetang at Dundonald,44.39672154,-79.68178941,Barrie
946BAR,Mulcaster at Codrington,44.393033,-79.685702,Barrie
78BAR,500 Bayfield Street,44.41283148,-79.71082267,Barrie
72BAR,Bayfield at Livingstone,44.41002612,-79.7083016,Barrie
69BAR,Heather Street,44.40823674,-79.70679318,Barrie
66BAR,Glenwood Drive,44.40304432,-79.70217584,Barrie
310BAR,Essa at Allandale GO,44.37390795,-79.69085611,Barrie
818BAR,Burton Avenue,44.37142026,-79.69258128,Barrie
293BAR,Essa at Anne,44.36787963,-79.69510843,Barrie
289BAR,Barrie Curling Club,44.366855,-79.69581395,Barrie
431BAR,Little Ave at Fairview,44.35998823,-79.69252466,Barrie
555BAR,Marshall at Little,44.36048989,-79.69036739,Barrie
429BAR,Chieftain Crescent,44.36100553,-79.68809858,Barrie
427BAR,Allandale Recreation Centre,44.36182063,-79.68439652,Barrie
428BAR,Broadmoor Avenue,44.3623357,-79.68200413,Barrie
434BAR,Highcroft Road,44.36340671,-79.67708853,Barrie
437BAR,McConkey Place,44.36461772,-79.67157548,Barrie
364BAR,Huronia at Little,44.36523708,-79.66881516,Barrie
367BAR,Webb Street,44.36090576,-79.66754154,Barrie
365BAR,Herrell Avenue,44.3589261,-79.66675689,Barrie
366BAR,Truman Road,44.35512796,-79.6656429,Barrie
750BAR,Big Bay Point Road,44.35329706,-79.6651724,Barrie
124BAR,Welham Road,44.35102962,-79.67045613,Barrie
678BAR,Ellis Drive,44.34842448,-79.67003749,Barrie
675BAR,Churchill Drive,44.3454862,-79.66983149,Barrie
672BAR,530 Welham,44.3420197,-79.67023057,Barrie
681BAR,Welham at Mapleview,44.3391853,-79.67000379,Barrie
932BAR,Hooper Road,44.33673653,-79.66942321,Barrie
933BAR,Saunders at Welham,44.33427702,-79.66897784,Barrie
756BAR,Hooper Road,44.33312923,-79.67365255,Barrie
757BAR,Saunders at Bayview,44.332292,-79.67729778,Barrie
97BAR,Bayview at Mapleview,44.33664273,-79.67866866,Barrie
982BAR,47 Churchhill Dr,44.344218,-79.674133,Barrie
676BAR,Churchill Drive,44.34545915,-79.66973958,Barrie
677BAR,Ellis Drive,44.34902631,-79.67005942,Barrie
674BAR,Welham at Big Bay Point,44.35151574,-79.67034931,Barrie
747BAR,Truman Road,44.35514175,-79.66549045,Barrie
746BAR,Herrell Avenue,44.35857591,-79.66651332,Barrie
745BAR,Webb Street,44.36115868,-79.6674742,Barrie
744BAR,Huronia at Little,44.36502248,-79.66851906,Barrie
433BAR,Garden Drive,44.36508178,-79.66999973,Barrie
426BAR,Armstrong Boulevard,44.36359759,-79.67665432,Barrie
438BAR,Ridgeway Avenue,44.36277595,-79.68046513,Barrie
935BAR,Bayview Drive,44.36217774,-79.68333143,Barrie
811BAR,Chieftain Crescent,44.36117253,-79.68779192,Barrie
436BAR,Marshall Street,44.36069689,-79.68995866,Barrie
430BAR,Little Ave at Fairview,44.35989241,-79.69362247,Barrie
314BAR,20 Fairview Road,44.3619944,-79.69495843,Barrie
65BAR,Ferris Lane,44.402915,-79.701782,Barrie
70BAR,Springwater plaza,44.40802404,-79.70620755,Barrie
71BAR,Bayfield at Livingstone,44.41032007,-79.7081283,Barrie
76BAR,Georgian Mall,44.41188243,-79.70857054,Barrie
249BAR,Anne Street,44.38473684,-79.70599285,Barrie
699BAR,Wellington Plaza,44.38769346,-79.70626444,Barrie
697BAR,135 Wellington Place,44.38842266,-79.70540222,Barrie
695BAR,Barrie Medical Arts,44.38939941,-79.70355348,Barrie
703BAR,Eccles Street,44.39020975,-79.70172605,Barrie
24BAR,Shirley Avenue,44.39053543,-79.71222054,Barrie
18BAR,Edgehill Drive,44.38715706,-79.70935615,Barrie
895BAR,Leacock Drive,44.38493693,-79.71186572,Barrie
284BAR,Fox Run,44.3826895,-79.71904306,Barrie
282BAR,Edgehill at Ferndale,44.38137573,-79.72441084,Barrie
285BAR,Jagges Drive,44.38051815,-79.72841558,Barrie
288BAR,Pringle Drive,44.37867247,-79.73480137,Barrie
287BAR,Miller Drive,44.37608105,-79.74063237,Barrie
556BAR,Ruffet Drive,44.37341955,-79.73863969,Barrie
280BAR,Dunlop at Eccles,44.38543663,-79.6975291,Barrie
395BAR,Vespra Street,44.3825758,-79.69695693,Barrie
390BAR,John Street,44.37984753,-79.69672906,Barrie
384BAR,Innisfil at Brock,44.3759247,-79.69593673,Barrie
394BAR,Tiffin Street,44.37388556,-79.69418182,Barrie
387BAR,Innisfil at Essa,44.37090147,-79.69336827,Barrie
381BAR,Adelaide Street,44.36875087,-79.69280688,Barrie
749BAR,Marshall Street,44.36781897,-79.69000517,Barrie
748BAR,Bayview Drive,44.36782341,-79.68694059,Barrie
92BAR,Glenridge Road,44.36660415,-79.68471616,Barrie
79BAR,Allandale Heights School,44.3652556,-79.68435858,Barrie
94BAR,Bayview at Little,44.36268923,-79.68368112,Barrie
82BAR,220 Bayview Drive,44.3589353,-79.68264805,Barrie
99BAR,Mollard Court,44.35662893,-79.68203146,Barrie
85BAR,286 Bayview Drive,44.35405155,-79.68116529,Barrie
86BAR,316 Bayview Drive,44.35219315,-79.68067168,Barrie
969BAR,Barrie Primary Care Centre,44.3480153,-79.67959,Barrie
91BAR,Bayview Drive,44.34288369,-79.67825741,Barrie
741BAR,Huronia Medical Clinic,44.34714163,-79.6637841,Barrie
116BAR,Huronia Road,44.35324087,-79.66438248,Barrie
113BAR,Willow Landing School,44.35374366,-79.6621861,Barrie
118BAR,Loon Avenue,44.3543867,-79.65939591,Barrie
123BAR,Ward Drive,44.35492816,-79.65710129,Barrie
110BAR,435 Big Bay Point,44.35575709,-79.65337363,Barrie
765BAR,Big Bay Point at Yonge,44.35679551,-79.64859841,Barrie
971BAR,Ashford Drive,44.35828548,-79.64178828,Barrie
120BAR,Big Bay Point at Pine,44.3595555,-79.63626964,Barrie
822BAR,Pine Drive,44.36041247,-79.63231874,Barrie
122BAR,Sandringham Drive,44.36247194,-79.62307677,Barrie
601BAR,Sovereign's Gate,44.36196381,-79.61469591,Barrie
594BAR,Prince William Way at Empire,44.36012253,-79.61327074,Barrie
599BAR,Sandringham Drive,44.35819289,-79.6124419,Barrie
593BAR,Saint Gabriel Catholic School,44.35519739,-79.61162789,Barrie
597BAR,Mapleview at Prince William Way,44.35223,-79.611357,Barrie
514BAR,Royal Jubilee Drive,44.35115115,-79.61581253,Barrie
509BAR,Mapleview at Lily,44.349796,-79.62196,Barrie
522BAR,Mapleview at Yonge,44.34860422,-79.62718871,Barrie
6BAR,Anne at Dunlop,44.38162231,-79.70452881,Barrie
19BAR,George Street,44.38089799,-79.70392712,Barrie
30BAR,Victoria Street,44.37892344,-79.70222961,Barrie
22BAR,John Street,44.37787921,-79.70133002,Barrie
7BAR,Brock Street,44.37571313,-79.69962744,Barrie
300BAR,Essa at Fairview,44.36530952,-79.69690293,Barrie
294BAR,Ardagh Road,44.35778546,-79.69836984,Barrie
306BAR,Loggers Run,44.35499844,-79.69942096,Barrie
307BAR,Loggers Run,44.35160711,-79.70007618,Barrie
312BAR,Essa at Veteran's,44.3470952,-79.7043273,Barrie
304BAR,Harvie Road,44.34432976,-79.70590984,Barrie
290BAR,Roberta Place,44.34217844,-79.70716838,Barrie
540BAR,Bibby Court,44.33854098,-79.72003714,Barrie
546BAR,Farmstead Crescent,44.33625379,-79.71945808,Barrie
541BAR,Churchland Drive,44.33385271,-79.72055565,Barrie
544BAR,Downing Cresent,44.33161711,-79.72428821,Barrie
551BAR,Sundew Drive,44.32871691,-79.72534005,Barrie
550BAR,Marsellus at Mapleview,44.32671816,-79.72481436,Barrie
472BAR,Lougheed at Mapleview,44.32473266,-79.7290948,Barrie
48BAR,Lougheed Road,44.3218044,-79.72753192,Barrie
50BAR,Rundle Cresent,44.32258387,-79.72355319,Barrie
45BAR,Athabaska at Essa,44.32207598,-79.72029115,Barrie
298BAR,Dunn Street,44.32445589,-79.71713784,Barrie
292BAR,Ecole Romeo Dallaire,44.32684893,-79.71576233,Barrie
537BAR,125 Mapleview Drive West,44.33280986,-79.69597427,Barrie
527BAR,Canadian Tire Plaza,44.33345762,-79.69292148,Barrie
529BAR,Bryne Drive,44.33397649,-79.69059502,Barrie
761BAR,Esther Drive,44.35003819,-79.63878138,Barrie
762BAR,Madelaine Drive,44.35229553,-79.64273033,Barrie
763BAR,94 Dean Avenue,44.35289525,-79.64438362,Barrie
764BAR,Painswick Library,44.35423106,-79.64809798,Barrie
380BAR,Purt Court,44.36247216,-79.6328003,Barrie
369BAR,Bloxham Place,44.3635998,-79.63612231,Barrie
373BAR,Golden Meadow Road,44.36384181,-79.64324135,Barrie
379BAR,Manor Gate,44.36504919,-79.64799075,Barrie
370BAR,Hurst at Cox Mill,44.36714457,-79.65150669,Barrie
377BAR,Hurst at Little,44.3684195,-79.65575331,Barrie
728BAR,Tollendal Mill Road,44.36941788,-79.65765606,Barrie
653BAR,Bay Lane,44.3707364,-79.66031949,Barrie
655BAR,Brennan Avenue,44.37225493,-79.66302004,Barrie
657BAR,Hurst at Minets Point,44.37304072,-79.66823262,Barrie
930BAR,Yonge Street,44.37099961,-79.66875031,Barrie
204BAR,Canadian Tire,44.39962027,-79.7011161,Barrie
203BAR,Bayfield Mall,44.39876152,-79.70271941,Barrie
202BAR,49 Coulter Street,44.39990285,-79.70560767,Barrie
206BAR,Argyle Road,44.40208154,-79.70691486,Barrie
205BAR,Coulter at Cundles,44.40305064,-79.70749797,Barrie
235BAR,Kozlov Street,44.40385218,-79.70613296,Barrie
934BAR,Sarjeant Drive,44.37770735,-79.71649183,Barrie
893BAR,Ferndale Drive,44.37577802,-79.72000887,Barrie
892BAR,38 Ferndale Drive,44.37099244,-79.71593259,Barrie
839BAR,Manhattan Homes,44.36602328,-79.71352142,Barrie
840BAR,Bishop Drive,44.36128835,-79.71551185,Barrie
841BAR,Ferndale Woods Public School,44.35912106,-79.7156525,Barrie
842BAR,Ferndale at Ardagh,44.3551172,-79.71493634,Barrie
843BAR,Hawthorne and Wildwood,44.35219286,-79.71402112,Barrie
844BAR,Hawthorne Crescent,44.35062289,-79.71253921,Barrie
845BAR,Cumming Drive,44.34938384,-79.71030138,Barrie
846BAR,Stroud Place,44.34750067,-79.70631313,Barrie
847BAR,Veteran's at Essa,44.34683989,-79.70461815,Barrie
663BAR,Veteran's at Harvie,44.34460487,-79.70198376,Barrie
670BAR,Touchette Drive,44.34251775,-79.70153852,Barrie
667BAR,Mapleton Avenue,44.33988511,-79.70086525,Barrie
660BAR,Caplan Avenue,44.33712995,-79.700329,Barrie
399BAR,Johnson at Blake,44.397829,-79.656562,Barrie
400BAR,Johnson at Napier,44.39796716,-79.65635548,Barrie
640BAR,Sundew at Red Oak,44.328088,-79.733158,Barrie
606BAR,Red Oak at Sundew,44.327712,-79.733342,Barrie
BRPMT20,Kennedy Rd S n/of First Gulf Blvd,43.673256,-79.718468,Brampton
BRPMT30,Kennedy Rd s/of Steeles Ave,43.675159,-79.72171,Brampton
BRPMT55,Rutherford Rd S n/of Steeles Ave E,43.681385,-79.718147,Brampton
BRPMT60,Rutherford Rd S/of Bramsteele Rd,43.681969,-79.718979,Brampton
BRPMT70,Rutherford Rd S n/of Bramsteele Rd,43.683807,-79.721458,Brampton
BRPMT80,Rutherford Rd S at Glidden Rd,43.686333,-79.725067,Brampton
BRPMT90,Rutherford Rd S at Selby Rd,43.689014,-79.728958,Brampton
BRPMT100,Rutherford Rd S opp Stafford Rd,43.690235,-79.730621,Brampton
BRPMT110,Rutherford Rd S at Clarence St,43.69146,-79.73188,Brampton
BRPMT120,Orenda Rd e/of Rutherford Rd S,43.695114,-79.732758,Brampton
BRPMT130,Orenda Rd btwn Rutherford Rd S & Heart Lake Rd,43.695702,-79.729797,Brampton
BRPMT140,Orenda Rd opp Heart Lake Rd,43.696758,-79.727829,Brampton
BRPMT150,Orenda Rd opp Tilbury Crt,43.697323,-79.725029,Brampton
BRPMT160,Orenda Rd at 237 Orenda Rd,43.697067,-79.722672,Brampton
BRPMT170,Orenda Rd at Titan Rd,43.698078,-79.720261,Brampton
BRPMT180,West Dr n/of Orenda Rd,43.699875,-79.718369,Brampton
BRPMT190,West Dr s/of Clark Blvd ( 55 West Dr ),43.702724,-79.723129,Brampton
BRPMT200,Clark Blvd e/of West Dr,43.7047,-79.726936,Brampton
BRPMT210,Clark Blvd at 185 Clark Blvd,43.706436,-79.725029,Brampton
BRPMT220,Clark Blvd at Terese Rd,43.709229,-79.724075,Brampton
BRPMT222,Queen St E bwtn Torbram Rd & Gateway Blvd,43.736172,-79.70401,Brampton
BRPMT230,Clark Blvd at Braemar Dr,43.711452,-79.721512,Brampton
BRPMT235,Clark Blvd at Briar Path,43.713219,-79.720047,Brampton
BRPMT270,Clark Blvd at Lisa St,43.709747,-79.724022,Brampton
BRPMT280,Clark Blvd opp 185 Clark Blvd,43.705849,-79.726028,Brampton
BRPMT290,Clark Blvd at West Dr,43.704773,-79.727211,Brampton
BRPMT300,West Dr s/of Clark Blvd,43.703896,-79.726875,Brampton
BRPMT308,West Dr at 60 West Dr,43.703243,-79.724487,Brampton
BRPMT310,West Dr at Norpak Whse,43.701523,-79.721489,Brampton
BRPMT320,West Dr s/of Orenda Rd,43.699127,-79.71785,Brampton
BRPMT330,Glidden Rd w/of West Dr,43.694832,-79.713753,Brampton
BRPMT340,Glidden Rd at Blair Dr,43.693626,-79.715446,Brampton
BRPMT350,Glidden Rd at Heart Lake Rd,43.691647,-79.718269,Brampton
BRPMT360,Glidden Rd w/of Heart Lake Rd,43.689774,-79.720894,Brampton
BRPMT365,Hale Rd s/of Glidden Rd,43.687313,-79.722977,Brampton
BRPMT370,Glidden Rd at Hale Rd,43.688499,-79.722687,Brampton
BRPMT371,Hale Rd btwn Glidden Rd & Bramsteele Ave,43.686028,-79.721237,Brampton
BRPMT372,Hale Rd n/of Bramsteele Ave,43.684193,-79.718178,Brampton
BRPMT373,Bramsteele Ave e/of Rutherford Rd,43.683235,-79.718491,Brampton
BRPMT410,Rutherford Rd S at Steeles Ave E,43.680935,-79.717995,Brampton
BRPMT420,First Gulf Blvd n/of Biscayne Cres (N),43.679436,-79.715874,Brampton
BRPMT430,First Gulf Blvd at Biscayne Cres S,43.677124,-79.713402,Brampton
BRPMT440,First Gulf Blvd btwn Biscayne Cres (S) and Kennedy,43.674484,-79.715881,Brampton
BRPMT460,Hereford St s/of Steeles Ave,43.622219,-79.780922,Brampton
BRPMT461,Heritage - Zum Steeles Station Stop EB,43.617924,-79.785973,Brampton
BRPMT466,Heritage - Zum Steeles Station Stop WB,43.617184,-79.787369,Brampton
BRPMT468,Winston Churchill - Zum Steeles Station Stop WB,43.606796,-79.796936,Brampton
BRPMT469,Winston Churchill - Zum Steeles Station Stop EB,43.608097,-79.796936,Brampton
BRPMT470,Mississauga Road - Zum Steeles Station Stop EB,43.627819,-79.775185,Brampton
BRPMT475,Argentia - Zum Steeles Stop WB,43.596035,-79.785957,Brampton
BRPMT477,Argentia - Zum Steeles Stop EB,43.595032,-79.786301,Brampton
BRPMT510,Steeles Ave W at Churchville Rd,43.639748,-79.762016,Brampton
BRPMT520,Steeles Ave W at Clementine Dr,43.643684,-79.75766,Brampton
BRPMT530,Steeles Ave W btwn Mavis Rd & Windmill Blvd,43.649578,-79.751152,Brampton
BRPMT535,Steeles Ave btwn Clementine Dr and Mavis Rd,43.645283,-79.755836,Brampton
BRPMT540,Mavis - Zum Steeles Station Stop EB,43.647339,-79.753532,Brampton
BRPMT550,Steeles Ave W at Windmill Blvd,43.653267,-79.747025,Brampton
BRPMT560,Steeles Ave W at McLaughlin Rd S,43.656006,-79.743874,Brampton
BRPMT600,Steeles Ave E e/of Hurontario St,43.666519,-79.732285,Brampton
BRPMT610,Steeles Ave E btwn Hurontario St & Hartford Tr,43.670456,-79.728065,Brampton
BRPMT620,Steeles Ave E at Hartford Trail,43.673,-79.725319,Brampton
BRPMT670,Steeles Ave E btwn Tomken Rd & Dixie Rd,43.692356,-79.704086,Brampton
BRPMT680,Steeles Ave w/of Dixie Rd,43.694267,-79.701942,Brampton
BRPMT700,Steeles Ave E at Advance Blvd,43.698715,-79.696487,Brampton
BRPMT730,Steeles Ave E at Melanie Dr (W),43.710072,-79.684311,Brampton
BRPMT740,Steeles Ave E at Melanie Dr (E),43.712017,-79.682114,Brampton
BRPMT760,Steeles Ave E opp Pearson Convention Centre,43.721794,-79.671021,Brampton
BRPMT780,Steeles Ave E opp Parkhurst Sq,43.72646,-79.665665,Brampton
BRPMT790,Steeles Ave E at 3389 Steeles Ave E (Bombay Whse),43.730907,-79.6605,Brampton
BRPMT800,Steeles Ave E at Goreway Dr,43.732727,-79.658417,Brampton
BRPMT810,Goreway Dr s/of Steeles Ave E,43.732258,-79.657242,Brampton
BRPMT820,Goreway Dr at Kenview Blvd,43.730598,-79.654915,Brampton
BRPMT830,Kenview Blvd e/of Goreway Dr,43.730827,-79.653572,Brampton
BRPMT840,Kenview Blvd at 5 Kenview Blvd,43.732227,-79.652077,Brampton
BRPMT850,Kenview Blvd at 11 Kenview Blvd,43.734577,-79.651321,Brampton
BRPMT900,Kenview Blvd e/of Castleview Dr (19 Kenview Blvd),43.7369,-79.650597,Brampton
BRPMT910,Kenview Blvd at Parkshore Dr,43.73843,-79.645309,Brampton
BRPMT920,Finch Ave n/of Kenview Blvd,43.740513,-79.644081,Brampton
BRPMT930,Finch Ave s/of Steeles Ave,43.742649,-79.64698,Brampton
BRPMT940,Albion Rd s/of Steeles Ave,43.749302,-79.638863,Brampton
BRPMT941,Steeles Ave w/of Hwy 50,43.749512,-79.639534,Brampton
BRPMT942,Steeles Ave w/of Alcide St,43.751106,-79.634972,Brampton
BRPMT943,Steeles Ave w/of Signal Hill Ave,43.752865,-79.62532,Brampton
BRPMT944,Signal Hill Ave n/of Steinway Blvd,43.750763,-79.6241,Brampton
BRPMT945,Steinway Blvd n/of Albion Rd,43.748726,-79.628426,Brampton
BRPMT946,Steinway Blvd w/of Signal Hill Ave,43.750248,-79.625534,Brampton
BRPMT950,Albion Rd w/of Claireport Cres (W),43.747398,-79.635696,Brampton
BRPMT960,Albion Rd w/of Claireport Cres (E),43.747578,-79.632698,Brampton
BRPMT970,Albion Rd at Steinway Blvd,43.748005,-79.629143,Brampton
BRPMT980,Humberline Dr n/of Claireville Dr (N),43.746025,-79.622139,Brampton
BRPMT1090,Longo Circle - Zum Steeles Stop,43.733379,-79.633301,Brampton
BRPMT1100,Finch Ave n/of Longo Circle,43.735844,-79.6371,Brampton
BRPMT1110,Kenview Blvd w/of Finch Ave,43.739552,-79.644295,Brampton
BRPMT1115,Kenview Blvd w/of Parkshore Dr,43.738495,-79.645546,Brampton
BRPMT1120,Kenview Blvd at 26 Kenview Blvd,43.738125,-79.648888,Brampton
BRPMT1130,Kenview Blvd at 14 Kenview Blvd,43.735588,-79.651222,Brampton
BRPMT1140,Kenview Blvd at Paget Rd,43.734283,-79.651627,Brampton
BRPMT1150,Kenview Blvd at Goreway Dr,43.73064,-79.65416,Brampton
BRPMT1160,Goreway Dr btwn Kenview Blvd and Steeles Ave E,43.731449,-79.655571,Brampton
BRPMT1170,Goreway Dr at Steeles Ave E,43.732861,-79.657417,Brampton
BRPMT1180,Steeles Ave E at Parkhurst Sq,43.727177,-79.665413,Brampton
BRPMT1230,Steeles Ave E w/of Melanie Dr (E),43.71175,-79.682953,Brampton
BRPMT1235,Steeles Ave E w/of Melanie Dr (W),43.710007,-79.684929,Brampton
BRPMT1237,Steeles Ave w/of Melanie Dr,43.707935,-79.687286,Brampton
BRPMT1250,Steeles Ave E at Bramalea GO Station,43.702911,-79.692909,Brampton
BRPMT1260,Steeles Ave w/of Advance Blvd,43.698204,-79.69783,Brampton
BRPMT1280,Steeles Ave E btwn Dixie Rd & West Dr,43.69276,-79.704132,Brampton
BRPMT1315,Steeles Ave E e/of Resolution Dr,43.678406,-79.719986,Brampton
BRPMT1320,Steeles Ave e/of Kennedy Rd,43.676125,-79.722481,Brampton
BRPMT1340,Steeles Ave E at Orchard Dr,43.673527,-79.72525,Brampton
BRPMT1345,Fletchers Creek Blvd at Gold Hill Rd,43.689388,-79.801254,Brampton
BRPMT1350,Steeles Ave E at 152 Steeles Ave,43.670918,-79.728096,Brampton
BRPMT1360,Steeles Ave e/of Main St,43.667065,-79.732368,Brampton
BRPMT1430,Steeles Ave W at Tait Blvd,43.653912,-79.746826,Brampton
BRPMT1440,Steeles Ave W at Beaconsfield walkway,43.649109,-79.752182,Brampton
BRPMT1450,Steeles Ave W at Chinguacousy Rd,43.647358,-79.75415,Brampton
BRPMT1460,Steeles Ave W w/of James Potter Dr,43.643963,-79.75779,Brampton
BRPMT1465,Steeles Ave W at Polonia Ave,43.642082,-79.759987,Brampton
BRPMT1470,Steeles Ave at Churchville Rd,43.640358,-79.761765,Brampton
BRPMT1490,Steeles Ave W e/of Financial Dr,43.633747,-79.769173,Brampton
BRPMT1500,Financial - Zum Steeles Station Stop WB,43.631767,-79.771347,Brampton
BRPMT1508,Mississauga Road - Zum Steeles Station Stop WB,43.626831,-79.776878,Brampton
BRPMT1510,Mississauga Rd s/of Steeles Ave,43.626789,-79.775536,Brampton
BRPMT1520,Mississauga Rd n/of Edgeware Rd,43.623436,-79.771049,Brampton
BRPMT1530,Hereford St w/of Mississauga Rd,43.620548,-79.768578,Brampton
BRPMT1540,Hereford St s/of Ironbridge Rd,43.618515,-79.767464,Brampton
BRPMT1550,Hereford St w/of President's Choice Cir (Loblaws),43.617119,-79.768242,Brampton
BRPMT1560,Hereford St btwn President's Choice Cir & Edgeware,43.615559,-79.771767,Brampton
BRPMT1570,Hereford St n/of Edgeware Rd,43.619019,-79.776527,Brampton
BRPMT1575,Hereford St btwn Edgeware Rd & Steeles Ave,43.62051,-79.778549,Brampton
BRPMT1640,Kensington Rd e/of Central Park Dr,43.720219,-79.719841,Brampton
BRPMT1650,Kensington Rd at Kingscross Rd,43.721161,-79.718788,Brampton
BRPMT1660,Kensington Rd opp Bramalea Medical Centre,43.722038,-79.717278,Brampton
BRPMT1670,Kensington Rd at Bramalea Rd,43.722824,-79.715935,Brampton
BRPMT1680,Bramalea Rd at Knightsbridge Rd - Rte 12 ONLY,43.72179,-79.714058,Brampton
BRPMT1720,Finchgate Blvd at Feston Place,43.726265,-79.70916,Brampton
BRPMT1730,Finchgate Blvd at Queen St E,43.727543,-79.71225,Brampton
BRPMT1740,Glenvale Blvd s/of Gatwick Lane,43.729168,-79.714539,Brampton
BRPMT1750,Glenvale Blvd n/of Greenmount Rd,43.730591,-79.715683,Brampton
BRPMT1760,Glenvale Blvd at Geraldine Crt,43.732948,-79.716621,Brampton
BRPMT1770,Central Park Dr btwn Glenvale Blvd and Graham Crt,43.733974,-79.7183,Brampton
BRPMT1780,Grenoble Blvd n/of Central Park Dr,43.73325,-79.720909,Brampton
BRPMT1790,Grenoble Blvd at Glencastle Square,43.734688,-79.721558,Brampton
BRPMT1800,Grenoble Blvd at Gladstone Square,43.736172,-79.721542,Brampton
BRPMT1810,Grenoble Blvd at Greenbrair Rd,43.737423,-79.722801,Brampton
BRPMT1815,Grenoble Blvd at Williams Pky E,43.738503,-79.72493,Brampton
BRPMT1840,Jordan Blvd at Joshua Crt,43.742081,-79.728897,Brampton
BRPMT1850,Jordan Blvd at Jameson Cres,43.743763,-79.730125,Brampton
BRPMT1860,Jordan Blvd at North Park Dr,43.74445,-79.73159,Brampton
BRPMT1870,North Park Dr at Jayfield Rd,43.746387,-79.729904,Brampton
BRPMT1880,North Park Dr opp Panda Lane,43.748287,-79.727585,Brampton
BRPMT1890,Torbram Rd at Blue Diamond Dr,43.751976,-79.730461,Brampton
BRPMT1910,Torbram Rd n/of Bovaird Dr E,43.755108,-79.734619,Brampton
BRPMT1920,Torbram Rd s/of Peter Robertson Blvd,43.756344,-79.736366,Brampton
BRPMT1930,Torbram Rd n/of Peter Robertson Blvd,43.758858,-79.739807,Brampton
BRPMT1935,Torbram Rd btwn Peter Robertson Blvd & Steeplebush,43.760475,-79.741966,Brampton
BRPMT1940,Torbram Rd at Eagleridge Rd,43.761421,-79.743164,Brampton
BRPMT1945,Torbram Rd btwn Eagleridge Dr & Sandalwood Pky E,43.763161,-79.745544,Brampton
BRPMT2070,Mountainash Rd at Mountainberry Rd,43.764282,-79.734604,Brampton
BRPMT2110,Bovaird Dr E w/of Mountainash Rd,43.757694,-79.730659,Brampton
BRPMT2120,Torbram Rd at Bovaird Dr E,43.75499,-79.73497,Brampton
BRPMT2125,Torbram Rd s/of Bovaird Dr E,43.753674,-79.733192,Brampton
BRPMT2130,Torbram Rd at Prospect Gate,43.752113,-79.731087,Brampton
BRPMT2140,Torbram Rd at North Park Dr,43.749454,-79.727501,Brampton
BRPMT2150,North Park Dr at Panda Lane,43.748348,-79.727829,Brampton
BRPMT2160,North Park Dr at Provincial Place,43.746819,-79.729721,Brampton
BRPMT2165,North Park Dr btwn Provincial Pl & Jamieson Cres,43.745502,-79.731308,Brampton
BRPMT2170,Jordan Blvd at North Park Dr,43.744324,-79.731735,Brampton
BRPMT2180,Jordan Blvd at Joyce Gate,43.742981,-79.729591,Brampton
BRPMT2190,Jordan Blvd at Jefferson Rd,43.740185,-79.727562,Brampton
BRPMT2210,Grenoble Blvd at Glenforest Rd,43.737453,-79.723228,Brampton
BRPMT2220,Grenoble Blvd at Grasspoint Square,43.735687,-79.72171,Brampton
BRPMT2230,Grenoble Blvd n/of Central park Dr,43.733639,-79.721451,Brampton
BRPMT2240,Central Park Dr e/of Greenarrow Crt,43.733559,-79.718834,Brampton
BRPMT2250,Glenvale Blvd s/of Geraldine Crt,43.732319,-79.716713,Brampton
BRPMT2260,Glenvale Blvd at Goldcrest Rd,43.730373,-79.715767,Brampton
BRPMT2270,Glenvale Blvd at Gatwick Rd,43.729263,-79.714874,Brampton
BRPMT2280,Finchgate Blvd s/of Queen St E,43.727642,-79.712761,Brampton
BRPMT2290,Finchgate Blvd n/of Clark Blvd,43.726048,-79.708939,Brampton
BRPMT2350,Kensington Rd w/of Bramalea Rd,43.722389,-79.716942,Brampton
BRPMT2360,Kensington Rd at Kingscross Rd,43.721741,-79.718391,Brampton
BRPMT2370,Kensington Rd at Central Park Dr,43.720631,-79.719727,Brampton
BRPMT2390,Central Park Dr at Knightsbridge Rd,43.717999,-79.717934,Brampton
BRPMT2410,Knightsbridge Rd w/of Central Park Drive,43.71756,-79.717957,Brampton
BRPMT2430,Bramalea Rd n/of Steeles Ave E,43.705551,-79.691833,Brampton
BRPMT2450,Bramalea Rd at East Dr,43.706749,-79.693535,Brampton
BRPMT2460,Bramalea Rd n/of East Dr,43.707985,-79.695183,Brampton
BRPMT2540,Dixie Rd s/of Clark Blvd,43.710094,-79.722084,Brampton
BRPMT2550,Dixie Rd at Terese Rd,43.708164,-79.719467,Brampton
BRPMT2710,Dixie Rd opp Terese Rd,43.708141,-79.718872,Brampton
BRPMT2720,Dixie Rd s/of Clark Blvd,43.710583,-79.722198,Brampton
BRPMT2735,Gore Meadows CC - Route 50/50A & 36 Stop,43.793678,-79.695587,Brampton
BRPMT2750,Bramalea Rd s/of East Dr,43.707138,-79.694389,Brampton
BRPMT2760,Bramalea Rd at Orenda Rd,43.706051,-79.69294,Brampton
BRPMT2770,Bramalea Rd s/of Steeles Ave E,43.704227,-79.689842,Brampton
BRPMT2816,Westwood Mall Terminal Route 14 Stop,43.72147,-79.640327,Brampton
BRPMT2817,Westwood Mall Terminal Route 30 Stop,43.721321,-79.640488,Brampton
BRPMT2820,Goreway Dr s/of Morning Star Dr,43.720024,-79.640694,Brampton
BRPMT2830,Goreway Dr at Jolliffe Ave,43.71909,-79.639343,Brampton
BRPMT2840,Goreway Dr at Etude Dr,43.717121,-79.63662,Brampton
BRPMT2850,Goreway Dr n/of Dorcas St,43.715073,-79.633904,Brampton
BRPMT2855,Goreway Dr n/of Derry Rd,43.713676,-79.63208,Brampton
BRPMT2870,Derry Rd at Legion Rd,43.709717,-79.636269,Brampton
BRPMT2880,Derry Rd e/of Hull St (opp Malton GO Station),43.706856,-79.639488,Brampton
BRPMT2890,Derry Rd w/of Airport Rd,43.703163,-79.643272,Brampton
BRPMT2900,Derry Rd e/of Harrow St,43.701462,-79.645439,Brampton
BRPMT2910,Derry Rd w/of Cattrick St,43.699406,-79.647713,Brampton
BRPMT2920,Torbram Rd n/of Derry Rd,43.694805,-79.653061,Brampton
BRPMT2925,Derry Rd w/of Torbram Rd,43.694088,-79.653275,Brampton
BRPMT2930,Torbram Rd n/of Lucknow Dr,43.696297,-79.655128,Brampton
BRPMT2940,Torbram Rd n/of Anson Dr,43.698147,-79.657593,Brampton
BRPMT2950,Torbram Rd at Drew Rd,43.699272,-79.659164,Brampton
BRPMT2960,Torbram Rd at Kimbel St,43.701778,-79.662552,Brampton
BRPMT2980,Torbram Rd at Rena Rd,43.705765,-79.667953,Brampton
BRPMT2995,Torbram Rd at 7795 Torbram (Peel Waste Facility),43.709728,-79.673248,Brampton
BRPMT3000,Torbram Rd at Steeles Ave E,43.713879,-79.67878,Brampton
BRPMT3010,Torbram Rd n/of Steeles Ave E,43.714993,-79.680244,Brampton
BRPMT3020,Torbram Rd at Walker Dr,43.716938,-79.683296,Brampton
BRPMT3030,Torbram Rd n/of Bramhurst Ave,43.720203,-79.687798,Brampton
BRPMT3040,Torbram Rd opp 8458 Torbram Rd,43.722591,-79.691032,Brampton
BRPMT3050,Torbram Rd at 8555 Torbram Rd,43.725124,-79.694382,Brampton
BRPMT3055,Torbram Rd at Clark Blvd,43.727245,-79.697243,Brampton
BRPMT3070,Torbram Rd at 8705 Torbram Rd,43.729824,-79.700775,Brampton
BRPMT3075,Torbram Rd at 8875 Torbram Rd (Zellers Entrance),43.731071,-79.702469,Brampton
BRPMT3080,Torbram Rd at Queen St E,43.733681,-79.705925,Brampton
BRPMT3100,Torbram Rd at Corporation Dr,43.738308,-79.712212,Brampton
BRPMT3110,Torbram Rd opp Gatewood Dr,43.742195,-79.717407,Brampton
BRPMT3120,Torbram Rd at Williams Pky E,43.743778,-79.719437,Brampton
BRPMT3130,Torbram Rd opp Jardine St,43.746994,-79.723785,Brampton
BRPMT3140,Torbram Rd n/of North Park Dr,43.749462,-79.727119,Brampton
BRPMT3355,Torbram Rd btwn Sandalwood Pky E and Steeplebush,43.763298,-79.746201,Brampton
BRPMT3360,Torbram Rd at Steeplebush Ave,43.761681,-79.744019,Brampton
BRPMT3370,Torbram Rd btwn Steeplebush Ave & Peter Robertson,43.758675,-79.739914,Brampton
BRPMT3380,Torbram Rd at Peter Robertson Blvd,43.757072,-79.737755,Brampton
BRPMT3430,Torbram Rd at Jardine St,43.746902,-79.724068,Brampton
BRPMT3440,Torbram Rd at Williams Pky E,43.744331,-79.720627,Brampton
BRPMT3450,Torbram Rd at Gatewood Dr,43.742172,-79.717766,Brampton
BRPMT3460,Torbram Rd at Central Park Dr,43.738789,-79.713257,Brampton
BRPMT3470,Torbram Rd at Grenadier Rd,43.736408,-79.710098,Brampton
BRPMT3475,Torbram Rd at Grenadier Rd,43.736168,-79.709343,Brampton
BRPMT3480,Torbram Rd s/of Queen St E,43.733532,-79.7062,Brampton
BRPMT3500,Torbram Rd at 8875 Torbram Rd,43.731354,-79.703209,Brampton
BRPMT3510,Torbram Rd opp 8705 Torbram Rd,43.729546,-79.700737,Brampton
BRPMT3520,Torbram Rd at Clark Blvd,43.727539,-79.698067,Brampton
BRPMT3530,Torbram Rd at 8500 Torbram Rd,43.724678,-79.694168,Brampton
BRPMT3540,Torbram Rd at 8460 Torbram Rd,43.722111,-79.690735,Brampton
BRPMT3550,Torbram Rd s/of Balmoral Dr,43.719368,-79.687042,Brampton
BRPMT3560,Torbram Rd at East Dr,43.717182,-79.684097,Brampton
BRPMT3570,Torbram Rd at Steeles Ave E,43.71476,-79.68055,Brampton
BRPMT3580,Torbram Rd s/of Steeles Ave E,43.713772,-79.679115,Brampton
BRPMT3590,7795 Torbram Rd at Waste Management,43.710209,-79.674347,Brampton
BRPMT3600,Torbram Rd at Rena Rd,43.705471,-79.667992,Brampton
BRPMT3620,Torbram Rd n/of Kimbel St,43.701797,-79.663116,Brampton
BRPMT3630,Torbram Rd at Drew Rd,43.699268,-79.659576,Brampton
BRPMT3640,Torbram Rd at Anson Dr,43.697659,-79.657455,Brampton
BRPMT3650,Torbram Rd at Lucknow Dr,43.696018,-79.655197,Brampton
BRPMT3660,Torbram Rd n/of Derry Rd,43.695107,-79.654068,Brampton
BRPMT3670,Derry Rd at Cattrick St,43.699375,-79.64724,Brampton
BRPMT3680,Derry Rd at Airport Rd,43.702606,-79.643456,Brampton
BRPMT3690,Derry Rd e/of Hull St (Malton GO Station),43.706448,-79.63945,Brampton
BRPMT3700,Derry Rd at Professional Court,43.709427,-79.636238,Brampton
BRPMT3710,Goreway Dr n/of Derry Rd,43.714233,-79.632195,Brampton
BRPMT3720,Goreway Dr at Dorcas St,43.715149,-79.633499,Brampton
BRPMT3730,Goreway Dr at Etude Dr,43.717125,-79.636162,Brampton
BRPMT3740,Goreway Dr at Jolliffe Ave,43.719147,-79.639,Brampton
BRPMT3810,Bramalea Rd n/of Dearbourne Blvd,43.709282,-79.696907,Brampton
BRPMT3820,Bramalea Rd opp Alexandria Gate,43.711182,-79.699471,Brampton
BRPMT3830,Bramalea Rd opp Algonquin Blvd,43.713566,-79.70266,Brampton
BRPMT3840,Bramalea Rd at Balmoral Dr,43.715355,-79.705025,Brampton
BRPMT3850,Bramalea Rd at Clark Blvd,43.719646,-79.710777,Brampton
BRPMT3864,Knightsbridge Rd w/of Bramalea Rd,43.721199,-79.714348,Brampton
BRPMT3865,Knightsbridge Rd btwn Kings Cross & Central Pk Dr,43.718864,-79.716507,Brampton
BRPMT3900,Knightsbridge Rd btwn Central Park & Kings Cross,43.719189,-79.715889,Brampton
BRPMT3910,Knightsbridge Rd at Bramalea Rd,43.721035,-79.714233,Brampton
BRPMT3930,Bramalea Rd at Queen St E,43.724064,-79.716637,Brampton
BRPMT3940,Bramalea Rd n/of Queen St E,43.725029,-79.717972,Brampton
BRPMT3950,Bramalea Rd at Goodwood Rd,43.727459,-79.72126,Brampton
BRPMT3960,Bramalea Rd n/of Central Park Dr,43.730206,-79.724884,Brampton
BRPMT3970,Bramalea Rd s/of Williams Pky E (Salvation Army),43.733047,-79.728745,Brampton
BRPMT3980,Bramalea Rd at Williams Pky E,43.733868,-79.729774,Brampton
BRPMT3990,Bramalea Rd n/of Jackson Rd,43.736153,-79.732826,Brampton
BRPMT4000,Bramalea Rd at North Park Dr,43.738865,-79.736511,Brampton
BRPMT4030,Bramalea Rd at Bovaird Dr E,43.743576,-79.742882,Brampton
BRPMT4040,Bramalea Rd n/of Bovaird Dr E,43.745296,-79.745102,Brampton
BRPMT4050,Bramalea Rd n/of Peter Robertson Blvd,43.746838,-79.747269,Brampton
BRPMT4060,Bramalea Rd btwn Peter Robertson Blvd & Larkspur R,43.7481,-79.749016,Brampton
BRPMT4070,Bramalea Rd at Larkspur Rd,43.750282,-79.751938,Brampton
BRPMT4080,Bramalea Rd n/of Larkspur Rd,43.752129,-79.754463,Brampton
BRPMT4090,Bramalea Rd at Sandalwood Pky E,43.753941,-79.756905,Brampton
BRPMT4095,Bramalea Rd at Heslop Cir,43.762878,-79.768883,Brampton
BRPMT4100,Bramalea Rd s/of Countryside Dr,43.764027,-79.770447,Brampton
BRPMT4105,Countryside Dr w/of Bramalea Rd,43.763905,-79.771484,Brampton
BRPMT4106,Countryside Dr opp Everingham Cir,43.76228,-79.77327,Brampton
BRPMT4107,Countryside Dr e/of Fairservice Dr,43.76096,-79.774704,Brampton
BRPMT4108,Countryside Dr w/of Fernforest Dr,43.758221,-79.777321,Brampton
BRPMT4140,Fernforest Dr at Kalahari Rd,43.751324,-79.76545,Brampton
BRPMT4180,Bramalea Rd s/of Sandalwood Pky E,43.752399,-79.755203,Brampton
BRPMT4190,Bramalea Rd at Black Forest Dr,43.750786,-79.753075,Brampton
BRPMT4200,Bramalea Rd btwn Black Forest Dr & Peter Robertson,43.748562,-79.750015,Brampton
BRPMT4220,Bramalea Rd at Bovaird Dr E,43.744667,-79.744858,Brampton
BRPMT4225,Bramalea Rd at Peter Robertson Blvd,43.746662,-79.747505,Brampton
BRPMT4240,Bramalea Rd at Marlbourough St,43.741215,-79.740059,Brampton
BRPMT4250,Bramalea Rd s/of North Park Dr,43.738499,-79.736481,Brampton
BRPMT4260,Bramalea Rd at Markham St,43.735836,-79.732834,Brampton
BRPMT4270,Bramalea Rd s/of Williams Pky E,43.733608,-79.729881,Brampton
BRPMT4275,Bramalea Rd btwn Williams Pkwy E & Central Park Dr,43.731468,-79.726997,Brampton
BRPMT4280,Bramalea Rd at Central Park Dr,43.729935,-79.724953,Brampton
BRPMT4290,Bramalea Rd n/of Goodwood Rd ( Chinguacousy Park ),43.727604,-79.721794,Brampton
BRPMT4400,Bramalea Rd s/of Clark Blvd,43.719376,-79.710808,Brampton
BRPMT4410,Bramalea Rd at Balmoral Dr,43.715519,-79.705658,Brampton
BRPMT4420,Bramalea Rd at Algonquin Blvd,43.713436,-79.702827,Brampton
BRPMT4430,Bramalea Rd at Alexandria Gate,43.711197,-79.699821,Brampton
BRPMT4440,Bramalea Rd at Avondale Blvd,43.708981,-79.696877,Brampton
BRPMT4720,Bramalea Rd s/of Dewside Dr,43.757149,-79.761124,Brampton
BRPMT4780,Dearbourne Blvd opp Dorset Dr (e/of Bramalea Rd),43.709908,-79.695061,Brampton
BRPMT4790,Dearbourne Blvd opp Delmere Rd,43.712704,-79.692055,Brampton
BRPMT4800,Dearbourne Blvd at Deerfield Cres (S),43.714043,-79.691544,Brampton
BRPMT4810,Dearbourne Blvd opp Dorchester Dr,43.715462,-79.69178,Brampton
BRPMT4820,Dearbourne Blvd opp Devonshire Dr,43.717327,-79.692192,Brampton
BRPMT4830,Balmoral Dr w/of Dearbourne Blvd,43.719368,-79.693169,Brampton
BRPMT4840,Balmoral Dr at Drake Blvd,43.720165,-79.694656,Brampton
BRPMT4850,Eastbourne Dr n/of Balmoral Dr,43.722031,-79.697319,Brampton
BRPMT4860,Eastbourne Dr s/of Enderby Cres,43.723358,-79.698196,Brampton
BRPMT4870,Eastbourne Dr opp Evesham Cres (s/of Clark Blvd),43.725197,-79.699547,Brampton
BRPMT5080,Eastbourne Dr at Evesham Cres (E),43.725128,-79.699753,Brampton
BRPMT5090,Eastbourne Dr s/of Evesham Cres (Recreation Cen),43.723312,-79.69841,Brampton
BRPMT5100,Eastbourne Dr at Balmoral Dr,43.722137,-79.697586,Brampton
BRPMT5110,Balmoral Dr at Deloraine Dr,43.720295,-79.695274,Brampton
BRPMT5120,Balmoral Dr at Dearbourne Blvd,43.719311,-79.693466,Brampton
BRPMT5130,Dearbourne Blvd at Devonshire Dr,43.71706,-79.692352,Brampton
BRPMT5140,Dearbourne Blvd at Dorchester Dr,43.715645,-79.692047,Brampton
BRPMT5150,Dearbourne Blvd opp Deerfield Cres (S),43.714291,-79.691772,Brampton
BRPMT5160,Dearbourne Blvd at Delmere Rd,43.713055,-79.692085,Brampton
BRPMT5170,Dearbourne Blvd at Dorset Dr (e/of Bramalea Rd),43.710056,-79.695183,Brampton
BRPMT5260,Hanover Rd w/of Hartnell Sq,43.720787,-79.724983,Brampton
BRPMT5270,Hanover Rd at Helena Crt,43.718014,-79.728081,Brampton
BRPMT5280,Hanover Rd opp Hasting Square,43.718796,-79.729599,Brampton
BRPMT5290,Hanover Rd s/of Howden Blvd,43.720169,-79.731422,Brampton
BRPMT5300,Howden Blvd at Dixie Rd,43.719582,-79.733772,Brampton
BRPMT5310,Howden Blvd at Leander St,43.718353,-79.737694,Brampton
BRPMT5320,Howden Blvd at Vodden Rd E,43.717125,-79.741463,Brampton
BRPMT5330,Howden Blvd at Ladin Dr,43.718193,-79.744026,Brampton
BRPMT5340,Howden Blvd at Leander St,43.719364,-79.745491,Brampton
BRPMT5350,North Park Dr n/of Williams Pwky E,43.720718,-79.747154,Brampton
BRPMT5360,North Park Dr opp Nuttall St,43.722782,-79.751152,Brampton
BRPMT5370,North Park Dr at Neptune Crt,43.723854,-79.753441,Brampton
BRPMT5380,Nasmith St n/of North Park Dr,43.727036,-79.754448,Brampton
BRPMT5390,Nasmith St at Nevada Crt,43.728268,-79.757011,Brampton
BRPMT5400,Nasmith St at Newport St,43.729027,-79.758026,Brampton
BRPMT5410,Nasmith St at Bovaird Dr E,43.730125,-79.759499,Brampton
BRPMT5450,Nasmith St s/of Bovaird Dr E,43.729706,-79.759186,Brampton
BRPMT5460,Nasmith St at Niagara Place,43.728104,-79.757011,Brampton
BRPMT5470,North Park Dr w/of Nasmith St,43.726532,-79.754196,Brampton
BRPMT5480,North Park Dr at Nuffield St,43.724049,-79.753899,Brampton
BRPMT5490,North Park Dr opp Northampton St,43.722439,-79.750671,Brampton
BRPMT5500,North Park Dr n/of Williams Pky E,43.720963,-79.747932,Brampton
BRPMT5510,Howden Blvd s/of Williams Pky E,43.719673,-79.746223,Brampton
BRPMT5520,Howden Blvd at La france Rd,43.71833,-79.744514,Brampton
BRPMT5530,Howden Blvd at Vodden St,43.716919,-79.741928,Brampton
BRPMT5540,Howden Blvd at Heath Dr,43.718132,-79.738327,Brampton
BRPMT5550,Howden Blvd at Dixie Rd,43.718929,-79.734268,Brampton
BRPMT5560,Howden Blvd at Hanover Rd,43.720196,-79.732468,Brampton
BRPMT5570,Hanover Rd at Homeland Crt,43.719231,-79.730476,Brampton
BRPMT5580,Hanover Rd at Helena Crt,43.717884,-79.728363,Brampton
BRPMT5590,Hanover Rd opp Huntingwood Cres,43.720249,-79.725189,Brampton
BRPMT5660,Dixie Rd n/of Meyerside Dr,43.660568,-79.654922,Brampton
BRPMT5670,Meyerside Dr at Ordan Dr,43.658871,-79.655899,Brampton
BRPMT5680,Meyerside Dr at Vipond Dr,43.656597,-79.658463,Brampton
BRPMT5690,Meyerside Dr at Shawson Dr,43.654114,-79.661102,Brampton
BRPMT5700,Meyerside Dr at Tomken Rd,43.650845,-79.664848,Brampton
BRPMT5710,Tomken Rd at Tristar Dr,43.652802,-79.667519,Brampton
BRPMT5720,Tomken Rd at Courtneypark Dr,43.654678,-79.670204,Brampton
BRPMT5725,Courtneypark Dr btwn Tomken Rd and Shawson Dr,43.656384,-79.666756,Brampton
BRPMT5735,Courtneypark Dr e/of Shawson Dr,43.657658,-79.664841,Brampton
BRPMT5740,Courtneypark Dr at Vipond Dr,43.659088,-79.662949,Brampton
BRPMT5750,Courtneypark Dr at Ordan Dr,43.661648,-79.660042,Brampton
BRPMT5770,Courtneypark Dr e/of Dixie Rd,43.663559,-79.657967,Brampton
BRPMT5780,Courtneypark Dr at Van Deemter Crt,43.666088,-79.655106,Brampton
BRPMT5790,Courtneypark Dr at 1750 Courtneypark Dr,43.66777,-79.653183,Brampton
BRPMT5800,Courtneypark Dr at 1820 Courtneypark Dr,43.669022,-79.651756,Brampton
BRPMT5810,Courtneypark Dr w/of Netherhart Rd,43.671688,-79.648613,Brampton
BRPMT5820,Netherhart Rd n/of Bonhill Rd,43.670506,-79.646873,Brampton
BRPMT5825,Meyerside Dr w/of Netherhart Rd,43.668152,-79.645149,Brampton
BRPMT5840,Meyerside Dr at 1795 Meyerside Dr,43.666782,-79.646782,Brampton
BRPMT5850,Meyerside Dr at 1715 Meyerside Dr,43.665359,-79.648285,Brampton
BRPMT5860,Meyerside Dr at 1675 Meyerside Dr,43.664074,-79.649765,Brampton
BRPMT5870,Meyerside Dr at Bonhill Rd,43.661758,-79.652771,Brampton
BRPMT5880,Meyerside Dr at Dixie Rd,43.660461,-79.654213,Brampton
BRPMT5890,Dixie Rd s/of Courtneypark Dr,43.66312,-79.657692,Brampton
BRPMT5900,Dixie Rd n/of Courtneypark Dr,43.664093,-79.659119,Brampton
BRPMT5910,Dixie Rd opp Mid-Way Blvd,43.668228,-79.664711,Brampton
BRPMT5920,Dixie Rd at Director Gate,43.672188,-79.669983,Brampton
BRPMT5930,Dixie Rd S/of Carlcrest Rd,43.674084,-79.672623,Brampton
BRPMT5940,Dixie Rd n/of Derry Rd,43.675949,-79.675034,Brampton
BRPMT5943,Dixie Rd opp Sikh Temple,43.677834,-79.677811,Brampton
BRPMT5950,Dixie Rd s/of Drew Rd,43.680977,-79.681808,Brampton
BRPMT5955,Dixie Rd at 407 Sportsplex,43.684761,-79.68692,Brampton
BRPMT5960,Dixie Rd at Advance Blvd,43.69062,-79.694771,Brampton
BRPMT5970,Dixie Rd at Steeles Ave E,43.694897,-79.700539,Brampton
BRPMT5980,Dixie Rd n/of Steeles Ave E,43.695847,-79.701942,Brampton
BRPMT5990,Dixie Rd btwn Steeles Ave E and Orenda Rd,43.697536,-79.704689,Brampton
BRPMT6000,Dixie Rd n/of Orenda Rd,43.700218,-79.708199,Brampton
BRPMT6010,Dixie Rd at Birchbank Rd,43.701595,-79.710159,Brampton
BRPMT6020,Dixie Rd s/of Balmoral Dr,43.705784,-79.715752,Brampton
BRPMT6080,Dixie Rd at Lisa St (BCC Mall Entrance),43.713085,-79.725494,Brampton
BRPMT6090,Dixie Rd n/of Queen St E,43.715878,-79.729172,Brampton
BRPMT6100,Dixie Rd opp Hazelwood Dr,43.718151,-79.732269,Brampton
BRPMT6110,Dixie Rd n/of Howden Blvd,43.7197,-79.734291,Brampton
BRPMT6120,Dixie Rd at Crescent Hill Dr,43.721092,-79.736145,Brampton
BRPMT6130,Dixie Rd at Lascelles Blvd,43.723717,-79.739693,Brampton
BRPMT6140,Dixie Rd n/of Williams Pky E,43.725716,-79.742363,Brampton
BRPMT6150,Dixie Rd at Mansion St,43.727036,-79.744148,Brampton
BRPMT6160,Dixie Rd at North Park Dr,43.729794,-79.747795,Brampton
BRPMT6170,Dixie Rd n/of Moregate Cres,43.732735,-79.751846,Brampton
BRPMT6175,Dixie Rd bwtn North Park and Moregate Cres,43.731403,-79.750023,Brampton
BRPMT6180,Dixie Rd n/of Bovaird Dr E,43.735394,-79.755272,Brampton
BRPMT6185,Dixe Rd btwn Bovaird Dr and Peter Robertson Blvd,43.736565,-79.756966,Brampton
BRPMT6190,Dixie Rd at Peter Robertson Blvd,43.73867,-79.759819,Brampton
BRPMT6200,Dixie Rd n/of Peter Robertson Blvd,43.73988,-79.761482,Brampton
BRPMT6210,Dixie Rd btwn Peter Robertson Blvd and Springtown,43.741207,-79.76326,Brampton
BRPMT6220,Dixie Rd at Springtown Trail,43.742802,-79.765388,Brampton
BRPMT6230,Dixie Rd at Sandalwood Pky E,43.745045,-79.76841,Brampton
BRPMT6235,Dixie Rd n/of Sandalwood Pky,43.74585,-79.769569,Brampton
BRPMT6240,Dixie Rd btwn Sandalwood Pky E & Octillo Blvd,43.747086,-79.771217,Brampton
BRPMT6250,Dixie Rd at Octillo Blvd,43.748077,-79.772568,Brampton
BRPMT6253,Dixie Rd at Father Tobin Rd,43.751957,-79.777863,Brampton
BRPMT6255,Dixie Rd n/of Octillo Blvd,43.749401,-79.774422,Brampton
BRPMT6258,Dixie Rd n/of Father Tobin Rd,43.752777,-79.778931,Brampton
BRPMT6260,Countryside Dr e/of Dixie Rd,43.75481,-79.781052,Brampton
BRPMT6262,Countryside Dr w/of Moira Creek Dr,43.756161,-79.779572,Brampton
BRPMT6310,Fernforest Dr at Sandalwood Pky E,43.750122,-79.764099,Brampton
BRPMT6330,Dixie Rd s/of Sandalwood Pky E,43.74461,-79.76841,Brampton
BRPMT6340,Dixie Rd at Springtown Trail,43.74321,-79.766495,Brampton
BRPMT6350,Dixie Rd btwn Springtown Trail and Peter Robertson,43.740971,-79.763451,Brampton
BRPMT6360,Dixie Rd n/of Guru Nanak St,43.738754,-79.760513,Brampton
BRPMT6370,Dixie Rd n/of Bovaird Dr E,43.735985,-79.756699,Brampton
BRPMT6380,Dixie Rd s/of Bovaird Dr E,43.734161,-79.754341,Brampton
BRPMT6390,Dixie Rd at Northcliffe St,43.732349,-79.751808,Brampton
BRPMT6400,Dixie Rd btwn Northcliffe St and North Park Dr,43.731201,-79.750198,Brampton
BRPMT6410,Dixie Rd s/of North Park Dr,43.72945,-79.747818,Brampton
BRPMT6420,Dixie Rd at Northampton St,43.727169,-79.744827,Brampton
BRPMT6550,Dixie Rd at Balmoral Dr (Rogers),43.705936,-79.716446,Brampton
BRPMT6560,Dixie Rd n/of Orenda Rd,43.703247,-79.712929,Brampton
BRPMT6570,Dixie Rd s/of Orenda Rd (N),43.701073,-79.710121,Brampton
BRPMT6575,Dixie Rd at Orenda Rd (S),43.699928,-79.708313,Brampton
BRPMT6576,Dixie Rd btwn Orenda Rd & Steeles Ave E,43.697792,-79.705711,Brampton
BRPMT6580,Dixie Rd n/of Steeles Ave E,43.695564,-79.702255,Brampton
BRPMT6590,Dixie Rd s/of Steeles Ave E,43.694092,-79.700111,Brampton
BRPMT6600,Dixie Rd at Advance Blvd,43.691357,-79.69648,Brampton
BRPMT6610,Dixie Rd at Drew Rd,43.681217,-79.682831,Brampton
BRPMT6620,Dixie Rd at 7080 Dixie Rd,43.67786,-79.678391,Brampton
BRPMT6630,Dixie Rd at Derry Rd,43.675762,-79.675591,Brampton
BRPMT6640,Dixie Rd at Director Gate,43.67223,-79.670448,Brampton
BRPMT6650,Dixie Rd at Mid-way Blvd,43.668453,-79.665474,Brampton
BRPMT6670,Dixie Rd n/of Courtneypark Dr,43.663559,-79.658997,Brampton
BRPMT6740,Hilldale Cres at Hayden Crt,43.7257,-79.729439,Brampton
BRPMT6750,Hilldale Cres opp Holley Hedge Crt,43.725517,-79.731384,Brampton
BRPMT6760,Hilldale Cres at Hamlet Crt,43.726765,-79.731903,Brampton
BRPMT6770,Hilldale Cres at Hyde Park Crt,43.727509,-79.73111,Brampton
BRPMT6780,Hilldale Cres opp Hallcrown Crt,43.72913,-79.729378,Brampton
BRPMT6790,Hilldale Cres opp Hedley Crt,43.729351,-79.727173,Brampton
BRPMT6820,Williams Pky E at Mackay St S,43.73122,-79.733604,Brampton
BRPMT6830,Mackay St S n/of Williams Pky E,43.731609,-79.734421,Brampton
BRPMT6840,Mackay St S n/of Manorcrest St,43.733482,-79.737457,Brampton
BRPMT6850,Mackay St S at Guildford Cres (S),43.734108,-79.739693,Brampton
BRPMT6860,Mackay St N at Morley Cres (S),43.735332,-79.743446,Brampton
BRPMT6870,Mackay St N at McMullen Cres,43.735809,-79.746986,Brampton
BRPMT6880,Mackay St N n/of Massey St,43.737015,-79.749092,Brampton
BRPMT6890,Mackay St N at Bovaird Dr E,43.737976,-79.75071,Brampton
BRPMT6900,Fernforest Dr n/of Homewood St,43.739487,-79.753044,Brampton
BRPMT6930,Fernforest Dr n/of Blackforest Dr,43.745621,-79.757751,Brampton
BRPMT6940,Fernforest Dr n/of Deerglen Dr,43.747417,-79.760201,Brampton
BRPMT6950,Fernforest Dr at Sandalwood Pky E,43.749542,-79.762947,Brampton
BRPMT6990,Great Lakes Dr at Harold M. Braithwaite S.S,43.737713,-79.770622,Brampton
BRPMT7110,Sandalwood Pky E at Fernforest Dr,43.749718,-79.763847,Brampton
BRPMT7120,Fernforest Dr at Hollybush St,43.749126,-79.762726,Brampton
BRPMT7130,Fernforest Dr s/of Rainforest Dr,43.747463,-79.760468,Brampton
BRPMT7140,Fernforest Dr at Black Oak Dr,43.745281,-79.757507,Brampton
BRPMT7240,Mackay St S s/of Malabar Cres,43.733932,-79.739647,Brampton
BRPMT7270,Williams Pky E e/of Mackay St S,43.731594,-79.732773,Brampton
BRPMT7280,Williams Pky E at Bramalea Rd  (North Peel S.S.),43.733089,-79.731049,Brampton
BRPMT7320,Hilldale Cres at Hedley Crt,43.729481,-79.727051,Brampton
BRPMT7330,Hilldale Cres at Hallcrown Crt,43.729252,-79.729523,Brampton
BRPMT7340,Hilldale Cres at Homer Square,43.727863,-79.731003,Brampton
BRPMT7350,Hilldale Cres at Hamlet Crt,43.726837,-79.732101,Brampton
BRPMT7360,Hilldale Cres at Hollyhedge Crt,43.725365,-79.731438,Brampton
BRPMT7370,Hilldale Cres s/of Hector Crt,43.725605,-79.728867,Brampton
BRPMT7455,Major William Sharpe Dr e/of Chinguacousy Rd,43.676792,-79.794586,Brampton
BRPMT7460,Major William Sharpe Dr w/of Alloway Gate,43.677795,-79.792862,Brampton
BRPMT7470,Major William Sharpe Dr s/of Castlehill Rd,43.677937,-79.79084,Brampton
BRPMT7480,Major William Sharpe Dr n/of Murdoch Dr,43.677063,-79.789238,Brampton
BRPMT7490,Major William Sharpe Dr at Flowertown Ave,43.675797,-79.787987,Brampton
BRPMT7500,Flowertown Ave w/of Phelps Dr,43.676529,-79.785889,Brampton
BRPMT7510,Flowertown Ave w/of Grange St,43.677738,-79.784309,Brampton
BRPMT7520,Flowertown Ave w/of Cumbrian Crt,43.679249,-79.782547,Brampton
BRPMT7530,Flowertown Ave e/of Fairfield Ave,43.680862,-79.780731,Brampton
BRPMT7535,Flowertown Ave w/of McLaughlin Rd N,43.68214,-79.779259,Brampton
BRPMT7600,Queen St W opp Mercer Dr,43.677834,-79.768631,Brampton
BRPMT7610,Queen St W e/of Haggart Ave S,43.679234,-79.767082,Brampton
BRPMT7620,McMurchy - Zum Queen West Station Stop EB,43.680653,-79.765511,Brampton
BRPMT7630,Queen St W at Mill St S,43.682888,-79.763069,Brampton
BRPMT7640,Queen St W at Elizabeth St S,43.683868,-79.762016,Brampton
BRPMT7650,George St n/of Diplock Ln,43.68578,-79.761749,Brampton
BRPMT7675,Queen St E e/of Chapel St,43.687405,-79.758141,Brampton
BRPMT7680,Queen St E w/of James St,43.689121,-79.75621,Brampton
BRPMT7700,Queen St E at Trueman St,43.692696,-79.752541,Brampton
BRPMT7710,Queen St E opp Beech St,43.693455,-79.751686,Brampton
BRPMT7730,Queen St E btwn Kennedy Rd N & Hansen Rd,43.697292,-79.747368,Brampton
BRPMT7740,Queen St E e/of Hansen Rd,43.69902,-79.745392,Brampton
BRPMT7750,Queen St btwn Hansen Rd & Rutherford Rd,43.699883,-79.744431,Brampton
BRPMT7790,West Drive s/of Queen St E,43.70808,-79.733299,Brampton
BRPMT7800,West Dr n/of Clark Blvd (100 West Dr),43.705631,-79.729637,Brampton
BRPMT7970,Delta Park Blvd s/of Queen St - 1A,43.745552,-79.691864,Brampton
BRPMT7980,Delta Park Blvd at 170 Delta Park Blvd - 1A,43.74369,-79.69062,Brampton
BRPMT7990,Delta Park Blvd at Nevets Rd - 1A,43.742561,-79.689934,Brampton
BRPMT7995,Nevets Rd at Airport - 1A,43.741249,-79.692047,Brampton
BRPMT8000,Coventry Rd w/of Airport Rd - 1A,43.740612,-79.692993,Brampton
BRPMT8020,Conventry Rd at Walker Dr,43.738869,-79.695358,Brampton
BRPMT8030,Walker Dr at 299 Walker Dr ( Bell Building ) - 1A,43.739239,-79.697388,Brampton
BRPMT8040,Walker Rd at Gateway Blvd - 1A,43.737915,-79.698898,Brampton
BRPMT8050,Gateway Blvd at Queen St E - 1A,43.738255,-79.70034,Brampton
BRPMT8070,Queen St E w/of Tim Hortons (2433 Queen St E),43.736446,-79.70433,Brampton
BRPMT8200,West Dr at 83 West Dr,43.705708,-79.729294,Brampton
BRPMT8210,West Dr at 115 West Dr,43.707825,-79.732445,Brampton
BRPMT8245,Queen St E at 300 Queen St E,43.700157,-79.744644,Brampton
BRPMT8250,Queen St E w/of Hansen Rd,43.698521,-79.746506,Brampton
BRPMT8260,Queen St E btwn Hansen Rd & Kennedy Rd N,43.697342,-79.747841,Brampton
BRPMT8280,Queen St E at Beech St,43.693939,-79.751549,Brampton
BRPMT8290,Queen St E at 164 Queen St,43.692585,-79.753036,Brampton
BRPMT8310,Queen St E w/of Scott St,43.689419,-79.756279,Brampton
BRPMT8320,Queen St E e/of Theatre Lane,43.687298,-79.758514,Brampton
BRPMT8340,George St opp Diplock Lane,43.685425,-79.76152,Brampton
BRPMT8350,Queen St W at Mill St N,43.683693,-79.762474,Brampton
BRPMT8360,Queen St W at Park St,43.68272,-79.763557,Brampton
BRPMT8370,McMurchy - Zum Queen West Station Stop WB,43.680473,-79.766037,Brampton
BRPMT8380,Queen St W at Haggert Ave N,43.679199,-79.76741,Brampton
BRPMT8390,Queen St W at Mercer Dr,43.677937,-79.768806,Brampton
BRPMT8400,McLaughlin - Zum Queen West Station Stop WB,43.675743,-79.771301,Brampton
BRPMT8410,Queen St W e/of Kimbark Dr,43.672955,-79.774391,Brampton
BRPMT8420,Major William Sharpe Dr n/of Queen St W,43.670792,-79.777756,Brampton
BRPMT8430,Major William Sharpe Dr n/of Burgby Ave,43.671532,-79.78299,Brampton
BRPMT8440,Major William Sharpe Dr opp Candy Cres (S),43.672867,-79.785202,Brampton
BRPMT8450,Flowertown Ave w/of Major William Sharpe Dr,43.675613,-79.788277,Brampton
BRPMT8460,Flowertown Ave at Chinguacousy Rd,43.673927,-79.791039,Brampton
BRPMT8500,McLaughlin Rd s/of Steeles Ave W,43.656288,-79.74324,Brampton
BRPMT8510,Steeles Ave W e/of McLaughlin Rd S (Sheridan Ent),43.657776,-79.741943,Brampton
BRPMT8550,McMurchy - Zum Steeles Station Stop WB,43.661472,-79.738426,Brampton
BRPMT8581,Charolais Blvd e/of Hodgson St,43.668797,-79.739479,Brampton
BRPMT8582,Charolais Blvd e/of Mill St,43.6675,-79.741737,Brampton
BRPMT8590,Mill St S at Campkin St,43.669094,-79.743103,Brampton
BRPMT8600,Mill St S at Elgin Dr,43.67157,-79.745003,Brampton
BRPMT8610,Elgin St opp Armbro Dr,43.670666,-79.747231,Brampton
BRPMT8620,Elgin St at McMurchy Ave S,43.669022,-79.748878,Brampton
BRPMT8630,McMurchy Ave S at Ambleside Dr,43.669975,-79.750351,Brampton
BRPMT8640,McMurchy Ave S opp Kingsview Blvd,43.672619,-79.753952,Brampton
BRPMT8650,McMurchy Ave S n/of Harold St,43.674915,-79.75708,Brampton
BRPMT8660,McMurchy Ave S n/of Frederick St,43.676559,-79.759277,Brampton
BRPMT8670,McMurchy Ave S opp McHardy Place,43.678108,-79.761398,Brampton
BRPMT8680,McMurchy Ave s/of Jessie St,43.680134,-79.764153,Brampton
BRPMT8690,McMurchy Ave S at Queen St W,43.680805,-79.765038,Brampton
BRPMT8700,McMurchy Ave N at Nelson St,43.68219,-79.766785,Brampton
BRPMT8710,McMurchy Ave N at Denison Ave,43.683468,-79.768524,Brampton
BRPMT8720,Railroad St e/of McMurchy Ave N,43.684891,-79.770096,Brampton
BRPMT8730,Railroad St at West St,43.685532,-79.769737,Brampton
BRPMT8740,Railroad St w/of Mill St,43.686165,-79.766685,Brampton
BRPMT8770,Railroad St e/of Mill St,43.686337,-79.76635,Brampton
BRPMT8780,Railroad St opp West St,43.685719,-79.769325,Brampton
BRPMT8790,McMurchy Ave N s/of Railroad St,43.68409,-79.769615,Brampton
BRPMT8800,McMurchy Ave N s/of Denison Ave,43.683205,-79.768394,Brampton
BRPMT8805,McMurchy Ave N at Nelson St W,43.682434,-79.767357,Brampton
BRPMT8810,McMurchy Ave N at Queen St W,43.68124,-79.765823,Brampton
BRPMT8820,McMurchy Ave S at Royce Ave,43.679489,-79.763466,Brampton
BRPMT8830,McMurchy Ave S at McHardy Place,43.678024,-79.761627,Brampton
BRPMT8840,McMurchy Ave S at Corby Cres,43.67664,-79.759705,Brampton
BRPMT8850,McMurchy Ave S s/of Harold St,43.674397,-79.756683,Brampton
BRPMT8860,McMurchy Ave S s/of Kingsview Blvd,43.672459,-79.754105,Brampton
BRPMT8870,McMurchy Ave S at Ambleside Dr,43.670338,-79.751213,Brampton
BRPMT8880,Elgin St at McMurchy Ave S,43.669033,-79.748589,Brampton
BRPMT8890,Elgin St at Armbro Ave,43.670448,-79.747162,Brampton
BRPMT8900,Elgin St at Mill St S,43.671665,-79.745705,Brampton
BRPMT8910,Mill St S at Grand Circuit Crt,43.671318,-79.744919,Brampton
BRPMT8920,Mill St S at Howell St,43.669384,-79.743347,Brampton
BRPMT8930,Charolais Blvd e/of Mill Street,43.667706,-79.741234,Brampton
BRPMT8932,Charolais Blvd w/of Main St,43.66893,-79.738846,Brampton
BRPMT8940,McMurchy Ave S s/of Charolais Blvd,43.664738,-79.743507,Brampton
BRPMT8950,McMurchy Ave S at Keystone Dr,43.663261,-79.741554,Brampton
BRPMT8960,McMurchy Ave S s/of Peelton Heights Rd,43.661827,-79.739639,Brampton
BRPMT9000,Steeles Ave W opp Bernard Ave,43.659927,-79.740173,Brampton
BRPMT9020,McLaughlin Rd S at Holland Christian Homes,43.655071,-79.741943,Brampton
BRPMT9060,Main St S at Bartley Bull Pky,43.667931,-79.735504,Brampton
BRPMT9065,Main St S at Charolais Blvd,43.66959,-79.737816,Brampton
BRPMT9070,Main St S n/of Peel Village Pky,43.671738,-79.740761,Brampton
BRPMT9080,Main St S at Elgin Dr,43.6735,-79.743149,Brampton
BRPMT9090,Nanwood - Zum Main Station Stop NB,43.677265,-79.748062,Brampton
BRPMT9100,Main St S btwn Nanwood Dr & Harold St,43.678631,-79.750008,Brampton
BRPMT9110,Main St S at Clarence St,43.680161,-79.752083,Brampton
BRPMT9120,Main St S n/of Guest St,43.681343,-79.753662,Brampton
BRPMT9130,Main St S n/of Woodbrook Dr (St. Mary Church),43.683254,-79.75621,Brampton
BRPMT9140,Wellington - Zum Main Station Stop NB,43.684399,-79.757751,Brampton
BRPMT9150,Main St N n/of Queen St E,43.686111,-79.760117,Brampton
BRPMT9155,Main St n/of Nelson St E,43.687672,-79.762154,Brampton
BRPMT9160,Theatre Lane - Zum Main Station Stop NB,43.687393,-79.761818,Brampton
BRPMT9170,Main St N at Church St,43.688042,-79.762718,Brampton
BRPMT9180,Main St N at Alexander St,43.689079,-79.764091,Brampton
BRPMT9190,Main St N at Sproule Dr,43.690937,-79.766594,Brampton
BRPMT9195,Vodden - Zum Main Station Stop NB,43.692806,-79.769043,Brampton
BRPMT9210,Main St N at English St,43.694538,-79.771362,Brampton
BRPMT9220,Main St N at Layham Gate,43.696209,-79.773605,Brampton
BRPMT9230,Williams - Zum Main Station Stop NB,43.698566,-79.776718,Brampton
BRPMT9235,Main St N btwn Layham Gate & Williams Pky E,43.697651,-79.775589,Brampton
BRPMT9250,Main St N at Brickyard Way,43.700779,-79.77977,Brampton
BRPMT9265,Main St N btwn Brickyard Way & Quarry Edge Dr,43.702148,-79.781738,Brampton
BRPMT9270,Main St N at Quarry Edge Dr,43.703362,-79.783348,Brampton
BRPMT9277,Main St s/of Bovaird Dr,43.705166,-79.78569,Brampton
BRPMT9280,Bovaird - Zum Main Station Stop NB,43.706585,-79.787575,Brampton
BRPMT9300,Hurontario St at Wexford Rd,43.709736,-79.791893,Brampton
BRPMT9310,Hurontario St at Tremblay St,43.712452,-79.79557,Brampton
BRPMT9320,Hurontario St opp Fisherman Dr,43.715027,-79.798973,Brampton
BRPMT9330,Sandalwood Pkwy e/of Main St,43.718319,-79.802315,Brampton
BRPMT9340,Sandalwood Pky E btwn Hurontario St and Sunforest,43.719246,-79.801277,Brampton
BRPMT9350,Sandalwood Pky E at Sunforest Dr,43.720585,-79.799866,Brampton
BRPMT9360,Sandalwood Pky E at 95 Sandalwood (Firestation),43.722584,-79.79776,Brampton
BRPMT9380,Conestoga Dr opp Loafers Lake Lane,43.726116,-79.797958,Brampton
BRPMT9390,Heart Lake Terminal Route 2 Stop,43.727917,-79.798012,Brampton
BRPMT9415,Conestoga Dr opp Mondragon Circle,43.729641,-79.796867,Brampton
BRPMT9420,Sandalwood Pky E w/of Kennedy Rd N,43.727634,-79.794319,Brampton
BRPMT9430,Sandalwood Pky E w/of Conestoga Dr,43.725201,-79.796654,Brampton
BRPMT9440,Sandalwood Pky E opp 95 Sandalwood Pky E (Firestat,43.722969,-79.797783,Brampton
BRPMT9450,Sandalwood Pky E at Braidwood Lake Rd,43.721024,-79.799767,Brampton
BRPMT9460,Sandalwood Pky E w/of Braidwood Lake Rd,43.719975,-79.800903,Brampton
BRPMT9470,Sandalwood Pky E at Hurontario St,43.718166,-79.802879,Brampton
BRPMT9475,Sandalwood - Zum Main Station Stop SB,43.717308,-79.802681,Brampton
BRPMT9480,Hurontario St at Fisherman Dr,43.715115,-79.799706,Brampton
BRPMT9490,Hurontario St n/of Tremblay St,43.712566,-79.796227,Brampton
BRPMT9500,Hurontario St s/of Wexford Rd,43.709068,-79.791481,Brampton
BRPMT9510,Hurontario St at 10086 Hurontario St (Stitches Out,43.707436,-79.78933,Brampton
BRPMT9520,Hurontario St at Bovaird Dr W,43.706287,-79.787819,Brampton
BRPMT9530,Bovaird - Zum Main Station Stop SB,43.70496,-79.785995,Brampton
BRPMT9540,Main St N at Gillingham Dr,43.703529,-79.784019,Brampton
BRPMT9550,Main St N btwn Gillingham Dr & Brickyard Way,43.701473,-79.781166,Brampton
BRPMT9560,Main St s/of Brickyard Way,43.699951,-79.779076,Brampton
BRPMT9580,Williams - Zum Main Station Stop SB,43.698288,-79.776901,Brampton
BRPMT9590,Main St N at Archibald St,43.696388,-79.774208,Brampton
BRPMT9600,Main St N at English St,43.694721,-79.771965,Brampton
BRPMT9610,Vodden - Zum Main Station Stop SB,43.692623,-79.76918,Brampton
BRPMT9620,Main St N at Rosedale Ave,43.691151,-79.767143,Brampton
BRPMT9630,Main St N s/of David St,43.690002,-79.765602,Brampton
BRPMT9640,Main St N at Church St,43.688255,-79.763306,Brampton
BRPMT9650,Nelson - Zum Main Station Stop SB,43.687317,-79.761993,Brampton
BRPMT9660,Main St N at Queen St W,43.686008,-79.760246,Brampton
BRPMT9670,Wellington - Zum Main Station Stop SB,43.684822,-79.758636,Brampton
BRPMT9680,Main St S opp Woodbrook Dr,43.682732,-79.755814,Brampton
BRPMT9700,Main St S at Clarence St,43.680389,-79.752647,Brampton
BRPMT9715,Main St S btwn Harold St & Nanwood Dr,43.678329,-79.749916,Brampton
BRPMT9720,Nanwood - Zum Main Station Stop SB,43.6763,-79.747299,Brampton
BRPMT9730,Main St S at Elgin Dr,43.673603,-79.743774,Brampton
BRPMT9750,Main St S at Charolais Blvd,43.669998,-79.738861,Brampton
BRPMT9760,Main St S at Bartley Bull Pkwy,43.667603,-79.735718,Brampton
BRPMT9770,Hurontario St s/of Steeles Ave (School Special),43.665237,-79.732552,Brampton
BRPMT9780,Sir Lou - Zum Main Station Stop SB,43.661194,-79.727081,Brampton
BRPMT9785,Ray Lawson - Zum Main Station Stop SB,43.658695,-79.723785,Brampton
BRPMT9790,County Court Blvd (S) e/of Hurontario St,43.659519,-79.722191,Brampton
BRPMT9800,County Court Blvd e/of Havelock Dr-School Special,43.660423,-79.721199,Brampton
BRPMT9810,County Court Blvd n/of Havelock Dr (E),43.661724,-79.720276,Brampton
BRPMT9820,County Court Blvd at Mossbank Dr,43.663666,-79.721016,Brampton
BRPMT9830,County Court Blvd at Seminole Dr,43.66444,-79.72374,Brampton
BRPMT9840,County Court Blvd at Turtlecreek Blvd,43.662888,-79.726158,Brampton
BRPMT9867,Clark Blvd w/of Peel Centre Dr,43.71431,-79.719673,Brampton
BRPMT9875,Clark Blvd w/of Central Park Dr,43.715565,-79.71801,Brampton
BRPMT9880,Clark Blvd opp Kings Cross Rd,43.718487,-79.712898,Brampton
BRPMT9885,Central Park Dr n/of Clark Blvd,43.71743,-79.716316,Brampton
BRPMT9890,Clark Blvd at Edenborough Dr,43.720722,-79.710045,Brampton
BRPMT9895,Central Park Dr s/of Knightsbridge Rd,43.717319,-79.716766,Brampton
BRPMT9900,Clark Blvd at Earnscliffe Gate,43.722984,-79.709145,Brampton
BRPMT9910,Clark Blvd e/of Esplanade Rd,43.724838,-79.708328,Brampton
BRPMT9920,Clark Blvd e/of Finchgate Blvd,43.726288,-79.70768,Brampton
BRPMT9930,Clark Blvd opp Folkstone Cres (W),43.727589,-79.705994,Brampton
BRPMT9940,Clark Blvd at Elrose Rd,43.72728,-79.70253,Brampton
BRPMT9950,Clark Blvd at Eastbourne Dr,43.726383,-79.700676,Brampton
BRPMT9960,Clark Blvd at Torbram Rd,43.727127,-79.697853,Brampton
BRPMT9970,Clark Blvd e/of Torbram Rd,43.728577,-79.6959,Brampton
BRPMT9980,Summerlea Rd n/of Clark Blvd,43.730751,-79.694405,Brampton
BRPMT9990,Summerlea Rd at Colony Crt,43.731918,-79.695992,Brampton
BRPMT10000,Summerlea Rd n/of RRX,43.733715,-79.698441,Brampton
BRPMT10010,Summerlea Rd n/of Imperial Gate,43.735409,-79.700729,Brampton
BRPMT10020,Walker Dr e/of Gateway Blvd,43.737988,-79.698601,Brampton
BRPMT10030,Walker Dr e/of Gateway Blvd,43.738796,-79.697662,Brampton
BRPMT10040,Walker Dr s/of Coventry Rd,43.738342,-79.695343,Brampton
BRPMT10050,Walker Dr at Shaftsbury  Lane,43.736568,-79.69294,Brampton
BRPMT10060,Walker Dr opp Indell Lane,43.735313,-79.691246,Brampton
BRPMT10065,Walker Dr at Clark Blvd,43.734135,-79.689667,Brampton
BRPMT10070,Clark Blvd at Airport Rd,43.735134,-79.686684,Brampton
BRPMT10080,Clark Blvd at Devon Rd,43.736652,-79.684578,Brampton
BRPMT10100,Devon Rd at 74 Devon Rd,43.735088,-79.682144,Brampton
BRPMT10101,Pearson Int Airport Terminal 1 Ground Level,43.681984,-79.612968,Brampton
BRPMT10110,Devon Rd at 50 Devon Rd,43.733097,-79.679474,Brampton
BRPMT10120,Devon Rd at Intermodal Dr,43.731758,-79.677803,Brampton
BRPMT10125,Intermodal - Zum Bovaird Station Stop NB,43.731186,-79.678795,Brampton
BRPMT10130,Woodslea - Zum Bovaird Station Stop SB,43.73085,-79.678993,Brampton
BRPMT10135,Woodslea Rd w/of Airport Road,43.730366,-79.679314,Brampton
BRPMT10140,Woodslea Rd at Walker Dr,43.729019,-79.681152,Brampton
BRPMT10150,Walker Dr at Flachsmann Whse,43.726933,-79.679886,Brampton
BRPMT10160,Walker Dr opp Humpty Dumpty Whse,43.725784,-79.678474,Brampton
BRPMT10170,Walker Dr at 80 Walker Dr,43.723984,-79.678551,Brampton
BRPMT10180,Walker Dr at 78 Walker Dr,43.722218,-79.678864,Brampton
BRPMT10190,Summerlea Rd n/of Walker Dr,43.720428,-79.68042,Brampton
BRPMT10200,Summerlea Rd at 75 Summerlea Rd,43.721981,-79.682503,Brampton
BRPMT10210,Summerlea Rd at 99 Summerlea Rd,43.723442,-79.684456,Brampton
BRPMT10230,Summerlea Rd n/of Trojan Crt,43.725105,-79.686714,Brampton
BRPMT10240,Summerlea Rd at Atlas Crt,43.727524,-79.690025,Brampton
BRPMT10250,Summerlea Rd at Barton Crt,43.729111,-79.692162,Brampton
BRPMT10260,Clark Blvd at Torbram Rd,43.727741,-79.697411,Brampton
BRPMT10265,Clark Blvd btwn Summerlea and Torbram Rd,43.72887,-79.695847,Brampton
BRPMT10270,Clark Blvd opp Eastbourne Dr,43.726528,-79.70005,Brampton
BRPMT10280,Clark Blvd w/of Folkstone Cres (E),43.727428,-79.702431,Brampton
BRPMT10290,Clark Blvd e/of Folkstone Cres,43.727867,-79.705574,Brampton
BRPMT10300,Clark Blvd at Finchgate Blvd,43.726215,-79.707954,Brampton
BRPMT10310,Clark Blvd opp Esplanade Rd,43.724976,-79.708504,Brampton
BRPMT10320,Clark Blvd opp Earnscliffe Gate,43.723438,-79.70919,Brampton
BRPMT10330,Clark Blvd at Fleetwood Cres,43.721298,-79.709984,Brampton
BRPMT10340,Clark Blvd at Bramalea Rd,43.720089,-79.710968,Brampton
BRPMT10350,Clark Blvd at Kings Cross Rd,43.718979,-79.712631,Brampton
BRPMT10360,Clark Blvd at Central Park Dr,43.717056,-79.715187,Brampton
BRPMT10400,Mountainberry Rd e/of Snowcap Rd,43.764748,-79.732819,Brampton
BRPMT10420,Mountainberry Rd at Snow Leopard Crt (N),43.766079,-79.730316,Brampton
BRPMT10440,Mountainberry Rd btwn Snow Leopard & Narrow Valley,43.764389,-79.726776,Brampton
BRPMT10450,Mountainberry Rd opp Mount Rainer Cres (W),43.761642,-79.727371,Brampton
BRPMT10460,Mountainberry Rd at Snowcap Rd,43.761032,-79.730682,Brampton
BRPMT10470,Peter Robertson Blvd w/of Mountainash Rd,43.760311,-79.733063,Brampton
BRPMT10480,Peter Robertson Blvd at Eagleridge Dr,43.758469,-79.735252,Brampton
BRPMT10490,Peter Robertson Blvd w/of Torbram Rd,43.756367,-79.737633,Brampton
BRPMT10500,Peter Robertson Blvd at Barley Field Rd,43.754433,-79.739891,Brampton
BRPMT10510,Peter Robertson Blvd at Sunny Meadow Blvd,43.752129,-79.741943,Brampton
BRPMT10520,Sunny Meadow Blvd opp Oatfield Rd,43.752682,-79.743195,Brampton
BRPMT10530,Sunny Meadow Blvd at Red Clover Rd,43.75415,-79.745216,Brampton
BRPMT10540,Sunny Meadow Blvd at Red River Rd,43.755165,-79.746574,Brampton
BRPMT10580,Black Forest Dr at Sprucelands Ave,43.749508,-79.753487,Brampton
BRPMT10590,Black Forest Dr opp Willow Park Dr,43.747902,-79.754776,Brampton
BRPMT10593,Black Forest Dr opp Bunchberry Way,43.746441,-79.755913,Brampton
BRPMT10595,Fernforest Dr s/of Black Forest Dr (at Bobcat St),43.743793,-79.755516,Brampton
BRPMT10600,Peter Robertson Blvd w/of Fernforest Dr,43.74062,-79.754257,Brampton
BRPMT10610,Peter Robertson Blvd w/of Hickroybush Ave,43.740349,-79.757683,Brampton
BRPMT10620,Peter Robertson Blvd at Dixie Rd,43.739326,-79.75972,Brampton
BRPMT10630,Guru Nanak St e/of Canada Goose Blvd,43.737446,-79.761658,Brampton
BRPMT10640,Guru Nanak St e/of Blue Whale Blvd,43.736317,-79.762749,Brampton
BRPMT10650,Guru Nanak St opp Riverbank Rd,43.734261,-79.76384,Brampton
BRPMT10730,Fernforest Dr at Kimberly Cres (S),43.741058,-79.753899,Brampton
BRPMT10740,Fernforest Dr at Hackberry Gate,43.743938,-79.75547,Brampton
BRPMT10820,Sunny Meadow Blvd s/of Larkspur Rd,43.754982,-79.746544,Brampton
BRPMT10830,Sunny Meadow Blvd at Squirreltail Way,43.754234,-79.745552,Brampton
BRPMT10840,Sunny Meadow Blvd at Oatfield Rd,43.75312,-79.744057,Brampton
BRPMT10845,Sunny Meadow Blvd at Peter Robertson Blvd,43.751907,-79.74247,Brampton
BRPMT10855,Sunny Meadow Blvd opp Thunderbird Trail,43.750393,-79.741241,Brampton
BRPMT10857,Brampton Civic Hospital 12 SB / 35,43.747833,-79.741837,Brampton
BRPMT10858,Brampton Civic Hospital 12NB,43.747871,-79.741798,Brampton
BRPMT10915,Sunny Meadow Blvd s/of Father Tobin Rd,43.765614,-79.761337,Brampton
BRPMT10918,Sunny Meadow Blvd s/of Father Tobin Rd,43.76582,-79.761398,Brampton
BRPMT10924,Sunny Meadow Blvd n/of Sparhill St,43.764633,-79.760002,Brampton
BRPMT10925,Sunny Meadow Blvd btwn Vanderbrink Dr & Serenes,43.764412,-79.759483,Brampton
BRPMT10929,Sunny Meadow Blvd n/of Australia Dr,43.763508,-79.758255,Brampton
BRPMT10930,Sunny Meadow Blvd at Australia Dr,43.762951,-79.757759,Brampton
BRPMT10931,Sunny Meadow Blvd at Stanley Mills Public School,43.760777,-79.757362,Brampton
BRPMT10934,Sunny Meadow Blvd s/of Chapparal Dr,43.762009,-79.757004,Brampton
BRPMT10938,Sunny Meadow n/of Black Cherry Ln,43.759289,-79.757057,Brampton
BRPMT10940,Sunny Meadow Blvd opp Black Cherry Lane,43.759144,-79.757225,Brampton
BRPMT10950,Sunny Meadow Blvd n/of Sandalwood Pkwy,43.757477,-79.75486,Brampton
BRPMT10952,Sunny Meadow Blvd n/of Sandalwood Pky,43.757656,-79.754997,Brampton
BRPMT10960,Sandalwood Pkwy w/of Bramalea Rd,43.753658,-79.758102,Brampton
BRPMT10970,Sandalwood Pky E at Rattlesnake Rd,43.752769,-79.75959,Brampton
BRPMT10975,Sandalwood Pky E btwn Rattlesnake and Fernforest,43.75132,-79.761978,Brampton
BRPMT10980,Sandalwood Pky E at Fernforest Dr,43.750267,-79.763542,Brampton
BRPMT10990,Sandalwood Pky E btwn Fernforest Dr & Dixie Rd,43.74815,-79.766006,Brampton
BRPMT11000,Sandalwood Pky E opp Springtown Trail,43.746647,-79.76754,Brampton
BRPMT11010,Sandalwood Pky E w/of Dixie Rd,43.744873,-79.769623,Brampton
BRPMT11060,Trinity Common Terminal Route 32/23 WB/18B Stop,43.731441,-79.763451,Brampton
BRPMT11100,Sandalwood Pky E w/of Heart Lake Rd,43.736015,-79.781395,Brampton
BRPMT11110,Sandalwood Pky E at Royal Palm Dr (E),43.733799,-79.785385,Brampton
BRPMT11120,Sandalwood Pky E at Royal Palm Dr (W),43.73159,-79.788116,Brampton
BRPMT11130,Sandalwood Pky E at Richvale Dr (WB),43.730282,-79.790016,Brampton
BRPMT11140,Sandalwood Pky E at Kennedy Rd N,43.728443,-79.793198,Brampton
BRPMT11150,Kennedy Rd N n/of Sandalwood Pky E,43.729481,-79.794937,Brampton
BRPMT11160,Conestoga Dr at Mondragon Circle,43.729816,-79.797005,Brampton
BRPMT11170,Heart Lake Terminal Route 23 WB Stop,43.727787,-79.79834,Brampton
BRPMT11180,Conestoga Dr at Loafers Lake Lane,43.726166,-79.79863,Brampton
BRPMT11240,Sandalwood Pky W w/of Hurontario St,43.716747,-79.804405,Brampton
BRPMT11250,Sandalwood Pkwy at 130 Sandalwood Pkwy,43.714241,-79.807182,Brampton
BRPMT11260,Sandalwood Pky W at Van Kirk Dr,43.710049,-79.810318,Brampton
BRPMT11405,Worthington Ave s/of Fairhill Ave,43.68602,-79.822121,Brampton
BRPMT11410,Worthington Ave at Gabrielle Dr,43.685196,-79.820999,Brampton
BRPMT11420,Worthington Ave at Clayborne Ave,43.683746,-79.819054,Brampton
BRPMT11430,Worthington Ave at Salvation Rd,43.681313,-79.816071,Brampton
BRPMT11440,Mount Pleasant GO Station  Route 9 Stop,43.674492,-79.822433,Brampton
BRPMT11460,Worthington Ave n/of Salvation Rd,43.681599,-79.816177,Brampton
BRPMT11470,Worthington Ave opp Clayborne Ave,43.683636,-79.818695,Brampton
BRPMT11480,Worthington Ave opp Gabrielle Dr,43.684769,-79.820213,Brampton
BRPMT11485,Worthington Ave at Fairhill Ave,43.686188,-79.822136,Brampton
BRPMT11510,Brisdale Dr s/of Sandy Beach Rd,43.689713,-79.824692,Brampton
BRPMT11520,Brisdale Dr n/of Wetmeadow Dr,43.691822,-79.827545,Brampton
BRPMT11530,Brisdale Dr at Sandalwood Pky W,43.69323,-79.829544,Brampton
BRPMT11540,Brisdale Dr at Ranchero Dr opp St. Edmund Campion,43.694332,-79.83107,Brampton
BRPMT11550,Brisdale Dr at Ramsey Lane,43.696091,-79.833488,Brampton
BRPMT11560,Botavia Downs Dr e/of Brisdale Dr,43.697495,-79.834579,Brampton
BRPMT11570,Botavia Downs Dr at Trumpet Valley Blvd,43.699158,-79.831856,Brampton
BRPMT11583,Earlsbridge Blvd e/of Chinguacousy Rd - School,43.702015,-79.828583,Brampton
BRPMT11590,Earlsbridge Blvd at Edenbrook Hill Dr,43.70393,-79.827065,Brampton
BRPMT11630,Sandalwood Pky W at Queen Mary Dr,43.703915,-79.815224,Brampton
BRPMT11640,Sandalwood Pky W at McLaughlin Rd N,43.706322,-79.812096,Brampton
BRPMT11650,Sandalwood Pky W at Van Kirk Dr,43.70929,-79.810013,Brampton
BRPMT11660,Sandalwood Pkwy opp 130 Sandalwood Pkwy,43.714008,-79.806953,Brampton
BRPMT11670,Sandalwood Pky W at Hurontario St,43.717049,-79.803703,Brampton
BRPMT11730,Heart Lake Terminal Route 21 Stop,43.727783,-79.798141,Brampton
BRPMT11750,Sandalwood Pky E at Richvale Dr (EB),43.729691,-79.790253,Brampton
BRPMT11760,Sandalwood Pky E opp Royal Palm Dr (W),43.73103,-79.788574,Brampton
BRPMT11770,Sandalwood Pky E at Glover Gate,43.733341,-79.785423,Brampton
BRPMT11780,Sandalwood Pky E at Heart Lake Rd,43.735214,-79.782143,Brampton
BRPMT11790,Great Lakes Dr at Sandalwood Pky E,43.741016,-79.773369,Brampton
BRPMT11810,Great Lakes Dr s/of Sailwind Rd (St. Isac E.S.),43.736481,-79.769081,Brampton
BRPMT11815,Great Lakes Dr s/of Serenity Ln,43.734726,-79.767258,Brampton
BRPMT11825,Great Lakes Dr s/of Guru Nanak St,43.732773,-79.764351,Brampton
BRPMT11830,Trinity Common Terminal Route 33/23 EB/21 Stop,43.731213,-79.763298,Brampton
BRPMT11840,Great Lakes Dr at Beachsurf Rd,43.734158,-79.766235,Brampton
BRPMT11850,Great Lakes Dr at Sailwind Rd,43.736832,-79.769173,Brampton
BRPMT11860,Great Lakes Dr at Harold M. Brathwaite S.S.,43.73777,-79.770393,Brampton
BRPMT11870,Great Lakes Dr at Sandalwood Pky E,43.741188,-79.77317,Brampton
BRPMT11875,Sandalwood Pky at Rec Centre Entrance,43.743206,-79.771271,Brampton
BRPMT11880,Sandalwood Pky E at Dixie Rd,43.744755,-79.769211,Brampton
BRPMT11890,Sandalwood Pky E e/of Springtown Trail,43.746742,-79.767059,Brampton
BRPMT11910,Sandalwood Pky E at Pinecone Way,43.752312,-79.759941,Brampton
BRPMT11920,Sandalwood Pky E at Bramalea Rd,43.753765,-79.75753,Brampton
BRPMT11940,Sandalwood Pky E e/of Sunny Meadow Blvd,43.757984,-79.753929,Brampton
BRPMT11950,Sandalwood Pky E opp Black Cherry Lane,43.759109,-79.753273,Brampton
BRPMT11960,Sandalwood Pky E at Cobblestone Crt,43.76107,-79.752327,Brampton
BRPMT11970,Sandalwood Pky E at Lakespring Gate,43.763809,-79.750267,Brampton
BRPMT11975,Sandalwood Pky E at Torbram Rd,43.764935,-79.748695,Brampton
BRPMT11980,Torbram Rd n/of Sandalwood Pky E,43.765667,-79.74894,Brampton
BRPMT11982,Torbram Rd at Brucewood Rd,43.767448,-79.751411,Brampton
BRPMT11986,Torbram Rd s/of Father Tobin Rd,43.769684,-79.754486,Brampton
BRPMT12040,English St w/of Main St N,43.694393,-79.771965,Brampton
BRPMT12050,English St at Murray St,43.693413,-79.773033,Brampton
BRPMT12060,English St e/of Talbot St,43.690716,-79.775963,Brampton
BRPMT12070,English St at Vodden St W,43.689404,-79.776207,Brampton
BRPMT12080,Vodden St W at Talbot St,43.689411,-79.778633,Brampton
BRPMT12090,Vodden St W at Roseland Gate,43.689793,-79.782272,Brampton
BRPMT12100,Vodden St W at Williams Pky W,43.69038,-79.784477,Brampton
BRPMT12110,Royal Orchard Dr n/of Williams Pky W,43.690971,-79.7855,Brampton
BRPMT12120,Royal Orchard Dr at Trailridge Dr,43.692211,-79.786232,Brampton
BRPMT12130,Royal Orchard Dr opp Dunhill Rd,43.693798,-79.78685,Brampton
BRPMT12140,Royal Orchard Dr at Suncrest Dr,43.694572,-79.78775,Brampton
BRPMT12150,Royal Orchard Dr at Richwood Cres (S),43.696491,-79.790314,Brampton
BRPMT12160,Royal Orchard Dr at Richwood Cres (N),43.696953,-79.792114,Brampton
BRPMT12170,Royal Orchard Dr at Bovaird Dr,43.697956,-79.794594,Brampton
BRPMT12180,Van Kirk Dr at Canam Cres (S),43.698944,-79.796082,Brampton
BRPMT12190,Van Kirk Dr at Canam Cres (N),43.700077,-79.797798,Brampton
BRPMT12200,Van Kirk Dr n/of Railway Tracks (northbound),43.703732,-79.799858,Brampton
BRPMT12210,Van Kirk Dr at 95 Van Kirk Dr,43.705715,-79.801567,Brampton
BRPMT12220,Van Kirk Dr at 111 Van Kirk Dr,43.707615,-79.804138,Brampton
BRPMT12230,Van Kirk Dr opp Regan Rd (N),43.709137,-79.806351,Brampton
BRPMT12240,Van Kirk Dr s/of Sandalwood Pky W,43.709572,-79.808388,Brampton
BRPMT12250,Van Kirk Dr n/of Sandalwood Pky W,43.709698,-79.811081,Brampton
BRPMT12260,Van Kirk Dr at Van Scott Dr,43.710785,-79.814117,Brampton
BRPMT12270,Van Kirk Dr at Viceroy Cres (S),43.713486,-79.81778,Brampton
BRPMT12280,Van Kirk Dr at Van Scott Dr (N),43.715378,-79.818962,Brampton
BRPMT12290,Van Kirk Dr at Wanless Dr,43.718266,-79.821419,Brampton
BRPMT12295,Wanless Dr at 225 Wanless Dr,43.7216,-79.81826,Brampton
BRPMT12300,Wanless Dr opp Tournament Dr,43.723652,-79.81617,Brampton
BRPMT12400,Wanless Dr w/of Hurontario St,43.725304,-79.814392,Brampton
BRPMT12410,Hurontario St at 10886 Hurontario St,43.723919,-79.811729,Brampton
